[01:13:32.074384] [206] HEARTBEAT
[01:13:32.082362] [207] ATTITUDE_TARGET
[01:13:32.525290] [208] VFR_HUD
[01:13:33.100355] [209] HEARTBEAT
[01:13:33.340197] [210] VFR_HUD
[01:13:34.020987] [211] HEARTBEAT
[01:13:34.040001] [212] SYS_STATUS
[01:13:34.084023] [213] BATTERY_STATUS
[01:13:34.091972] [214] ATTITUDE_TARGET
[01:13:34.096940] [215] VFR_HUD
[01:13:35.060916] [216] VFR_HUD
[01:13:35.063948] [217] HEARTBEAT
[01:13:35.634780] [218] VFR_HUD
[01:13:36.103723] [219] HEARTBEAT
[01:13:36.111919] [220] ATTITUDE_TARGET
[01:13:36.434721] [221] VFR_HUD
[01:13:37.119613] [222] HEARTBEAT
[01:13:37.249536] [223] VFR_HUD
[01:13:38.052532] [224] HEARTBEAT
[01:13:38.058451] [225] SYS_STATUS
[01:13:38.176386] [226] BATTERY_STATUS
[01:13:38.178279] [227] EXTENDED_SYS_STATE
[01:13:38.297459] [228] ATTITUDE_TARGET
[01:13:38.302316] [229] VFR_HUD
[01:13:38.306279] [230] SYSTEM_TIME
[01:13:38.859270] [231] VFR_HUD
[01:13:39.080334] [232] HEARTBEAT
[01:13:39.654152] [233] VFR_HUD
[01:13:40.124219] [234] HEARTBEAT
[01:13:40.131192] [235] ATTITUDE_TARGET
[01:13:40.470028] [236] VFR_HUD
[01:13:41.029970] [237] HEARTBEAT
[01:13:41.265002] [238] VFR_HUD
[01:13:42.081749] [239] HEARTBEAT
[01:13:42.088756] [240] SYS_STATUS
[01:13:42.206717] [241] BATTERY_STATUS
[01:13:42.214720] [242] ATTITUDE_TARGET
[01:13:42.244767] [243] VFR_HUD
[01:13:42.874570] [244] VFR_HUD
[01:13:43.099543] [245] HEARTBEAT
[01:13:43.684430] [246] VFR_HUD
[01:13:44.019362] [247] HEARTBEAT
[01:13:44.042429] [248] ATTITUDE_TARGET
[01:13:44.484377] [249] VFR_HUD
[01:13:45.065280] [250] HEARTBEAT
[01:13:45.294275] [251] VFR_HUD
[01:13:46.102031] [252] HEARTBEAT
[01:13:46.107961] [253] SYS_STATUS
[01:13:46.222996] [254] BATTERY_STATUS
[01:13:46.340968] [255] ATTITUDE_TARGET
[01:13:46.345910] [0] VFR_HUD
[01:13:46.903927] [1] VFR_HUD
[01:13:47.134854] [2] HEARTBEAT
[01:13:47.621721] [3] VFR_HUD
[01:13:48.068701] [4] HEARTBEAT
[01:13:48.076680] [5] ATTITUDE_TARGET
[01:13:48.519656] [6] VFR_HUD
[01:13:49.079696] [7] HEARTBEAT
[01:13:49.314671] [8] VFR_HUD
[01:13:50.137501] [9] HEARTBEAT
[01:13:50.143397] [10] SYS_STATUS
[01:13:50.183350] [11] BATTERY_STATUS
[01:13:50.191351] [12] ATTITUDE_TARGET
[01:13:50.196414] [13] VFR_HUD
[01:13:50.924260] [14] VFR_HUD
[01:13:51.045189] [15] HEARTBEAT
[01:13:51.739106] [16] VFR_HUD
[01:13:52.084238] [17] HEARTBEAT
[01:13:52.091028] [18] ATTITUDE_TARGET
[01:13:52.534005] [19] VFR_HUD
[01:13:53.114962] [20] HEARTBEAT
[01:13:53.229819] [21] VFR_HUD
[01:13:54.041701] [22] HEARTBEAT
[01:13:54.048720] [23] SYS_STATUS
[01:13:54.167674] [24] BATTERY_STATUS
[01:13:54.174721] [25] ATTITUDE_TARGET
[01:13:54.205690] [26] VFR_HUD
[01:13:54.834542] [27] VFR_HUD
[01:13:55.061948] [28] HEARTBEAT
[01:13:55.672516] [29] VFR_HUD
[01:13:56.113932] [30] HEARTBEAT
[01:13:56.121390] [31] ATTITUDE_TARGET
[01:13:56.444300] [32] VFR_HUD
[01:13:57.020215] [33] HEARTBEAT
[01:13:57.259149] [34] VFR_HUD
[01:13:58.062060] [35] HEARTBEAT
[01:13:58.069083] [36] SYS_STATUS
[01:13:58.187037] [37] BATTERY_STATUS
[01:13:58.187917] [38] EXTENDED_SYS_STATE
[01:13:58.308014] [39] ATTITUDE_TARGET
[01:13:58.312969] [40] VFR_HUD
[01:13:58.315985] [41] SYSTEM_TIME
[01:13:58.869988] [42] VFR_HUD
[01:13:59.089828] [43] HEARTBEAT
[01:13:59.664796] [44] VFR_HUD
[01:14:00.133681] [45] HEARTBEAT
[01:14:00.141624] [46] ATTITUDE_TARGET
[01:14:00.474666] [47] VFR_HUD
[01:14:01.039485] [48] HEARTBEAT
[01:14:01.274479] [49] VFR_HUD
[01:14:02.091386] [50] HEARTBEAT
[01:14:02.098324] [51] SYS_STATUS
[01:14:02.217342] [52] BATTERY_STATUS
[01:14:02.224334] [53] ATTITUDE_TARGET
[01:14:02.255346] [54] VFR_HUD
[01:14:02.884239] [55] VFR_HUD
[01:14:03.109258] [56] HEARTBEAT
[01:14:03.804046] [57] VFR_HUD
[01:14:04.043039] [58] HEARTBEAT
[01:14:04.051162] [59] ATTITUDE_TARGET
[01:14:04.493967] [60] VFR_HUD
[01:14:05.072486] [61] HEARTBEAT
[01:14:05.303920] [62] VFR_HUD
[01:14:06.111744] [63] HEARTBEAT
[01:14:06.118706] [64] SYS_STATUS
[01:14:06.233660] [65] BATTERY_STATUS
[01:14:06.350982] [66] ATTITUDE_TARGET
[01:14:06.356141] [67] VFR_HUD
[01:14:06.919816] [68] VFR_HUD
[01:14:07.032087] [69] HEARTBEAT
[01:14:07.714758] [70] VFR_HUD
[01:14:08.079391] [71] HEARTBEAT
[01:14:08.086498] [72] ATTITUDE_TARGET
[01:14:08.530483] [73] VFR_HUD
[01:14:09.090407] [74] HEARTBEAT
[01:14:09.325204] [75] VFR_HUD
[01:14:10.147096] [76] HEARTBEAT
[01:14:10.154032] [77] SYS_STATUS
[01:14:10.194166] [78] BATTERY_STATUS
[01:14:10.202098] [79] ATTITUDE_TARGET
[01:14:10.206095] [80] VFR_HUD
[01:14:11.065895] [81] VFR_HUD
[01:14:11.068937] [82] HEARTBEAT
[01:14:11.624882] [83] VFR_HUD
[01:14:12.093691] [84] HEARTBEAT
[01:14:12.101701] [85] ATTITUDE_TARGET
[01:14:12.434765] [86] VFR_HUD
[01:14:13.125545] [87] HEARTBEAT
[01:14:13.234607] [88] VFR_HUD
[01:14:14.057366] [89] HEARTBEAT
[01:14:14.064450] [90] SYS_STATUS
[01:14:14.104361] [91] BATTERY_STATUS
[01:14:14.111370] [92] ATTITUDE_TARGET
[01:14:14.116297] [93] VFR_HUD
[01:14:14.845446] [94] VFR_HUD
[01:14:15.070329] [95] HEARTBEAT
[01:14:15.660217] [96] VFR_HUD
[01:14:16.130207] [97] HEARTBEAT
[01:14:16.136983] [98] ATTITUDE_TARGET
[01:14:16.454964] [99] VFR_HUD
[01:14:17.031001] [100] HEARTBEAT
[01:14:17.269779] [101] VFR_HUD
[01:14:18.072744] [102] HEARTBEAT
[01:14:18.078658] [103] SYS_STATUS
[01:14:18.202663] [104] BATTERY_STATUS
[01:14:18.203614] [105] EXTENDED_SYS_STATE
[01:14:18.235701] [106] ATTITUDE_TARGET
[01:14:18.240683] [107] VFR_HUD
[01:14:18.244614] [108] SYSTEM_TIME
[01:14:18.874537] [109] VFR_HUD
[01:14:19.100537] [110] HEARTBEAT
[01:14:19.675380] [111] VFR_HUD
[01:14:20.020329] [112] HEARTBEAT
[01:14:20.043457] [113] ATTITUDE_TARGET
[01:14:20.485196] [114] VFR_HUD
[01:14:21.051253] [115] HEARTBEAT
[01:14:21.285092] [116] VFR_HUD
[01:14:22.103075] [117] HEARTBEAT
[01:14:22.108925] [118] SYS_STATUS
[01:14:22.227909] [119] BATTERY_STATUS
[01:14:22.236063] [120] ATTITUDE_TARGET
[01:14:22.265929] [121] VFR_HUD
[01:14:22.894996] [122] VFR_HUD
[01:14:23.120781] [123] HEARTBEAT
[01:14:23.705638] [124] VFR_HUD
[01:14:24.054543] [125] HEARTBEAT
[01:14:24.062517] [126] ATTITUDE_TARGET
[01:14:24.505430] [127] VFR_HUD
[01:14:25.080381] [128] HEARTBEAT
[01:14:25.320461] [129] VFR_HUD
[01:14:26.123230] [130] HEARTBEAT
[01:14:26.130241] [131] SYS_STATUS
[01:14:26.244203] [132] BATTERY_STATUS
[01:14:26.362209] [133] ATTITUDE_TARGET
[01:14:26.367162] [134] VFR_HUD
[01:14:26.931023] [135] VFR_HUD
[01:14:27.042132] [136] HEARTBEAT
[01:14:27.725864] [137] VFR_HUD
[01:14:28.089832] [138] HEARTBEAT
[01:14:28.097820] [139] ATTITUDE_TARGET
[01:14:28.540736] [140] VFR_HUD
[01:14:29.101780] [141] HEARTBEAT
[01:14:29.225645] [142] VFR_HUD
[01:14:30.021453] [143] HEARTBEAT
[01:14:30.041420] [144] SYS_STATUS
[01:14:30.090498] [145] BATTERY_STATUS
[01:14:30.097405] [146] ATTITUDE_TARGET
[01:14:30.102375] [147] VFR_HUD
[01:14:31.078287] [148] VFR_HUD
[01:14:31.081242] [149] HEARTBEAT
[01:14:31.637177] [150] VFR_HUD
[01:14:32.107158] [151] HEARTBEAT
[01:14:32.115116] [152] ATTITUDE_TARGET
[01:14:32.453231] [153] VFR_HUD
[01:14:33.013141] [154] HEARTBEAT
[01:14:33.247953] [155] VFR_HUD
[01:14:34.070902] [156] HEARTBEAT
[01:14:34.076794] [157] SYS_STATUS
[01:14:34.116824] [158] BATTERY_STATUS
[01:14:34.124783] [159] ATTITUDE_TARGET
[01:14:34.129758] [160] VFR_HUD
[01:14:35.095185] [161] VFR_HUD
[01:14:35.095662] [162] HEARTBEAT
[01:14:35.672526] [163] VFR_HUD
[01:14:36.141650] [164] HEARTBEAT
[01:14:36.149426] [165] ATTITUDE_TARGET
[01:14:36.467396] [166] VFR_HUD
[01:14:37.048309] [167] HEARTBEAT
[01:14:37.277218] [168] VFR_HUD
[01:14:38.085160] [169] HEARTBEAT
[01:14:38.092104] [170] SYS_STATUS
[01:14:38.215211] [171] BATTERY_STATUS
[01:14:38.217052] [172] EXTENDED_SYS_STATE
[01:14:38.249066] [173] ATTITUDE_TARGET
[01:14:38.253129] [174] VFR_HUD
[01:14:38.257024] [175] SYSTEM_TIME
[01:14:38.997071] [176] VFR_HUD
[01:14:39.118077] [177] HEARTBEAT
[01:14:39.687889] [178] VFR_HUD
[01:14:40.046820] [179] HEARTBEAT
[01:14:40.053752] [180] ATTITUDE_TARGET
[01:14:40.496824] [181] VFR_HUD
[01:14:41.062792] [182] HEARTBEAT
[01:14:41.296587] [183] VFR_HUD
[01:14:42.114412] [184] HEARTBEAT
[01:14:42.121426] [185] SYS_STATUS
[01:14:42.239439] [186] BATTERY_STATUS
[01:14:42.247550] [187] ATTITUDE_TARGET
[01:14:42.277399] [188] VFR_HUD
[01:14:42.907307] [189] VFR_HUD
[01:14:43.022491] [190] HEARTBEAT
[01:14:43.722148] [191] VFR_HUD
[01:14:44.066108] [192] HEARTBEAT
[01:14:44.074045] [193] ATTITUDE_TARGET
[01:14:44.517013] [194] VFR_HUD
[01:14:45.092936] [195] HEARTBEAT
[01:14:45.331870] [196] VFR_HUD
[01:14:46.134742] [197] HEARTBEAT
[01:14:46.141729] [198] SYS_STATUS
[01:14:46.261804] [199] BATTERY_STATUS
[01:14:46.373896] [200] ATTITUDE_TARGET
[01:14:46.378590] [201] VFR_HUD
[01:14:46.964649] [202] VFR_HUD
[01:14:47.042583] [203] HEARTBEAT
[01:14:47.626536] [204] VFR_HUD
[01:14:48.096378] [205] HEARTBEAT
[01:14:48.103354] [206] ATTITUDE_TARGET
[01:14:48.426329] [207] VFR_HUD
[01:14:49.112375] [208] HEARTBEAT
[01:14:49.236294] [209] VFR_HUD
[01:14:50.044071] [210] HEARTBEAT
[01:14:50.051023] [211] SYS_STATUS
[01:14:50.165996] [212] BATTERY_STATUS
[01:14:50.283109] [213] ATTITUDE_TARGET
[01:14:50.287967] [214] VFR_HUD
[01:14:50.851897] [215] VFR_HUD
[01:14:51.081050] [216] HEARTBEAT
[01:14:51.646731] [217] VFR_HUD
[01:14:52.115720] [218] HEARTBEAT
[01:14:52.123677] [219] ATTITUDE_TARGET
[01:14:52.461673] [220] VFR_HUD
[01:14:53.022514] [221] HEARTBEAT
[01:14:53.256406] [222] VFR_HUD
[01:14:54.079391] [223] HEARTBEAT
[01:14:54.086316] [224] SYS_STATUS
[01:14:54.125434] [225] BATTERY_STATUS
[01:14:54.133311] [226] ATTITUDE_TARGET
[01:14:54.138270] [227] VFR_HUD
[01:14:55.102126] [228] VFR_HUD
[01:14:55.105088] [229] HEARTBEAT
[01:14:55.676976] [230] VFR_HUD
[01:14:56.012108] [231] HEARTBEAT
[01:14:56.035063] [232] ATTITUDE_TARGET
[01:14:56.476953] [233] VFR_HUD
[01:14:57.056849] [234] HEARTBEAT
[01:14:57.286679] [235] VFR_HUD
[01:14:58.093603] [236] HEARTBEAT
[01:14:58.100526] [237] SYS_STATUS
[01:14:58.223616] [238] BATTERY_STATUS
[01:14:58.225500] [239] EXTENDED_SYS_STATE
[01:14:58.257542] [240] ATTITUDE_TARGET
[01:14:58.262565] [241] VFR_HUD
[01:14:58.265518] [242] SYSTEM_TIME
[01:14:58.896530] [243] VFR_HUD
[01:14:59.127436] [244] HEARTBEAT
[01:14:59.696234] [245] VFR_HUD
[01:15:00.056263] [246] HEARTBEAT
[01:15:00.063222] [247] ATTITUDE_TARGET
[01:15:00.506110] [248] VFR_HUD
[01:15:01.072024] [249] HEARTBEAT
[01:15:01.305978] [250] VFR_HUD
[01:15:02.128832] [251] HEARTBEAT
[01:15:02.135826] [252] SYS_STATUS
[01:15:02.175825] [253] BATTERY_STATUS
[01:15:02.182778] [254] ATTITUDE_TARGET
[01:15:02.187800] [255] VFR_HUD
[01:15:03.041758] [0] VFR_HUD
[01:15:03.044779] [1] HEARTBEAT
[01:15:03.731669] [2] VFR_HUD
[01:15:04.075515] [3] HEARTBEAT
[01:15:04.083540] [4] ATTITUDE_TARGET
[01:15:04.526518] [5] VFR_HUD
[01:15:05.101382] [6] HEARTBEAT
[01:15:05.341264] [7] VFR_HUD
[01:15:06.144232] [8] HEARTBEAT
[01:15:06.150101] [9] SYS_STATUS
[01:15:06.270134] [10] BATTERY_STATUS
[01:15:06.383144] [11] ATTITUDE_TARGET
[01:15:06.388146] [12] VFR_HUD
[01:15:06.826090] [13] VFR_HUD
[01:15:07.052054] [14] HEARTBEAT
[01:15:07.635794] [15] VFR_HUD
[01:15:08.104894] [16] HEARTBEAT
[01:15:08.112766] [17] ATTITUDE_TARGET
[01:15:08.435729] [18] VFR_HUD
[01:15:09.121672] [19] HEARTBEAT
[01:15:09.245774] [20] VFR_HUD
[01:15:10.053625] [21] HEARTBEAT
[01:15:10.060611] [22] SYS_STATUS
[01:15:10.175611] [23] BATTERY_STATUS
[01:15:10.292428] [24] ATTITUDE_TARGET
[01:15:10.297430] [25] VFR_HUD
[01:15:10.861353] [26] VFR_HUD
[01:15:11.090416] [27] HEARTBEAT
[01:15:11.656364] [28] VFR_HUD
[01:15:12.043299] [29] HEARTBEAT
[01:15:12.051188] [30] ATTITUDE_TARGET
[01:15:12.471083] [31] VFR_HUD
[01:15:13.031222] [32] HEARTBEAT
[01:15:13.265969] [33] VFR_HUD
[01:15:14.124785] [34] HEARTBEAT
[01:15:14.131984] [35] SYS_STATUS
[01:15:14.138778] [36] BATTERY_STATUS
[01:15:14.151800] [37] ATTITUDE_TARGET
[01:15:14.155848] [38] VFR_HUD
[01:15:14.875810] [39] VFR_HUD
[01:15:15.018716] [40] HEARTBEAT
[01:15:15.685526] [41] VFR_HUD
[01:15:16.035505] [42] HEARTBEAT
[01:15:16.042427] [43] ATTITUDE_TARGET
[01:15:16.485466] [44] VFR_HUD
[01:15:17.089299] [45] HEARTBEAT
[01:15:17.295402] [46] VFR_HUD
[01:15:18.103216] [47] HEARTBEAT
[01:15:18.110194] [48] SYS_STATUS
[01:15:18.245170] [49] BATTERY_STATUS
[01:15:18.276033] [50] EXTENDED_SYS_STATE
[01:15:18.284094] [51] ATTITUDE_TARGET
[01:15:18.289049] [52] VFR_HUD
[01:15:18.292063] [53] SYSTEM_TIME
[01:15:19.145968] [54] VFR_HUD
[01:15:19.149128] [55] HEARTBEAT
[01:15:19.705937] [56] VFR_HUD
[01:15:20.092756] [57] HEARTBEAT
[01:15:20.099760] [58] ATTITUDE_TARGET
[01:15:20.520669] [59] VFR_HUD
[01:15:21.080545] [60] HEARTBEAT
[01:15:21.233593] [61] VFR_HUD
[01:15:22.174482] [62] HEARTBEAT
[01:15:22.181370] [63] SYS_STATUS
[01:15:22.188392] [64] BATTERY_STATUS
[01:15:22.201358] [65] ATTITUDE_TARGET
[01:15:22.205336] [66] VFR_HUD
[01:15:22.925254] [67] VFR_HUD
[01:15:23.068219] [68] HEARTBEAT
[01:15:23.740214] [69] VFR_HUD
[01:15:24.084102] [70] HEARTBEAT
[01:15:24.092236] [71] ATTITUDE_TARGET
[01:15:24.425001] [72] VFR_HUD
[01:15:25.138867] [73] HEARTBEAT
[01:15:25.225013] [74] VFR_HUD
[01:15:26.042768] [75] HEARTBEAT
[01:15:26.049630] [76] SYS_STATUS
[01:15:26.168699] [77] BATTERY_STATUS
[01:15:26.175686] [78] ATTITUDE_TARGET
[01:15:26.205664] [79] VFR_HUD
[01:15:26.835568] [80] VFR_HUD
[01:15:27.060644] [81] HEARTBEAT
[01:15:27.645447] [82] VFR_HUD
[01:15:28.224356] [83] HEARTBEAT
[01:15:28.232342] [84] ATTITUDE_TARGET
[01:15:28.445338] [85] VFR_HUD
[01:15:29.020237] [86] HEARTBEAT
[01:15:29.260201] [87] VFR_HUD
[01:15:30.063192] [88] HEARTBEAT
[01:15:30.069022] [89] SYS_STATUS
[01:15:30.184050] [90] BATTERY_STATUS
[01:15:30.302070] [91] ATTITUDE_TARGET
[01:15:30.306919] [92] VFR_HUD
[01:15:30.870019] [93] VFR_HUD
[01:15:31.200817] [94] HEARTBEAT
[01:15:31.664902] [95] VFR_HUD
[01:15:32.134708] [96] HEARTBEAT
[01:15:32.141667] [97] ATTITUDE_TARGET
[01:15:32.480703] [98] VFR_HUD
[01:15:33.040521] [99] HEARTBEAT
[01:15:33.276272] [100] VFR_HUD
[01:15:34.092340] [101] HEARTBEAT
[01:15:34.099337] [102] SYS_STATUS
[01:15:34.218357] [103] BATTERY_STATUS
[01:15:34.225432] [104] ATTITUDE_TARGET
[01:15:34.256310] [105] VFR_HUD
[01:15:34.885206] [106] VFR_HUD
[01:15:35.110171] [107] HEARTBEAT
[01:15:35.695088] [108] VFR_HUD
[01:15:36.044096] [109] HEARTBEAT
[01:15:36.052059] [110] ATTITUDE_TARGET
[01:15:36.495032] [111] VFR_HUD
[01:15:37.075910] [112] HEARTBEAT
[01:15:37.304771] [113] VFR_HUD
[01:15:38.112887] [114] HEARTBEAT
[01:15:38.118810] [115] SYS_STATUS
[01:15:38.254706] [116] BATTERY_STATUS
[01:15:38.285589] [117] EXTENDED_SYS_STATE
[01:15:38.292785] [118] ATTITUDE_TARGET
[01:15:38.297733] [119] VFR_HUD
[01:15:38.301677] [120] SYSTEM_TIME
[01:15:39.030542] [121] VFR_HUD
[01:15:39.033561] [122] HEARTBEAT
[01:15:39.714318] [123] VFR_HUD
[01:15:40.079223] [124] HEARTBEAT
[01:15:40.086166] [125] ATTITUDE_TARGET
[01:15:40.529124] [126] VFR_HUD
[01:15:41.090245] [127] HEARTBEAT
[01:15:41.324022] [128] VFR_HUD
[01:15:42.182959] [129] HEARTBEAT
[01:15:42.189859] [130] SYS_STATUS
[01:15:42.198000] [131] BATTERY_STATUS
[01:15:42.209869] [132] ATTITUDE_TARGET
[01:15:42.215008] [133] VFR_HUD
[01:15:42.933787] [134] VFR_HUD
[01:15:43.054802] [135] HEARTBEAT
[01:15:43.623790] [136] VFR_HUD
[01:15:44.093663] [137] HEARTBEAT
[01:15:44.101498] [138] ATTITUDE_TARGET
[01:15:44.434497] [139] VFR_HUD
[01:15:45.125570] [140] HEARTBEAT
[01:15:45.234362] [141] VFR_HUD
[01:15:46.052189] [142] HEARTBEAT
[01:15:46.058212] [143] SYS_STATUS
[01:15:46.177161] [144] BATTERY_STATUS
[01:15:46.185131] [145] ATTITUDE_TARGET
[01:15:46.215234] [146] VFR_HUD
[01:15:46.844034] [147] VFR_HUD
[01:15:47.070052] [148] HEARTBEAT
[01:15:47.659984] [149] VFR_HUD
[01:15:48.128906] [150] HEARTBEAT
[01:15:48.136767] [151] ATTITUDE_TARGET
[01:15:48.454722] [152] VFR_HUD
[01:15:49.029727] [153] HEARTBEAT
[01:15:49.292619] [154] VFR_HUD
[01:15:50.072510] [155] HEARTBEAT
[01:15:50.078477] [156] SYS_STATUS
[01:15:50.243446] [157] BATTERY_STATUS
[01:15:50.251497] [158] ATTITUDE_TARGET
[01:15:50.256359] [159] VFR_HUD
[01:15:51.110276] [160] VFR_HUD
[01:15:51.113354] [161] HEARTBEAT
[01:15:51.674119] [162] VFR_HUD
[01:15:52.020233] [163] HEARTBEAT
[01:15:52.043213] [164] ATTITUDE_TARGET
[01:15:52.485023] [165] VFR_HUD
[01:15:53.050025] [166] HEARTBEAT
[01:15:53.284966] [167] VFR_HUD
[01:15:54.101801] [168] HEARTBEAT
[01:15:54.108718] [169] SYS_STATUS
[01:15:54.227825] [170] BATTERY_STATUS
[01:15:54.235740] [171] ATTITUDE_TARGET
[01:15:54.265763] [172] VFR_HUD
[01:15:54.894566] [173] VFR_HUD
[01:15:55.009680] [174] HEARTBEAT
[01:15:55.704476] [175] VFR_HUD
[01:15:56.053514] [176] HEARTBEAT
[01:15:56.061418] [177] ATTITUDE_TARGET
[01:15:56.504376] [178] VFR_HUD
[01:15:57.080315] [179] HEARTBEAT
[01:15:57.319197] [180] VFR_HUD
[01:15:58.122188] [181] HEARTBEAT
[01:15:58.129080] [182] SYS_STATUS
[01:15:58.265067] [183] BATTERY_STATUS
[01:15:58.294994] [184] EXTENDED_SYS_STATE
[01:15:58.303037] [185] ATTITUDE_TARGET
[01:15:58.308037] [186] VFR_HUD
[01:15:58.311123] [187] SYSTEM_TIME
[01:15:59.039983] [188] VFR_HUD
[01:15:59.042938] [189] HEARTBEAT
[01:15:59.724883] [190] VFR_HUD
[01:16:00.088728] [191] HEARTBEAT
[01:16:00.096690] [192] ATTITUDE_TARGET
[01:16:00.414703] [193] VFR_HUD
[01:16:01.099685] [194] HEARTBEAT
[01:16:01.224484] [195] VFR_HUD
[01:16:02.031525] [196] HEARTBEAT
[01:16:02.038376] [197] SYS_STATUS
[01:16:02.153439] [198] BATTERY_STATUS
[01:16:02.271471] [199] ATTITUDE_TARGET
[01:16:02.275663] [200] VFR_HUD
[01:16:02.834272] [201] VFR_HUD
[01:16:03.065191] [202] HEARTBEAT
[01:16:03.634045] [203] VFR_HUD
[01:16:04.103988] [204] HEARTBEAT
[01:16:04.112983] [205] ATTITUDE_TARGET
[01:16:04.443887] [206] VFR_HUD
[01:16:05.009853] [207] HEARTBEAT
[01:16:05.244793] [208] VFR_HUD
[01:16:06.066583] [209] HEARTBEAT
[01:16:06.073669] [210] SYS_STATUS
[01:16:06.113613] [211] BATTERY_STATUS
[01:16:06.120614] [212] ATTITUDE_TARGET
[01:16:06.125612] [213] VFR_HUD
[01:16:07.090527] [214] VFR_HUD
[01:16:07.093538] [215] HEARTBEAT
[01:16:07.669333] [216] VFR_HUD
[01:16:08.138293] [217] HEARTBEAT
[01:16:08.146232] [218] ATTITUDE_TARGET
[01:16:08.464180] [219] VFR_HUD
[01:16:09.039221] [220] HEARTBEAT
[01:16:09.302129] [221] VFR_HUD
[01:16:10.082002] [222] HEARTBEAT
[01:16:10.087880] [223] SYS_STATUS
[01:16:10.207877] [224] BATTERY_STATUS
[01:16:10.320979] [225] ATTITUDE_TARGET
[01:16:10.324931] [226] VFR_HUD
[01:16:10.883730] [227] VFR_HUD
[01:16:11.114803] [228] HEARTBEAT
[01:16:11.683660] [229] VFR_HUD
[01:16:12.042709] [230] HEARTBEAT
[01:16:12.050690] [231] ATTITUDE_TARGET
[01:16:12.493678] [232] VFR_HUD
[01:16:13.059415] [233] HEARTBEAT
[01:16:13.293461] [234] VFR_HUD
[01:16:14.113135] [235] HEARTBEAT
[01:16:14.118139] [236] SYS_STATUS
[01:16:14.236216] [237] BATTERY_STATUS
[01:16:14.244121] [238] ATTITUDE_TARGET
[01:16:14.274160] [239] VFR_HUD
[01:16:14.904039] [240] VFR_HUD
[01:16:15.019069] [241] HEARTBEAT
[01:16:15.718835] [242] VFR_HUD
[01:16:16.062927] [243] HEARTBEAT
[01:16:16.070919] [244] ATTITUDE_TARGET
[01:16:16.431754] [245] VFR_HUD
[01:16:17.089811] [246] HEARTBEAT
[01:16:17.351671] [247] VFR_HUD
[01:16:18.009611] [248] HEARTBEAT
[01:16:18.029459] [249] SYS_STATUS
[01:16:18.067519] [250] BATTERY_STATUS
[01:16:18.069444] [251] EXTENDED_SYS_STATE
[01:16:18.077488] [252] ATTITUDE_TARGET
[01:16:18.082567] [253] VFR_HUD
[01:16:18.085448] [254] SYSTEM_TIME
[01:16:18.819385] [255] VFR_HUD
[01:16:19.039358] [0] HEARTBEAT
[01:16:19.624305] [1] VFR_HUD
[01:16:20.093256] [2] HEARTBEAT
[01:16:20.101213] [3] ATTITUDE_TARGET
[01:16:20.424091] [4] VFR_HUD
[01:16:21.110027] [5] HEARTBEAT
[01:16:21.234058] [6] VFR_HUD
[01:16:22.041829] [7] HEARTBEAT
[01:16:22.047842] [8] SYS_STATUS
[01:16:22.162797] [9] BATTERY_STATUS
[01:16:22.280807] [10] ATTITUDE_TARGET
[01:16:22.285756] [11] VFR_HUD
[01:16:22.843693] [12] VFR_HUD
[01:16:23.074785] [13] HEARTBEAT
[01:16:23.644532] [14] VFR_HUD
[01:16:24.113578] [15] HEARTBEAT
[01:16:24.121454] [16] ATTITUDE_TARGET
[01:16:24.459470] [17] VFR_HUD
[01:16:25.019279] [18] HEARTBEAT
[01:16:25.253292] [19] VFR_HUD
[01:16:26.076172] [20] HEARTBEAT
[01:16:26.083181] [21] SYS_STATUS
[01:16:26.123078] [22] BATTERY_STATUS
[01:16:26.130107] [23] ATTITUDE_TARGET
[01:16:26.135034] [24] VFR_HUD
[01:16:27.099075] [25] VFR_HUD
[01:16:27.101963] [26] HEARTBEAT
[01:16:27.673855] [27] VFR_HUD
[01:16:28.008902] [28] HEARTBEAT
[01:16:28.031877] [29] ATTITUDE_TARGET
[01:16:28.473788] [30] VFR_HUD
[01:16:29.054715] [31] HEARTBEAT
[01:16:29.283733] [32] VFR_HUD
[01:16:30.091518] [33] HEARTBEAT
[01:16:30.098447] [34] SYS_STATUS
[01:16:30.218556] [35] BATTERY_STATUS
[01:16:30.330496] [36] ATTITUDE_TARGET
[01:16:30.335448] [37] VFR_HUD
[01:16:30.893317] [38] VFR_HUD
[01:16:31.124338] [39] HEARTBEAT
[01:16:31.694236] [40] VFR_HUD
[01:16:32.053131] [41] HEARTBEAT
[01:16:32.061135] [42] ATTITUDE_TARGET
[01:16:32.504037] [43] VFR_HUD
[01:16:33.068998] [44] HEARTBEAT
[01:16:33.304003] [45] VFR_HUD
[01:16:34.126925] [46] HEARTBEAT
[01:16:34.132809] [47] SYS_STATUS
[01:16:34.172826] [48] BATTERY_STATUS
[01:16:34.180935] [49] ATTITUDE_TARGET
[01:16:34.184814] [50] VFR_HUD
[01:16:35.039671] [51] VFR_HUD
[01:16:35.042711] [52] HEARTBEAT
[01:16:35.728569] [53] VFR_HUD
[01:16:36.073618] [54] HEARTBEAT
[01:16:36.080482] [55] ATTITUDE_TARGET
[01:16:36.523411] [56] VFR_HUD
[01:16:37.099325] [57] HEARTBEAT
[01:16:37.219366] [58] VFR_HUD
[01:16:38.031179] [59] HEARTBEAT
[01:16:38.038227] [60] SYS_STATUS
[01:16:38.160115] [61] BATTERY_STATUS
[01:16:38.160992] [62] EXTENDED_SYS_STATE
[01:16:38.169990] [63] ATTITUDE_TARGET
[01:16:38.174220] [64] VFR_HUD
[01:16:38.178101] [65] SYSTEM_TIME
[01:16:38.823992] [66] VFR_HUD
[01:16:39.049091] [67] HEARTBEAT
[01:16:39.633858] [68] VFR_HUD
[01:16:40.102914] [69] HEARTBEAT
[01:16:40.110866] [70] ATTITUDE_TARGET
[01:16:40.433698] [71] VFR_HUD
[01:16:41.009768] [72] HEARTBEAT
[01:16:41.243587] [73] VFR_HUD
[01:16:42.051462] [74] HEARTBEAT
[01:16:42.058467] [75] SYS_STATUS
[01:16:42.173494] [76] BATTERY_STATUS
[01:16:42.290434] [77] ATTITUDE_TARGET
[01:16:42.295395] [78] VFR_HUD
[01:16:42.859283] [79] VFR_HUD
[01:16:43.079249] [80] HEARTBEAT
[01:16:43.654143] [81] VFR_HUD
[01:16:44.123316] [82] HEARTBEAT
[01:16:44.131069] [83] ATTITUDE_TARGET
[01:16:44.492169] [84] VFR_HUD
[01:16:45.029071] [85] HEARTBEAT
[01:16:45.264408] [86] VFR_HUD
[01:16:46.086796] [87] HEARTBEAT
[01:16:46.093954] [88] SYS_STATUS
[01:16:46.132778] [89] BATTERY_STATUS
[01:16:46.140765] [90] ATTITUDE_TARGET
[01:16:46.145740] [91] VFR_HUD
[01:16:46.873717] [92] VFR_HUD
[01:16:47.099764] [93] HEARTBEAT
[01:16:47.683559] [94] VFR_HUD
[01:16:48.034165] [95] HEARTBEAT
[01:16:48.040609] [96] ATTITUDE_TARGET
[01:16:48.484496] [97] VFR_HUD
[01:16:49.064462] [98] HEARTBEAT
[01:16:49.294350] [99] VFR_HUD
[01:16:50.101221] [100] HEARTBEAT
[01:16:50.108203] [101] SYS_STATUS
[01:16:50.223197] [102] BATTERY_STATUS
[01:16:50.340226] [103] ATTITUDE_TARGET
[01:16:50.345119] [104] VFR_HUD
[01:16:50.904018] [105] VFR_HUD
[01:16:51.009098] [106] HEARTBEAT
[01:16:51.703921] [107] VFR_HUD
[01:16:52.067799] [108] HEARTBEAT
[01:16:52.075731] [109] ATTITUDE_TARGET
[01:16:52.541826] [110] VFR_HUD
[01:16:53.079682] [111] HEARTBEAT
[01:16:53.313653] [112] VFR_HUD
[01:16:54.136533] [113] HEARTBEAT
[01:16:54.143440] [114] SYS_STATUS
[01:16:54.182445] [115] BATTERY_STATUS
[01:16:54.190376] [116] ATTITUDE_TARGET
[01:16:54.195346] [117] VFR_HUD
[01:16:54.924341] [118] VFR_HUD
[01:16:55.039248] [119] HEARTBEAT
[01:16:55.739110] [120] VFR_HUD
[01:16:56.083127] [121] HEARTBEAT
[01:16:56.091144] [122] ATTITUDE_TARGET
[01:16:56.422988] [123] VFR_HUD
[01:16:57.113915] [124] HEARTBEAT
[01:16:57.223827] [125] VFR_HUD
[01:16:58.040891] [126] HEARTBEAT
[01:16:58.047686] [127] SYS_STATUS
[01:16:58.169816] [128] BATTERY_STATUS
[01:16:58.170660] [129] EXTENDED_SYS_STATE
[01:16:58.178681] [130] ATTITUDE_TARGET
[01:16:58.183588] [131] VFR_HUD
[01:16:58.187781] [132] SYSTEM_TIME
[01:16:58.833590] [133] VFR_HUD
[01:16:59.059546] [134] HEARTBEAT
[01:16:59.643465] [135] VFR_HUD
[01:17:00.113095] [136] HEARTBEAT
[01:17:00.120377] [137] ATTITUDE_TARGET
[01:17:00.443542] [138] VFR_HUD
[01:17:01.019272] [139] HEARTBEAT
[01:17:01.259225] [140] VFR_HUD
[01:17:02.061104] [141] HEARTBEAT
[01:17:02.068210] [142] SYS_STATUS
[01:17:02.183032] [143] BATTERY_STATUS
[01:17:02.300000] [144] ATTITUDE_TARGET
[01:17:02.304962] [145] VFR_HUD
[01:17:02.868908] [146] VFR_HUD
[01:17:03.089049] [147] HEARTBEAT
[01:17:03.663755] [148] VFR_HUD
[01:17:04.008723] [149] HEARTBEAT
[01:17:04.031712] [150] ATTITUDE_TARGET
[01:17:04.478641] [151] VFR_HUD
[01:17:05.038554] [152] HEARTBEAT
[01:17:05.273541] [153] VFR_HUD
[01:17:06.090411] [154] HEARTBEAT
[01:17:06.097334] [155] SYS_STATUS
[01:17:06.215459] [156] BATTERY_STATUS
[01:17:06.223333] [157] ATTITUDE_TARGET
[01:17:06.253350] [158] VFR_HUD
[01:17:06.883368] [159] VFR_HUD
[01:17:07.108782] [160] HEARTBEAT
[01:17:07.693074] [161] VFR_HUD
[01:17:08.042256] [162] HEARTBEAT
[01:17:08.050063] [163] ATTITUDE_TARGET
[01:17:08.492944] [164] VFR_HUD
[01:17:09.073887] [165] HEARTBEAT
[01:17:09.302775] [166] VFR_HUD
[01:17:10.110744] [167] HEARTBEAT
[01:17:10.117809] [168] SYS_STATUS
[01:17:10.232717] [169] BATTERY_STATUS
[01:17:10.349618] [170] ATTITUDE_TARGET
[01:17:10.354589] [171] VFR_HUD
[01:17:10.918660] [172] VFR_HUD
[01:17:11.030671] [173] HEARTBEAT
[01:17:11.631479] [174] VFR_HUD
[01:17:12.077296] [175] HEARTBEAT
[01:17:12.085357] [176] ATTITUDE_TARGET
[01:17:12.528328] [177] VFR_HUD
[01:17:13.089124] [178] HEARTBEAT
[01:17:13.213233] [179] VFR_HUD
[01:17:14.008929] [180] HEARTBEAT
[01:17:14.028995] [181] SYS_STATUS
[01:17:14.076914] [182] BATTERY_STATUS
[01:17:14.084908] [183] ATTITUDE_TARGET
[01:17:14.089891] [184] VFR_HUD
[01:17:14.824748] [185] VFR_HUD
[01:17:15.055881] [186] HEARTBEAT
[01:17:15.625659] [187] VFR_HUD
[01:17:16.094553] [188] HEARTBEAT
[01:17:16.102663] [189] ATTITUDE_TARGET
[01:17:16.435458] [190] VFR_HUD
[01:17:17.126359] [191] HEARTBEAT
[01:17:17.235466] [192] VFR_HUD
[01:17:18.053212] [193] HEARTBEAT
[01:17:18.060317] [194] SYS_STATUS
[01:17:18.181189] [195] BATTERY_STATUS
[01:17:18.183197] [196] EXTENDED_SYS_STATE
[01:17:18.191152] [197] ATTITUDE_TARGET
[01:17:18.196299] [198] VFR_HUD
[01:17:18.199114] [199] SYSTEM_TIME
[01:17:18.845280] [200] VFR_HUD
[01:17:19.071165] [201] HEARTBEAT
[01:17:19.682958] [202] VFR_HUD
[01:17:20.129888] [203] HEARTBEAT
[01:17:20.137863] [204] ATTITUDE_TARGET
[01:17:20.455904] [205] VFR_HUD
[01:17:21.030744] [206] HEARTBEAT
[01:17:21.270712] [207] VFR_HUD
[01:17:22.073573] [208] HEARTBEAT
[01:17:22.080618] [209] SYS_STATUS
[01:17:22.199569] [210] BATTERY_STATUS
[01:17:22.312496] [211] ATTITUDE_TARGET
[01:17:22.317488] [212] VFR_HUD
[01:17:22.875498] [213] VFR_HUD
[01:17:23.101525] [214] HEARTBEAT
[01:17:23.676338] [215] VFR_HUD
[01:17:24.035274] [216] HEARTBEAT
[01:17:24.043276] [217] ATTITUDE_TARGET
[01:17:24.485169] [218] VFR_HUD
[01:17:25.051117] [219] HEARTBEAT
[01:17:25.286145] [220] VFR_HUD
[01:17:26.102988] [221] HEARTBEAT
[01:17:26.109949] [222] SYS_STATUS
[01:17:26.228962] [223] BATTERY_STATUS
[01:17:26.236909] [224] ATTITUDE_TARGET
[01:17:26.267042] [225] VFR_HUD
[01:17:26.895793] [226] VFR_HUD
[01:17:27.013074] [227] HEARTBEAT
[01:17:27.816780] [228] VFR_HUD
[01:17:28.055599] [229] HEARTBEAT
[01:17:28.063529] [230] ATTITUDE_TARGET
[01:17:28.506547] [231] VFR_HUD
[01:17:29.081584] [232] HEARTBEAT
[01:17:29.321349] [233] VFR_HUD
[01:17:30.007150] [234] HEARTBEAT
[01:17:30.136131] [235] SYS_STATUS
[01:17:30.144091] [236] BATTERY_STATUS
[01:17:30.253117] [237] ATTITUDE_TARGET
[01:17:30.258148] [238] VFR_HUD
[01:17:30.812434] [239] VFR_HUD
[01:17:31.031986] [240] HEARTBEAT
[01:17:31.616942] [241] VFR_HUD
[01:17:32.090810] [242] HEARTBEAT
[01:17:32.098858] [243] ATTITUDE_TARGET
[01:17:32.416743] [244] VFR_HUD
[01:17:33.102624] [245] HEARTBEAT
[01:17:33.226525] [246] VFR_HUD
[01:17:34.034550] [247] HEARTBEAT
[01:17:34.041500] [248] SYS_STATUS
[01:17:34.155645] [249] BATTERY_STATUS
[01:17:34.273368] [250] ATTITUDE_TARGET
[01:17:34.278508] [251] VFR_HUD
[01:17:34.836305] [252] VFR_HUD
[01:17:35.067247] [253] HEARTBEAT
[01:17:35.637265] [254] VFR_HUD
[01:17:36.106096] [255] HEARTBEAT
[01:17:36.114100] [0] ATTITUDE_TARGET
[01:17:36.446986] [1] VFR_HUD
[01:17:37.012965] [2] HEARTBEAT
[01:17:37.246986] [3] VFR_HUD
[01:17:38.069776] [4] HEARTBEAT
[01:17:38.075848] [5] SYS_STATUS
[01:17:38.110785] [6] BATTERY_STATUS
[01:17:38.111831] [7] EXTENDED_SYS_STATE
[01:17:38.119739] [8] ATTITUDE_TARGET
[01:17:38.124739] [9] VFR_HUD
[01:17:38.128693] [10] SYSTEM_TIME
[01:17:38.856577] [11] VFR_HUD
[01:17:39.081520] [12] HEARTBEAT
[01:17:39.671457] [13] VFR_HUD
[01:17:40.001367] [14] HEARTBEAT
[01:17:40.140348] [15] ATTITUDE_TARGET
[01:17:40.466290] [16] VFR_HUD
[01:17:41.042208] [17] HEARTBEAT
[01:17:41.281119] [18] VFR_HUD
[01:17:42.084177] [19] HEARTBEAT
[01:17:42.090097] [20] SYS_STATUS
[01:17:42.210070] [21] BATTERY_STATUS
[01:17:42.323012] [22] ATTITUDE_TARGET
[01:17:42.328016] [23] VFR_HUD
[01:17:42.885956] [24] VFR_HUD
[01:17:43.116945] [25] HEARTBEAT
[01:17:43.686778] [26] VFR_HUD
[01:17:44.045834] [27] HEARTBEAT
[01:17:44.053846] [28] ATTITUDE_TARGET
[01:17:44.496867] [29] VFR_HUD
[01:17:45.062652] [30] HEARTBEAT
[01:17:45.296499] [31] VFR_HUD
[01:17:46.114334] [32] HEARTBEAT
[01:17:46.121310] [33] SYS_STATUS
[01:17:46.239438] [34] BATTERY_STATUS
[01:17:46.247257] [35] ATTITUDE_TARGET
[01:17:46.277311] [36] VFR_HUD
[01:17:46.824286] [37] VFR_HUD
[01:17:47.022169] [38] HEARTBEAT
[01:17:47.722676] [39] VFR_HUD
[01:17:48.066089] [40] HEARTBEAT
[01:17:48.074085] [41] ATTITUDE_TARGET
[01:17:48.412005] [42] VFR_HUD
[01:17:49.091839] [43] HEARTBEAT
[01:17:49.331831] [44] VFR_HUD
[01:17:50.011680] [45] HEARTBEAT
[01:17:50.031650] [46] SYS_STATUS
[01:17:50.074646] [47] BATTERY_STATUS
[01:17:50.082659] [48] ATTITUDE_TARGET
[01:17:50.087708] [49] VFR_HUD
[01:17:51.051457] [50] VFR_HUD
[01:17:51.054474] [51] HEARTBEAT
