[02:23:38.606139] [30] VFR_HUD
[02:23:39.075075] [31] HEARTBEAT
[02:23:39.083108] [32] ATTITUDE_TARGET
[02:23:39.526062] [33] VFR_HUD
[02:23:39.982052] [34] HEARTBEAT
[02:23:40.216002] [35] VFR_HUD
[02:23:41.033868] [36] HEARTBEAT
[02:23:41.039877] [37] SYS_STATUS
[02:23:41.158855] [38] BATTERY_STATUS
[02:23:41.166779] [39] ATTITUDE_TARGET
[02:23:41.196852] [40] VFR_HUD
[02:23:41.825703] [41] VFR_HUD
[02:23:42.051732] [42] HEARTBEAT
[02:23:42.635669] [43] VFR_HUD
[02:23:42.976604] [44] HEARTBEAT
[02:23:42.999598] [45] ATTITUDE_TARGET
[02:23:43.435573] [46] VFR_HUD
[02:23:44.011833] [47] HEARTBEAT
[02:23:44.245491] [48] VFR_HUD
[02:23:45.053311] [49] HEARTBEAT
[02:23:45.060277] [50] SYS_STATUS
[02:23:45.175327] [51] BATTERY_STATUS
[02:23:45.292304] [52] ATTITUDE_TARGET
[02:23:45.297325] [53] VFR_HUD
[02:23:45.861287] [54] VFR_HUD
[02:23:46.081308] [55] HEARTBEAT
[02:23:46.656281] [56] VFR_HUD
[02:23:47.020270] [57] HEARTBEAT
[02:23:47.028164] [58] ATTITUDE_TARGET
[02:23:47.493135] [59] VFR_HUD
[02:23:48.031060] [60] HEARTBEAT
[02:23:48.266007] [61] VFR_HUD
[02:23:49.192943] [62] HEARTBEAT
[02:23:49.199884] [63] SYS_STATUS
[02:23:49.317899] [64] BATTERY_STATUS
[02:23:49.319827] [65] EXTENDED_SYS_STATE
[02:23:49.439019] [66] ATTITUDE_TARGET
[02:23:49.443853] [67] VFR_HUD
[02:23:49.446921] [68] SYSTEM_TIME
[02:23:49.875853] [69] VFR_HUD
[02:23:49.996941] [70] HEARTBEAT
[02:23:50.685761] [71] VFR_HUD
[02:23:51.034696] [72] HEARTBEAT
[02:23:51.042728] [73] ATTITUDE_TARGET
[02:23:51.485649] [74] VFR_HUD
[02:23:52.065682] [75] HEARTBEAT
[02:23:52.295651] [76] VFR_HUD
[02:23:52.998589] [77] HEARTBEAT
[02:23:53.004631] [78] SYS_STATUS
[02:23:53.044509] [79] BATTERY_STATUS
[02:23:53.052567] [80] ATTITUDE_TARGET
[02:23:53.056471] [81] VFR_HUD
[02:23:53.785444] [82] VFR_HUD
[02:23:54.010479] [83] HEARTBEAT
[02:23:54.600349] [84] VFR_HUD
[02:23:55.069310] [85] HEARTBEAT
[02:23:55.077273] [86] ATTITUDE_TARGET
[02:23:55.395402] [87] VFR_HUD
[02:23:56.081215] [88] HEARTBEAT
[02:23:56.210179] [89] VFR_HUD
[02:23:57.013216] [90] HEARTBEAT
[02:23:57.020207] [91] SYS_STATUS
[02:23:57.140126] [92] BATTERY_STATUS
[02:23:57.252135] [93] ATTITUDE_TARGET
[02:23:57.257099] [94] VFR_HUD
[02:23:57.815095] [95] VFR_HUD
[02:23:58.041053] [96] HEARTBEAT
[02:23:58.615036] [97] VFR_HUD
[02:23:59.085001] [98] HEARTBEAT
[02:23:59.091900] [99] ATTITUDE_TARGET
[02:23:59.424896] [100] VFR_HUD
[02:23:59.990818] [101] HEARTBEAT
[02:24:00.224788] [102] VFR_HUD
[02:24:01.042738] [103] HEARTBEAT
[02:24:01.048714] [104] SYS_STATUS
[02:24:01.167718] [105] BATTERY_STATUS
[02:24:01.175704] [106] ATTITUDE_TARGET
[02:24:01.205700] [107] VFR_HUD
[02:24:01.834740] [108] VFR_HUD
[02:24:02.059585] [109] HEARTBEAT
[02:24:02.644484] [110] VFR_HUD
[02:24:02.993511] [111] HEARTBEAT
[02:24:03.001496] [112] ATTITUDE_TARGET
[02:24:03.444440] [113] VFR_HUD
[02:24:04.020421] [114] HEARTBEAT
[02:24:04.259350] [115] VFR_HUD
[02:24:05.061373] [116] HEARTBEAT
[02:24:05.068250] [117] SYS_STATUS
[02:24:05.183324] [118] BATTERY_STATUS
[02:24:05.301255] [119] ATTITUDE_TARGET
[02:24:05.305176] [120] VFR_HUD
[02:24:05.869151] [121] VFR_HUD
[02:24:05.981129] [122] HEARTBEAT
[02:24:06.664071] [123] VFR_HUD
[02:24:07.023039] [124] HEARTBEAT
[02:24:07.031010] [125] ATTITUDE_TARGET
[02:24:07.478966] [126] VFR_HUD
[02:24:08.039933] [127] HEARTBEAT
[02:24:08.274008] [128] VFR_HUD
[02:24:09.090941] [129] HEARTBEAT
[02:24:09.097868] [130] SYS_STATUS
[02:24:09.219948] [131] BATTERY_STATUS
[02:24:09.221782] [132] EXTENDED_SYS_STATE
[02:24:09.228777] [133] ATTITUDE_TARGET
[02:24:09.233740] [134] VFR_HUD
[02:24:09.237761] [135] SYSTEM_TIME
[02:24:09.883735] [136] VFR_HUD
[02:24:10.004730] [137] HEARTBEAT
[02:24:10.693809] [138] VFR_HUD
[02:24:11.042683] [139] HEARTBEAT
[02:24:11.050618] [140] ATTITUDE_TARGET
[02:24:11.388632] [141] VFR_HUD
[02:24:12.074598] [142] HEARTBEAT
[02:24:12.188579] [143] VFR_HUD
[02:24:13.006587] [144] HEARTBEAT
[02:24:13.013432] [145] SYS_STATUS
[02:24:13.052439] [146] BATTERY_STATUS
[02:24:13.060416] [147] ATTITUDE_TARGET
[02:24:13.065395] [148] VFR_HUD
[02:24:14.029334] [149] VFR_HUD
[02:24:14.032412] [150] HEARTBEAT
[02:24:14.631371] [151] VFR_HUD
[02:24:15.078469] [152] HEARTBEAT
[02:24:15.086213] [153] ATTITUDE_TARGET
[02:24:15.403262] [154] VFR_HUD
[02:24:15.984262] [155] HEARTBEAT
[02:24:16.213114] [156] VFR_HUD
[02:24:17.021146] [157] HEARTBEAT
[02:24:17.028196] [158] SYS_STATUS
[02:24:17.148036] [159] BATTERY_STATUS
[02:24:17.260191] [160] ATTITUDE_TARGET
[02:24:17.265012] [161] VFR_HUD
[02:24:17.823061] [162] VFR_HUD
[02:24:18.053950] [163] HEARTBEAT
[02:24:18.622937] [164] VFR_HUD
[02:24:19.092899] [165] HEARTBEAT
[02:24:19.100920] [166] ATTITUDE_TARGET
[02:24:19.432917] [167] VFR_HUD
[02:24:19.545077] JAMMING_START
[02:24:19.998792] [168] HEARTBEAT
[02:24:20.232861] [169] VFR_HUD
[02:24:21.050782] [170] HEARTBEAT
[02:24:21.057765] [171] SYS_STATUS
[02:24:21.175684] [172] BATTERY_STATUS
[02:24:21.183714] [173] ATTITUDE_TARGET
[02:24:21.213664] [174] VFR_HUD
[02:24:21.842741] [175] VFR_HUD
[02:24:22.068640] [176] HEARTBEAT
[02:24:22.680625] [177] VFR_HUD
[02:24:23.002577] [178] HEARTBEAT
[02:24:23.009646] [179] ATTITUDE_TARGET
[02:24:23.452446] [180] VFR_HUD
[02:24:25.070333] [183] HEARTBEAT
[02:24:25.077255] [184] SYS_STATUS
[02:24:25.309293] [186] ATTITUDE_TARGET
[02:24:25.314260] [187] VFR_HUD
[02:24:27.030129] [191] HEARTBEAT
[02:24:27.038076] [192] ATTITUDE_TARGET
[02:24:28.046015] [194] HEARTBEAT
[02:24:29.097915] [196] HEARTBEAT
[02:24:29.103959] [197] SYS_STATUS
[02:24:29.225886] [198] BATTERY_STATUS
[02:24:29.227858] [199] EXTENDED_SYS_STATE
[02:24:29.235919] [200] ATTITUDE_TARGET
[02:24:29.239886] [201] VFR_HUD
[02:24:29.243867] [202] SYSTEM_TIME
[02:24:29.888785] [203] VFR_HUD
[02:24:30.004780] [204] HEARTBEAT
[02:24:31.048700] [206] HEARTBEAT
[02:24:31.056853] [207] ATTITUDE_TARGET
[02:24:31.394673] [208] VFR_HUD
[02:24:32.189922] [210] VFR_HUD
[02:24:33.011624] [211] HEARTBEAT
[02:24:33.018536] [212] SYS_STATUS
[02:24:33.058462] [213] BATTERY_STATUS
[02:24:33.066436] [214] ATTITUDE_TARGET
[02:24:33.070397] [215] VFR_HUD
[02:24:34.264309] [216] VFR_HUD
[02:24:34.267297] [217] HEARTBEAT
[02:24:34.608263] [218] VFR_HUD
[02:24:35.408230] [221] VFR_HUD
[02:24:35.989255] [222] HEARTBEAT
[02:24:36.229143] [223] VFR_HUD
[02:24:37.146043] [226] BATTERY_STATUS
[02:24:37.264029] [227] ATTITUDE_TARGET
[02:24:37.268979] [228] VFR_HUD
[02:24:38.056970] [230] HEARTBEAT
[02:24:39.093977] [233] ATTITUDE_TARGET
[02:24:39.435841] [234] VFR_HUD
[02:24:40.000720] [235] HEARTBEAT
[02:24:40.235719] [236] VFR_HUD
[02:24:41.058706] [237] HEARTBEAT
[02:24:41.064642] [238] SYS_STATUS
[02:24:43.004504] [245] HEARTBEAT
[02:24:43.012609] [246] ATTITUDE_TARGET
[02:24:43.455489] [247] VFR_HUD
[02:24:44.040386] [248] HEARTBEAT
[02:24:44.270343] [249] VFR_HUD
[02:24:45.198290] [252] BATTERY_STATUS
[02:24:45.310331] [253] ATTITUDE_TARGET
[02:24:45.315271] [254] VFR_HUD
[02:24:45.978212] [0] HEARTBEAT
[02:24:47.141138] [2] HEARTBEAT
[02:24:47.149123] [3] ATTITUDE_TARGET
[02:24:48.047988] [5] HEARTBEAT
[02:24:49.223901] [11] ATTITUDE_TARGET
[02:24:49.228832] [12] VFR_HUD
[02:24:49.232795] [13] SYSTEM_TIME
[02:24:49.808742] [14] VFR_HUD
[02:24:50.580662] [16] VFR_HUD
[02:24:51.395628] [19] VFR_HUD
[02:24:52.075588] [20] HEARTBEAT
[02:24:52.189533] [21] VFR_HUD
[02:24:53.007468] [22] HEARTBEAT
[02:24:53.013415] [23] SYS_STATUS
[02:24:53.799363] [27] VFR_HUD
[02:24:54.024361] [28] HEARTBEAT
[02:24:54.620293] [29] VFR_HUD
[02:24:55.186251] [30] HEARTBEAT
[02:24:55.194253] [31] ATTITUDE_TARGET
[02:24:56.019255] [33] HEARTBEAT
[02:24:57.263065] [38] ATTITUDE_TARGET
[02:24:57.268013] [39] VFR_HUD
[02:24:57.853940] [40] VFR_HUD
[02:24:58.637913] [42] VFR_HUD
[02:24:59.013021] [43] HEARTBEAT
[02:24:59.020854] [44] ATTITUDE_TARGET
[02:24:59.545877] [45] VFR_HUD
[02:25:00.247715] [47] VFR_HUD
[02:25:01.104897] [50] BATTERY_STATUS
[02:25:01.112818] [51] ATTITUDE_TARGET
[02:25:01.117690] [52] VFR_HUD
[02:25:02.083540] [53] VFR_HUD
[02:25:02.086507] [54] HEARTBEAT
[02:25:03.006470] [56] HEARTBEAT
[02:25:03.014481] [57] ATTITUDE_TARGET
[02:25:04.060332] [59] HEARTBEAT
[02:25:04.377279] [60] VFR_HUD
[02:25:05.313302] [64] ATTITUDE_TARGET
[02:25:05.317208] [65] VFR_HUD
[02:25:05.991112] [66] VFR_HUD
[02:25:05.994262] [67] HEARTBEAT
[02:25:06.687115] [68] VFR_HUD
[02:25:07.065108] [69] HEARTBEAT
[02:25:07.070049] [70] ATTITUDE_TARGET
[02:25:07.497018] [71] VFR_HUD
[02:25:08.180934] [73] VFR_HUD
[02:25:08.969913] [74] HEARTBEAT
[02:25:08.989861] [75] SYS_STATUS
[02:25:09.112010] [76] BATTERY_STATUS
[02:25:09.112901] [77] EXTENDED_SYS_STATE
[02:25:09.145828] [78] ATTITUDE_TARGET
[02:25:09.150836] [79] VFR_HUD
[02:25:09.153797] [80] SYSTEM_TIME
[02:25:09.789939] [81] VFR_HUD
[02:25:10.119775] [82] HEARTBEAT
[02:25:10.583673] [83] VFR_HUD
[02:25:11.053629] [84] HEARTBEAT
[02:25:11.060626] [85] ATTITUDE_TARGET
[02:25:11.404632] [86] VFR_HUD
[02:25:12.078577] [87] HEARTBEAT
[02:25:12.193545] [88] VFR_HUD
[02:25:14.038301] [95] HEARTBEAT
[02:25:15.192204] [97] HEARTBEAT
[02:25:15.200213] [98] ATTITUDE_TARGET
[02:25:16.223074] [101] VFR_HUD
[02:25:17.029986] [102] HEARTBEAT
[02:25:17.036972] [103] SYS_STATUS
[02:25:17.151993] [104] BATTERY_STATUS
[02:25:17.836940] [107] VFR_HUD
[02:25:18.631824] [109] VFR_HUD
[02:25:19.040791] [110] HEARTBEAT
[02:25:19.047789] [111] ATTITUDE_TARGET
[02:25:19.446756] [112] VFR_HUD
[02:25:20.241800] [114] VFR_HUD
[02:25:22.004532] [120] VFR_HUD
[02:25:22.007502] [121] HEARTBEAT
[02:25:23.239483] [123] HEARTBEAT
[02:25:23.247405] [124] ATTITUDE_TARGET
[02:25:24.040443] [126] HEARTBEAT
[02:25:24.270289] [127] VFR_HUD
[02:25:25.085244] [131] ATTITUDE_TARGET
[02:25:25.089180] [132] VFR_HUD
[02:25:25.879218] [133] VFR_HUD
[02:25:25.985876] [134] HEARTBEAT
[02:25:26.690086] [135] VFR_HUD
[02:25:27.066041] [136] HEARTBEAT
[02:25:27.074023] [137] ATTITUDE_TARGET
[02:25:28.288968] [140] VFR_HUD
[02:25:28.986932] [141] HEARTBEAT
[02:25:28.992913] [142] SYS_STATUS
[02:25:29.151873] [143] BATTERY_STATUS
[02:25:29.153900] [144] EXTENDED_SYS_STATE
[02:25:29.162030] [145] ATTITUDE_TARGET
[02:25:30.040956] [149] HEARTBEAT
[02:25:30.587725] [150] VFR_HUD
[02:25:31.202679] [151] HEARTBEAT
[02:25:31.210582] [152] ATTITUDE_TARGET
[02:25:32.096551] [154] HEARTBEAT
[02:25:33.123464] [156] HEARTBEAT
[02:25:33.130472] [157] SYS_STATUS
[02:25:33.250479] [158] BATTERY_STATUS
[02:25:34.031363] [162] HEARTBEAT
[02:25:34.627285] [163] VFR_HUD
[02:25:36.230337] [168] VFR_HUD
[02:25:37.032063] [169] HEARTBEAT
[02:25:37.039037] [170] SYS_STATUS
[02:25:37.839963] [174] VFR_HUD
[02:25:38.170073] [175] HEARTBEAT
[02:25:38.992868] [177] HEARTBEAT
[02:25:39.000791] [178] ATTITUDE_TARGET
[02:25:40.009729] [180] HEARTBEAT
[02:25:41.171609] [182] HEARTBEAT
[02:25:41.177607] [183] SYS_STATUS
[02:25:41.983480] [188] HEARTBEAT
[02:25:42.663402] [189] VFR_HUD
[02:25:43.242349] [190] HEARTBEAT
[02:25:43.250347] [191] ATTITUDE_TARGET
[02:25:43.463349] [192] VFR_HUD
[02:25:44.066284] [193] HEARTBEAT
[02:25:44.284258] [194] VFR_HUD
[02:25:44.964287] [195] HEARTBEAT
[02:25:45.093270] [196] SYS_STATUS
[02:25:45.101220] [197] BATTERY_STATUS
[02:25:46.579019] [202] VFR_HUD
[02:25:47.047984] [203] HEARTBEAT
[02:25:47.055914] [204] ATTITUDE_TARGET
[02:25:48.058903] [206] HEARTBEAT
[02:25:48.183875] [207] VFR_HUD
[02:25:48.994066] [208] HEARTBEAT
[02:25:48.997756] [209] SYS_STATUS
[02:25:49.792665] [215] VFR_HUD
[02:25:50.022651] [216] HEARTBEAT
[02:25:51.208600] [218] HEARTBEAT
[02:25:51.216565] [219] ATTITUDE_TARGET
[02:25:52.115548] [221] HEARTBEAT
[02:25:53.019449] [223] HEARTBEAT
[02:25:53.026414] [224] SYS_STATUS
[02:25:53.144380] [225] BATTERY_STATUS
[02:25:53.152413] [226] ATTITUDE_TARGET
[02:25:53.182374] [227] VFR_HUD
[02:25:53.811311] [228] VFR_HUD
[02:25:54.626269] [230] VFR_HUD
[02:25:55.118406] [231] HEARTBEAT
[02:25:55.126283] [232] ATTITUDE_TARGET
[02:25:55.420264] [233] VFR_HUD
[02:25:56.235173] [235] VFR_HUD
[02:25:57.038102] [236] HEARTBEAT
[02:25:57.045083] [237] SYS_STATUS
[02:25:58.075941] [241] VFR_HUD
[02:25:58.078968] [242] HEARTBEAT
[02:26:00.024793] [247] HEARTBEAT
[02:26:01.067771] [249] HEARTBEAT
[02:26:01.074726] [250] SYS_STATUS
[02:26:01.192811] [251] BATTERY_STATUS
[02:26:01.200677] [252] ATTITUDE_TARGET
[02:26:01.230720] [253] VFR_HUD
[02:26:01.860589] [254] VFR_HUD
[02:26:01.975684] [255] HEARTBEAT
[02:26:02.681546] [0] VFR_HUD
[02:26:03.019513] [1] HEARTBEAT
[02:26:03.027528] [2] ATTITUDE_TARGET
[02:26:03.469445] [3] VFR_HUD
[02:26:04.284380] [5] VFR_HUD
[02:26:05.086341] [6] HEARTBEAT
[02:26:05.092307] [7] SYS_STATUS
[02:26:06.578250] [13] VFR_HUD
[02:26:07.378117] [16] VFR_HUD
[02:26:08.063043] [17] HEARTBEAT
[02:26:09.120881] [21] BATTERY_STATUS
[02:26:09.121851] [22] EXTENDED_SYS_STATE
[02:26:09.241862] [23] ATTITUDE_TARGET
[02:26:09.246909] [24] VFR_HUD
[02:26:09.249839] [25] SYSTEM_TIME
[02:26:10.028901] [27] HEARTBEAT
[02:26:11.067671] [29] HEARTBEAT
[02:26:11.075634] [30] ATTITUDE_TARGET
[02:26:11.408672] [31] VFR_HUD
[02:26:11.973598] [32] HEARTBEAT
[02:26:12.207604] [33] VFR_HUD
[02:26:13.077511] [36] BATTERY_STATUS
[02:26:13.084477] [37] ATTITUDE_TARGET
[02:26:13.089488] [38] VFR_HUD
[02:26:14.201425] [39] VFR_HUD
[02:26:14.204372] [40] HEARTBEAT
[02:26:14.632361] [41] VFR_HUD
[02:26:15.427238] [44] VFR_HUD
[02:26:16.011384] [45] HEARTBEAT
[02:26:17.283238] [50] ATTITUDE_TARGET
[02:26:17.288085] [51] VFR_HUD
[02:26:18.077045] [53] HEARTBEAT
[02:26:19.114909] [55] HEARTBEAT
[02:26:19.122928] [56] ATTITUDE_TARGET
[02:26:19.455877] [57] VFR_HUD
[02:26:20.021849] [58] HEARTBEAT
[02:26:20.255805] [59] VFR_HUD
[02:26:21.072738] [60] HEARTBEAT
[02:26:21.079810] [61] SYS_STATUS
[02:26:21.236666] [64] VFR_HUD
[02:26:22.680537] [67] VFR_HUD
[02:26:23.024751] [68] HEARTBEAT
[02:26:23.032516] [69] ATTITUDE_TARGET
[02:26:24.060380] [71] HEARTBEAT
[02:26:24.970331] [73] HEARTBEAT
[02:26:24.990332] [74] SYS_STATUS
[02:26:25.034330] [75] BATTERY_STATUS
[02:26:25.041311] [76] ATTITUDE_TARGET
[02:26:25.046435] [77] VFR_HUD
[02:26:26.006421] [78] VFR_HUD
[02:26:26.013224] [79] HEARTBEAT
[02:26:26.586161] [80] VFR_HUD
[02:26:27.164153] [81] HEARTBEAT
[02:26:27.172213] [82] ATTITUDE_TARGET
[02:26:27.966109] [84] HEARTBEAT
[02:26:29.126963] [88] BATTERY_STATUS
[02:26:29.128878] [89] EXTENDED_SYS_STATE
[02:26:29.247914] [90] ATTITUDE_TARGET
[02:26:29.252849] [91] VFR_HUD
[02:26:29.256898] [92] SYSTEM_TIME
[02:26:29.804799] [93] VFR_HUD
[02:26:30.604781] [95] VFR_HUD
[02:26:31.073801] [96] HEARTBEAT
[02:26:31.081706] [97] ATTITUDE_TARGET
[02:26:31.441668] [98] VFR_HUD
[02:26:32.214705] [100] VFR_HUD
[02:26:33.036514] [101] HEARTBEAT
[02:26:33.042525] [102] SYS_STATUS
[02:26:33.082494] [103] BATTERY_STATUS
[02:26:33.090503] [104] ATTITUDE_TARGET
[02:26:33.095548] [105] VFR_HUD
[02:26:34.061406] [106] VFR_HUD
[02:26:34.063424] [107] HEARTBEAT
[02:26:34.993399] [110] ATTITUDE_TARGET
[02:26:36.016253] [112] HEARTBEAT
[02:26:37.179162] [116] BATTERY_STATUS
[02:26:37.292155] [117] ATTITUDE_TARGET
[02:26:37.296100] [118] VFR_HUD
[02:26:37.853112] [119] VFR_HUD
[02:26:38.652959] [121] VFR_HUD
[02:26:39.011946] [122] HEARTBEAT
[02:26:39.019898] [123] ATTITUDE_TARGET
[02:26:39.572822] [124] VFR_HUD
[02:26:40.261785] [126] VFR_HUD
[02:26:41.084730] [127] HEARTBEAT
[02:26:41.091725] [128] SYS_STATUS
[02:26:41.131705] [129] BATTERY_STATUS
[02:26:41.138714] [130] ATTITUDE_TARGET
[02:26:41.143690] [131] VFR_HUD
[02:26:43.032597] [135] HEARTBEAT
[02:26:43.040545] [136] ATTITUDE_TARGET
[02:26:44.067446] [138] HEARTBEAT
[02:26:44.172464] [139] VFR_HUD
[02:26:46.007271] [146] HEARTBEAT
[02:26:47.171346] [148] HEARTBEAT
[02:26:47.178081] [149] ATTITUDE_TARGET
[02:26:48.214009] [152] VFR_HUD
[02:26:49.009986] [153] HEARTBEAT
[02:26:49.016957] [154] SYS_STATUS
[02:26:49.134946] [155] BATTERY_STATUS
[02:26:49.135884] [156] EXTENDED_SYS_STATE
[02:26:49.921888] [160] VFR_HUD
[02:26:50.612959] [162] VFR_HUD
[02:26:51.079864] [164] ATTITUDE_TARGET
[02:26:51.448715] [165] VFR_HUD
[02:26:52.232672] [167] VFR_HUD
[02:26:54.067450] [173] VFR_HUD
[02:26:54.070428] [174] HEARTBEAT
[02:26:55.109396] [176] HEARTBEAT
[02:26:55.117368] [177] ATTITUDE_TARGET
[02:26:56.021265] [179] HEARTBEAT
[02:26:56.250277] [180] VFR_HUD
[02:26:57.058204] [181] HEARTBEAT
[02:26:57.065253] [182] SYS_STATUS
[02:26:57.180168] [183] BATTERY_STATUS
[02:26:57.860045] [186] VFR_HUD
[02:26:58.576945] [188] VFR_HUD
[02:26:59.046016] [189] HEARTBEAT
[02:26:59.054008] [190] ATTITUDE_TARGET
[02:26:59.496929] [191] VFR_HUD
[02:27:00.269791] [193] VFR_HUD
[02:27:01.780628] [199] VFR_HUD
[02:27:01.994686] [200] HEARTBEAT
[02:27:02.798542] [201] VFR_HUD
[02:27:03.163703] [202] HEARTBEAT
[02:27:03.170560] [203] ATTITUDE_TARGET
[02:27:03.379452] [204] VFR_HUD
[02:27:05.121295] [209] BATTERY_STATUS
[02:27:05.129267] [210] ATTITUDE_TARGET
[02:27:05.159299] [211] VFR_HUD
[02:27:06.013270] [213] HEARTBEAT
[02:27:06.625181] [214] VFR_HUD
[02:27:07.066221] [215] HEARTBEAT
[02:27:07.074225] [216] ATTITUDE_TARGET
[02:27:08.211998] [219] VFR_HUD
[02:27:09.014169] [220] HEARTBEAT
[02:27:09.021292] [221] SYS_STATUS
[02:27:09.820884] [227] VFR_HUD
[02:27:10.050873] [228] HEARTBEAT
[02:27:10.627840] [229] VFR_HUD
[02:27:10.961754] [230] HEARTBEAT
[02:27:11.203786] [231] ATTITUDE_TARGET
[02:27:11.991660] [233] HEARTBEAT
[02:27:13.168526] [237] BATTERY_STATUS
[02:27:13.176590] [238] ATTITUDE_TARGET
[02:27:13.206485] [239] VFR_HUD
[02:27:14.060911] [241] HEARTBEAT
[02:27:14.755296] [242] VFR_HUD
[02:27:15.114422] [243] HEARTBEAT
[02:27:15.122357] [244] ATTITUDE_TARGET
[02:27:16.026211] [246] HEARTBEAT
[02:27:16.255334] [247] VFR_HUD
[02:27:17.061230] [248] HEARTBEAT
[02:27:17.068158] [249] SYS_STATUS
[02:27:17.183130] [250] BATTERY_STATUS
[02:27:17.530303] [251] ATTITUDE_TARGET
[02:27:17.534146] [252] VFR_HUD
[02:27:17.869072] [253] VFR_HUD
[02:27:18.592981] [255] VFR_HUD
[02:27:19.027975] [0] HEARTBEAT
[02:27:19.035902] [1] ATTITUDE_TARGET
[02:27:20.037840] [3] HEARTBEAT
[02:27:21.209732] [8] ATTITUDE_TARGET
[02:27:21.214704] [9] VFR_HUD
[02:27:22.002704] [11] HEARTBEAT
[02:27:23.166512] [13] HEARTBEAT
[02:27:23.174501] [14] ATTITUDE_TARGET
[02:27:24.073420] [16] HEARTBEAT
[02:27:25.125319] [20] BATTERY_STATUS
[02:27:25.133284] [21] ATTITUDE_TARGET
[02:27:25.163275] [22] VFR_HUD
[02:27:25.792299] [23] VFR_HUD
[02:27:26.630146] [25] VFR_HUD
[02:27:27.077126] [26] HEARTBEAT
[02:27:27.084210] [27] ATTITUDE_TARGET
[02:27:27.402066] [28] VFR_HUD
[02:27:28.217974] [30] VFR_HUD
[02:27:29.019976] [31] HEARTBEAT
[02:27:29.026885] [32] SYS_STATUS
[02:27:30.047898] [39] HEARTBEAT
[02:27:31.007942] [42] ATTITUDE_TARGET
[02:27:31.996701] [44] HEARTBEAT
[02:27:33.048574] [46] HEARTBEAT
[02:27:33.055627] [47] SYS_STATUS
[02:27:33.173599] [48] BATTERY_STATUS
[02:27:33.181578] [49] ATTITUDE_TARGET
[02:27:33.211752] [50] VFR_HUD
[02:27:33.840555] [51] VFR_HUD
[02:27:34.760579] [53] VFR_HUD
[02:27:34.999394] [54] HEARTBEAT
[02:27:35.007380] [55] ATTITUDE_TARGET
[02:27:35.449341] [56] VFR_HUD
[02:27:36.264304] [58] VFR_HUD
[02:27:37.066299] [59] HEARTBEAT
[02:27:37.073246] [60] SYS_STATUS
[02:27:37.306280] [62] ATTITUDE_TARGET
[02:27:37.310256] [63] VFR_HUD
[02:27:37.874166] [64] VFR_HUD
[02:27:39.034021] [67] HEARTBEAT
[02:27:39.042054] [68] ATTITUDE_TARGET
[02:27:39.587947] [69] VFR_HUD
[02:27:40.043922] [70] HEARTBEAT
[02:27:41.095814] [72] HEARTBEAT
[02:27:41.102785] [73] SYS_STATUS
[02:27:41.220849] [74] BATTERY_STATUS
[02:27:41.228929] [75] ATTITUDE_TARGET
[02:27:41.258863] [76] VFR_HUD
[02:27:42.008716] [78] HEARTBEAT
[02:27:43.047633] [80] HEARTBEAT
[02:27:43.054812] [81] ATTITUDE_TARGET
[02:27:43.387649] [82] VFR_HUD
[02:27:44.188526] [84] VFR_HUD
[02:27:45.010605] [85] HEARTBEAT
[02:27:45.017387] [86] SYS_STATUS
[02:27:45.057454] [87] BATTERY_STATUS
[02:27:45.064427] [88] ATTITUDE_TARGET
[02:27:45.069394] [89] VFR_HUD
[02:27:46.635296] [92] VFR_HUD
[02:27:47.407204] [95] VFR_HUD
[02:27:47.982126] [96] HEARTBEAT
[02:27:48.222076] [97] VFR_HUD
[02:27:49.153048] [100] BATTERY_STATUS
[02:27:49.155039] [101] EXTENDED_SYS_STATE
[02:27:50.056903] [106] HEARTBEAT
[02:27:52.001718] [111] HEARTBEAT
[02:27:52.235735] [112] VFR_HUD
[02:27:53.211557] [115] BATTERY_STATUS
[02:27:53.218595] [116] ATTITUDE_TARGET
[02:27:53.223559] [117] VFR_HUD
[02:27:53.857584] [118] VFR_HUD
[02:27:54.304409] JAMMING_STOP
[02:27:54.683581] [120] VFR_HUD
[02:27:55.005559] [121] HEARTBEAT
[02:27:55.013400] [122] ATTITUDE_TARGET
[02:27:55.456419] [123] VFR_HUD
[02:27:56.031357] [124] HEARTBEAT
[02:27:56.271330] [125] VFR_HUD
[02:27:57.073130] [126] HEARTBEAT
[02:27:57.080162] [127] SYS_STATUS
[02:27:57.195212] [128] BATTERY_STATUS
[02:27:57.313613] [129] ATTITUDE_TARGET
[02:27:57.317077] [130] VFR_HUD
[02:27:57.881139] [131] VFR_HUD
[02:27:57.993060] [132] HEARTBEAT
[02:27:58.675932] [133] VFR_HUD
[02:27:59.034921] [134] HEARTBEAT
[02:27:59.042876] [135] ATTITUDE_TARGET
[02:27:59.365981] [136] VFR_HUD
[02:28:00.050871] [137] HEARTBEAT
[02:28:00.175804] [138] VFR_HUD
[02:28:00.971863] [139] HEARTBEAT
[02:28:00.990831] [140] SYS_STATUS
[02:28:01.104726] [141] BATTERY_STATUS
[02:28:01.221698] [142] ATTITUDE_TARGET
[02:28:01.226789] [143] VFR_HUD
[02:28:01.785614] [144] VFR_HUD
[02:28:02.015761] [145] HEARTBEAT
[02:28:02.585547] [146] VFR_HUD
[02:28:03.054548] [147] HEARTBEAT
[02:28:03.062495] [148] ATTITUDE_TARGET
[02:28:03.400494] [149] VFR_HUD
[02:28:03.960442] [150] HEARTBEAT
[02:28:04.195393] [151] VFR_HUD
[02:28:05.017331] [152] HEARTBEAT
[02:28:05.024310] [153] SYS_STATUS
[02:28:05.064446] [154] BATTERY_STATUS
[02:28:05.071416] [155] ATTITUDE_TARGET
[02:28:05.076267] [156] VFR_HUD
[02:28:06.040243] [157] VFR_HUD
[02:28:06.043168] [158] HEARTBEAT
[02:28:06.620202] [159] VFR_HUD
[02:28:07.089230] [160] HEARTBEAT
[02:28:07.097107] [161] ATTITUDE_TARGET
[02:28:07.415121] [162] VFR_HUD
[02:28:07.996061] [163] HEARTBEAT
[02:28:08.224991] [164] VFR_HUD
[02:28:09.032073] [165] HEARTBEAT
[02:28:09.038950] [166] SYS_STATUS
[02:28:09.161900] [167] BATTERY_STATUS
[02:28:09.163874] [168] EXTENDED_SYS_STATE
[02:28:09.195964] [169] ATTITUDE_TARGET
[02:28:09.201020] [170] VFR_HUD
[02:28:09.203877] [171] SYSTEM_TIME
[02:28:09.944776] [172] VFR_HUD
[02:28:09.962868] [173] HEARTBEAT
[02:28:10.634787] [174] VFR_HUD
[02:28:10.993769] [175] HEARTBEAT
[02:28:11.001724] [176] ATTITUDE_TARGET
[02:28:11.444627] [177] VFR_HUD
[02:28:12.009651] [178] HEARTBEAT
[02:28:12.244546] [179] VFR_HUD
[02:28:13.066590] [180] HEARTBEAT
[02:28:13.073587] [181] SYS_STATUS
[02:28:13.113447] [182] BATTERY_STATUS
[02:28:13.120559] [183] ATTITUDE_TARGET
[02:28:13.125427] [184] VFR_HUD
[02:28:13.806482] [185] VFR_HUD
[02:28:13.969542] [186] HEARTBEAT
[02:28:14.669371] [187] VFR_HUD
[02:28:15.013376] [188] HEARTBEAT
[02:28:15.020355] [189] ATTITUDE_TARGET
[02:28:15.463417] [190] VFR_HUD
[02:28:16.039341] [191] HEARTBEAT
[02:28:16.279307] [192] VFR_HUD
[02:28:16.959307] [193] HEARTBEAT
[02:28:16.979229] [194] SYS_STATUS
[02:28:17.023208] [195] BATTERY_STATUS
[02:28:17.030258] [196] ATTITUDE_TARGET
[02:28:17.035230] [197] VFR_HUD
[02:28:17.999053] [198] VFR_HUD
[02:28:18.002035] [199] HEARTBEAT
[02:28:18.573993] [200] VFR_HUD
[02:28:19.042914] [201] HEARTBEAT
[02:28:19.050877] [202] ATTITUDE_TARGET
[02:28:19.373955] [203] VFR_HUD
[02:28:20.058953] [204] HEARTBEAT
[02:28:20.183907] [205] VFR_HUD
[02:28:20.991789] [206] HEARTBEAT
[02:28:20.997901] [207] SYS_STATUS
[02:28:21.112960] [208] BATTERY_STATUS
[02:28:21.230763] [209] ATTITUDE_TARGET
[02:28:21.234809] [210] VFR_HUD
[02:28:21.821725] [211] VFR_HUD
[02:28:22.018675] [212] HEARTBEAT
[02:28:22.593669] [213] VFR_HUD
[02:28:23.062761] [214] HEARTBEAT
[02:28:23.070541] [215] ATTITUDE_TARGET
[02:28:23.408550] [216] VFR_HUD
[02:28:23.968479] [217] HEARTBEAT
[02:28:24.203544] [218] VFR_HUD
[02:28:25.025404] [219] HEARTBEAT
[02:28:25.032392] [220] SYS_STATUS
[02:28:25.072394] [221] BATTERY_STATUS
[02:28:25.080415] [222] ATTITUDE_TARGET
[02:28:25.084299] [223] VFR_HUD
[02:28:26.048395] [224] VFR_HUD
[02:28:26.051337] [225] HEARTBEAT
[02:28:26.623211] [226] VFR_HUD
[02:28:26.958307] [227] HEARTBEAT
[02:28:26.981237] [228] ATTITUDE_TARGET
[02:28:27.423231] [229] VFR_HUD
[02:28:28.003172] [230] HEARTBEAT
[02:28:28.233053] [231] VFR_HUD
[02:28:29.040095] [232] HEARTBEAT
[02:28:29.046986] [233] SYS_STATUS
[02:28:29.165105] [234] BATTERY_STATUS
[02:28:29.165913] [235] EXTENDED_SYS_STATE
[02:28:29.285919] [236] ATTITUDE_TARGET
[02:28:29.290855] [237] VFR_HUD
[02:28:29.294052] [238] SYSTEM_TIME
[02:28:29.952947] [239] VFR_HUD
[02:28:30.072866] [240] HEARTBEAT
[02:28:30.641842] [241] VFR_HUD
[02:28:31.006871] [242] HEARTBEAT
[02:28:31.014757] [243] ATTITUDE_TARGET
[02:28:31.457698] [244] VFR_HUD
[02:28:32.017729] [245] HEARTBEAT
[02:28:32.251706] [246] VFR_HUD
[02:28:33.074549] [247] HEARTBEAT
[02:28:33.081487] [248] SYS_STATUS
[02:28:33.120591] [249] BATTERY_STATUS
[02:28:33.128535] [250] ATTITUDE_TARGET
[02:28:33.133410] [251] VFR_HUD
