[02:16:03.110286] [59] HEARTBEAT
[02:16:03.118254] [60] ATTITUDE_TARGET
[02:16:03.441254] [61] VFR_HUD
[02:16:04.016294] [62] HEARTBEAT
[02:16:04.256176] [63] VFR_HUD
[02:16:05.058067] [64] HEARTBEAT
[02:16:05.065181] [65] SYS_STATUS
[02:16:05.180041] [66] BATTERY_STATUS
[02:16:05.297050] [67] ATTITUDE_TARGET
[02:16:05.302008] [68] VFR_HUD
[02:16:05.866137] [69] VFR_HUD
[02:16:06.086057] [70] HEARTBEAT
[02:16:06.661003] [71] VFR_HUD
[02:16:07.019999] [72] HEARTBEAT
[02:16:07.027824] [73] ATTITUDE_TARGET
[02:16:07.475827] [74] VFR_HUD
[02:16:08.036891] [75] HEARTBEAT
[02:16:08.270856] [76] VFR_HUD
[02:16:09.093654] [77] HEARTBEAT
[02:16:09.100633] [78] SYS_STATUS
[02:16:09.134634] [79] BATTERY_STATUS
[02:16:09.136602] [80] EXTENDED_SYS_STATE
[02:16:09.144623] [81] ATTITUDE_TARGET
[02:16:09.149593] [82] VFR_HUD
[02:16:09.152602] [83] SYSTEM_TIME
[02:16:09.880576] [84] VFR_HUD
[02:16:10.001575] [85] HEARTBEAT
[02:16:10.691506] [86] VFR_HUD
[02:16:11.040476] [87] HEARTBEAT
[02:16:11.048451] [88] ATTITUDE_TARGET
[02:16:11.491370] [89] VFR_HUD
[02:16:12.071426] [90] HEARTBEAT
[02:16:12.300419] [91] VFR_HUD
[02:16:13.108428] [92] HEARTBEAT
[02:16:13.115254] [93] SYS_STATUS
[02:16:13.229257] [94] BATTERY_STATUS
[02:16:13.347247] [95] ATTITUDE_TARGET
[02:16:13.352220] [96] VFR_HUD
[02:16:13.910257] [97] VFR_HUD
[02:16:14.016291] [98] HEARTBEAT
[02:16:14.710148] [99] VFR_HUD
[02:16:15.075193] [100] HEARTBEAT
[02:16:15.083118] [101] ATTITUDE_TARGET
[02:16:15.400145] [102] VFR_HUD
[02:16:16.086110] [103] HEARTBEAT
[02:16:16.215945] [104] VFR_HUD
[02:16:17.018526] [105] HEARTBEAT
[02:16:17.024950] [106] SYS_STATUS
[02:16:17.144859] [107] BATTERY_STATUS
[02:16:17.256818] [108] ATTITUDE_TARGET
[02:16:17.261768] [109] VFR_HUD
[02:16:17.929743] [110] VFR_HUD
[02:16:18.045779] [111] HEARTBEAT
[02:16:18.619706] [112] VFR_HUD
[02:16:19.089686] [113] HEARTBEAT
[02:16:19.096706] [114] ATTITUDE_TARGET
[02:16:19.429615] [115] VFR_HUD
[02:16:19.995543] [116] HEARTBEAT
[02:16:20.229514] [117] VFR_HUD
[02:16:21.047562] [118] HEARTBEAT
[02:16:21.054425] [119] SYS_STATUS
[02:16:21.172454] [120] BATTERY_STATUS
[02:16:21.180388] [121] ATTITUDE_TARGET
[02:16:21.210474] [122] VFR_HUD
[02:16:21.839330] [123] VFR_HUD
[02:16:22.065454] [124] HEARTBEAT
[02:16:22.649384] [125] VFR_HUD
[02:16:23.119367] [126] HEARTBEAT
[02:16:23.126321] [127] ATTITUDE_TARGET
[02:16:23.449279] [128] VFR_HUD
[02:16:24.025182] [129] HEARTBEAT
[02:16:24.265110] [130] VFR_HUD
[02:16:25.067172] [131] HEARTBEAT
[02:16:25.074042] [132] SYS_STATUS
[02:16:25.189082] [133] BATTERY_STATUS
[02:16:25.306153] [134] ATTITUDE_TARGET
[02:16:25.311092] [135] VFR_HUD
[02:16:25.897100] [136] VFR_HUD
[02:16:26.095196] [137] HEARTBEAT
[02:16:26.669934] [138] VFR_HUD
[02:16:27.028993] [139] HEARTBEAT
[02:16:27.036828] [140] ATTITUDE_TARGET
[02:16:27.484801] [141] VFR_HUD
[02:16:28.044821] [142] HEARTBEAT
[02:16:28.279666] [143] VFR_HUD
[02:16:29.096731] [144] HEARTBEAT
[02:16:29.103622] [145] SYS_STATUS
[02:16:29.225645] [146] BATTERY_STATUS
[02:16:29.227698] [147] EXTENDED_SYS_STATE
[02:16:29.234583] [148] ATTITUDE_TARGET
[02:16:29.239575] [149] VFR_HUD
[02:16:29.243548] [150] SYSTEM_TIME
[02:16:29.889529] [151] VFR_HUD
[02:16:30.010625] [152] HEARTBEAT
[02:16:30.699437] [153] VFR_HUD
[02:16:31.048467] [154] HEARTBEAT
[02:16:31.056342] [155] ATTITUDE_TARGET
[02:16:31.499360] [156] VFR_HUD
[02:16:32.080260] [157] HEARTBEAT
[02:16:32.309231] [158] VFR_HUD
[02:16:33.012258] [159] HEARTBEAT
[02:16:33.019243] [160] SYS_STATUS
[02:16:33.058193] [161] BATTERY_STATUS
[02:16:33.066292] [162] ATTITUDE_TARGET
[02:16:33.071256] [163] VFR_HUD
[02:16:33.982145] [164] VFR_HUD
[02:16:34.000031] [165] HEARTBEAT
[02:16:34.614039] [166] VFR_HUD
[02:16:35.083940] [167] HEARTBEAT
[02:16:35.091007] [168] ATTITUDE_TARGET
[02:16:35.408910] [169] VFR_HUD
[02:16:36.001912] [170] HEARTBEAT
[02:16:36.218766] [171] VFR_HUD
[02:16:37.026649] [172] HEARTBEAT
[02:16:37.033613] [173] SYS_STATUS
[02:16:37.153574] [174] BATTERY_STATUS
[02:16:37.265641] [175] ATTITUDE_TARGET
[02:16:37.270624] [176] VFR_HUD
[02:16:37.829570] [177] VFR_HUD
[02:16:38.059707] [178] HEARTBEAT
[02:16:38.629498] [179] VFR_HUD
[02:16:39.098453] [180] HEARTBEAT
[02:16:39.106365] [181] ATTITUDE_TARGET
[02:16:39.439370] [182] VFR_HUD
[02:16:40.004300] [183] HEARTBEAT
[02:16:40.239261] [184] VFR_HUD
[02:16:41.056209] [185] HEARTBEAT
[02:16:41.063187] [186] SYS_STATUS
[02:16:41.182165] [187] BATTERY_STATUS
[02:16:41.190158] [188] ATTITUDE_TARGET
[02:16:41.220177] [189] VFR_HUD
[02:16:41.849192] [190] VFR_HUD
[02:16:42.074223] [191] HEARTBEAT
[02:16:42.664025] [192] VFR_HUD
[02:16:42.994242] [193] HEARTBEAT
[02:16:43.017058] [194] ATTITUDE_TARGET
[02:16:43.458994] [195] VFR_HUD
[02:16:44.033975] [196] HEARTBEAT
[02:16:44.273872] [197] VFR_HUD
[02:16:45.075912] [198] HEARTBEAT
[02:16:45.082888] [199] SYS_STATUS
[02:16:45.202877] [200] BATTERY_STATUS
[02:16:45.314846] [201] ATTITUDE_TARGET
[02:16:45.319747] [202] VFR_HUD
[02:16:45.883860] [203] VFR_HUD
[02:16:45.995810] [204] HEARTBEAT
[02:16:46.678623] [205] VFR_HUD
[02:16:47.147582] [206] HEARTBEAT
[02:16:47.155574] [207] ATTITUDE_TARGET
[02:16:47.488600] [208] VFR_HUD
[02:16:48.053509] [209] HEARTBEAT
[02:16:48.288437] [210] VFR_HUD
[02:16:49.105409] [211] HEARTBEAT
[02:16:49.113026] [212] SYS_STATUS
[02:16:49.233380] [213] BATTERY_STATUS
[02:16:49.235406] [214] EXTENDED_SYS_STATE
[02:16:49.243463] [215] ATTITUDE_TARGET
[02:16:49.248336] [216] VFR_HUD
[02:16:49.251298] [217] SYSTEM_TIME
[02:16:49.897265] [218] VFR_HUD
[02:16:50.123398] [219] HEARTBEAT
[02:16:50.707237] [220] VFR_HUD
[02:16:51.057182] [221] HEARTBEAT
[02:16:51.065300] [222] ATTITUDE_TARGET
[02:16:51.403124] [223] VFR_HUD
[02:16:52.083169] [224] HEARTBEAT
[02:16:52.322168] [225] VFR_HUD
[02:16:53.056053] [226] HEARTBEAT
[02:16:53.063061] [227] SYS_STATUS
[02:16:53.070967] [228] BATTERY_STATUS
[02:16:53.082963] [229] ATTITUDE_TARGET
[02:16:53.087995] [230] VFR_HUD
[02:16:53.806951] [231] VFR_HUD
[02:16:54.032929] [232] HEARTBEAT
[02:16:54.616872] [233] VFR_HUD
[02:16:55.113873] [234] HEARTBEAT
[02:16:55.121786] [235] ATTITUDE_TARGET
[02:16:55.416724] [236] VFR_HUD
[02:16:56.019742] [237] HEARTBEAT
[02:16:56.226800] [238] VFR_HUD
[02:16:57.034580] [239] HEARTBEAT
[02:16:57.040561] [240] SYS_STATUS
[02:16:57.176580] [241] BATTERY_STATUS
[02:16:57.203611] [242] ATTITUDE_TARGET
[02:16:57.208568] [243] VFR_HUD
[02:16:57.836606] [244] VFR_HUD
[02:16:58.090484] [245] HEARTBEAT
[02:16:58.637446] [246] VFR_HUD
[02:16:59.024498] [247] HEARTBEAT
[02:16:59.031375] [248] ATTITUDE_TARGET
[02:16:59.447379] [249] VFR_HUD
[02:17:00.012701] [250] HEARTBEAT
[02:17:00.247228] [251] VFR_HUD
[02:17:01.105205] [252] HEARTBEAT
[02:17:01.112756] [253] SYS_STATUS
[02:17:01.120236] [254] BATTERY_STATUS
[02:17:01.132144] [255] ATTITUDE_TARGET
[02:17:01.137121] [0] VFR_HUD
[02:17:01.856171] [1] VFR_HUD
[02:17:02.082199] [2] HEARTBEAT
[02:17:02.672079] [3] VFR_HUD
[02:17:03.015919] [4] HEARTBEAT
[02:17:03.023934] [5] ATTITUDE_TARGET
[02:17:03.466944] [6] VFR_HUD
[02:17:04.069922] [7] HEARTBEAT
[02:17:04.276794] [8] VFR_HUD
[02:17:05.083711] [9] HEARTBEAT
[02:17:05.090712] [10] SYS_STATUS
[02:17:05.210816] [11] BATTERY_STATUS
[02:17:05.322831] [12] ATTITUDE_TARGET
[02:17:05.327678] [13] VFR_HUD
[02:17:05.885645] [14] VFR_HUD
[02:17:05.991624] [15] HEARTBEAT
[02:17:06.686595] [16] VFR_HUD
[02:17:07.155548] [17] HEARTBEAT
[02:17:07.163476] [18] ATTITUDE_TARGET
[02:17:07.496466] [19] VFR_HUD
[02:17:08.061458] [20] HEARTBEAT
[02:17:08.295437] [21] VFR_HUD
[02:17:09.223334] [22] HEARTBEAT
[02:17:09.230383] [23] SYS_STATUS
[02:17:09.353366] [24] BATTERY_STATUS
[02:17:09.354297] [25] EXTENDED_SYS_STATE
[02:17:09.387376] [26] ATTITUDE_TARGET
[02:17:09.391315] [27] VFR_HUD
[02:17:09.395448] [28] SYSTEM_TIME
[02:17:09.905472] [29] VFR_HUD
[02:17:10.131435] [30] HEARTBEAT
[02:17:10.601366] [31] VFR_HUD
[02:17:11.065253] [32] HEARTBEAT
[02:17:11.073197] [33] ATTITUDE_TARGET
[02:17:11.411315] [34] VFR_HUD
[02:17:12.209092] [35] HEARTBEAT
[02:17:12.214125] [36] VFR_HUD
[02:17:13.023127] [37] HEARTBEAT
[02:17:13.030069] [38] SYS_STATUS
[02:17:13.148019] [39] BATTERY_STATUS
[02:17:13.155975] [40] ATTITUDE_TARGET
[02:17:13.185941] [41] VFR_HUD
[02:17:13.816005] [42] VFR_HUD
[02:17:14.041014] [43] HEARTBEAT
[02:17:14.625799] [44] VFR_HUD
[02:17:15.204748] [45] HEARTBEAT
[02:17:15.212915] [46] ATTITUDE_TARGET
[02:17:15.425699] [47] VFR_HUD
[02:17:16.005646] [48] HEARTBEAT
[02:17:16.235587] [49] VFR_HUD
[02:17:17.042667] [50] HEARTBEAT
[02:17:17.049518] [51] SYS_STATUS
[02:17:17.185471] [52] BATTERY_STATUS
[02:17:17.212606] [53] ATTITUDE_TARGET
[02:17:17.217535] [54] VFR_HUD
[02:17:17.844525] [55] VFR_HUD
[02:17:18.098385] [56] HEARTBEAT
[02:17:18.645429] [57] VFR_HUD
[02:17:18.996349] [58] HEARTBEAT
[02:17:19.113389] [59] ATTITUDE_TARGET
[02:17:19.460230] [60] VFR_HUD
[02:17:20.020322] [61] HEARTBEAT
[02:17:20.255232] [62] VFR_HUD
[02:17:21.077159] [63] HEARTBEAT
[02:17:21.084159] [64] SYS_STATUS
[02:17:21.124080] [65] BATTERY_STATUS
[02:17:21.131113] [66] ATTITUDE_TARGET
[02:17:21.136037] [67] VFR_HUD
[02:17:21.994986] [68] VFR_HUD
[02:17:21.997958] [69] HEARTBEAT
[02:17:22.679872] [70] VFR_HUD
[02:17:23.023957] [71] HEARTBEAT
[02:17:23.031884] [72] ATTITUDE_TARGET
[02:17:23.474792] [73] VFR_HUD
[02:17:24.055735] [74] HEARTBEAT
[02:17:24.284776] [75] VFR_HUD
[02:17:25.091619] [76] HEARTBEAT
[02:17:25.098727] [77] SYS_STATUS
[02:17:25.263696] [78] BATTERY_STATUS
[02:17:25.271612] [79] ATTITUDE_TARGET
[02:17:25.275579] [80] VFR_HUD
[02:17:26.010521] [81] VFR_HUD
[02:17:26.013552] [82] HEARTBEAT
[02:17:26.694630] [83] VFR_HUD
[02:17:27.053419] [84] HEARTBEAT
[02:17:27.061355] [85] ATTITUDE_TARGET
[02:17:27.504427] [86] VFR_HUD
[02:17:28.069420] [87] HEARTBEAT
[02:17:28.222361] [88] VFR_HUD
[02:17:28.995285] [89] HEARTBEAT
[02:17:29.015197] [90] SYS_STATUS
[02:17:29.053191] [91] BATTERY_STATUS
[02:17:29.054131] [92] EXTENDED_SYS_STATE
[02:17:29.062208] [93] ATTITUDE_TARGET
[02:17:29.067138] [94] VFR_HUD
[02:17:29.071119] [95] SYSTEM_TIME
[02:17:29.809067] [96] VFR_HUD
[02:17:30.029158] [97] HEARTBEAT
[02:17:30.604052] [98] VFR_HUD
[02:17:31.073995] [99] HEARTBEAT
[02:17:31.080966] [100] ATTITUDE_TARGET
[02:17:31.413986] [101] VFR_HUD
[02:17:32.099923] [102] HEARTBEAT
[02:17:32.213926] [103] VFR_HUD
[02:17:33.031781] [104] HEARTBEAT
[02:17:33.038811] [105] SYS_STATUS
[02:17:33.156783] [106] BATTERY_STATUS
[02:17:33.164723] [107] ATTITUDE_TARGET
[02:17:33.194851] [108] VFR_HUD
[02:17:33.823628] [109] VFR_HUD
[02:17:34.049683] [110] HEARTBEAT
[02:17:34.633634] [111] VFR_HUD
[02:17:35.103524] [112] HEARTBEAT
[02:17:35.111505] [113] ATTITUDE_TARGET
[02:17:35.433492] [114] VFR_HUD
[02:17:36.009451] [115] HEARTBEAT
[02:17:36.271365] [116] VFR_HUD
[02:17:37.051275] [117] HEARTBEAT
[02:17:37.058233] [118] SYS_STATUS
[02:17:37.194456] [119] BATTERY_STATUS
[02:17:37.220261] [120] ATTITUDE_TARGET
[02:17:37.225247] [121] VFR_HUD
[02:17:37.859211] [122] VFR_HUD
[02:17:38.079286] [123] HEARTBEAT
[02:17:38.653058] [124] VFR_HUD
[02:17:39.018157] [125] HEARTBEAT
[02:17:39.026052] [126] ATTITUDE_TARGET
[02:17:39.469190] [127] VFR_HUD
[02:17:40.028961] [128] HEARTBEAT
[02:17:40.263918] [129] VFR_HUD
[02:17:41.085890] [130] HEARTBEAT
[02:17:41.093098] [131] SYS_STATUS
[02:17:41.132965] [132] BATTERY_STATUS
[02:17:41.139818] [133] ATTITUDE_TARGET
[02:17:41.144795] [134] VFR_HUD
[02:17:42.003811] [135] VFR_HUD
[02:17:42.006880] [136] HEARTBEAT
[02:17:42.683710] [137] VFR_HUD
[02:17:43.032727] [138] HEARTBEAT
[02:17:43.040686] [139] ATTITUDE_TARGET
[02:17:43.483622] [140] VFR_HUD
[02:17:44.064618] [141] HEARTBEAT
[02:17:44.293812] [142] VFR_HUD
[02:17:45.100519] [143] HEARTBEAT
[02:17:45.107486] [144] SYS_STATUS
[02:17:45.243462] [145] BATTERY_STATUS
[02:17:45.270495] [146] ATTITUDE_TARGET
[02:17:45.275444] [147] VFR_HUD
[02:17:45.903465] [148] VFR_HUD
[02:17:46.008385] [149] HEARTBEAT
[02:17:46.703322] [150] VFR_HUD
[02:17:47.067443] [151] HEARTBEAT
[02:17:47.075285] [152] ATTITUDE_TARGET
[02:17:47.518391] [153] VFR_HUD
[02:17:48.078276] [154] HEARTBEAT
[02:17:48.230189] [155] VFR_HUD
[02:17:49.010228] [156] HEARTBEAT
[02:17:49.017322] [157] SYS_STATUS
[02:17:49.140243] [158] BATTERY_STATUS
[02:17:49.142069] [159] EXTENDED_SYS_STATE
[02:17:49.174154] [160] ATTITUDE_TARGET
[02:17:49.179072] [161] VFR_HUD
[02:17:49.182104] [162] SYSTEM_TIME
[02:17:49.813096] [163] VFR_HUD
[02:17:50.038088] [164] HEARTBEAT
[02:17:50.613140] [165] VFR_HUD
[02:17:51.081978] [166] HEARTBEAT
[02:17:51.090005] [167] ATTITUDE_TARGET
[02:17:51.423036] [168] VFR_HUD
[02:17:51.993902] [169] HEARTBEAT
[02:17:52.222851] [170] VFR_HUD
[02:17:53.039833] [171] HEARTBEAT
[02:17:53.046797] [172] SYS_STATUS
[02:17:53.165781] [173] BATTERY_STATUS
[02:17:53.173771] [174] ATTITUDE_TARGET
[02:17:53.203803] [175] VFR_HUD
[02:17:53.832672] [176] VFR_HUD
[02:17:54.058725] [177] HEARTBEAT
[02:17:54.642665] [178] VFR_HUD
[02:17:55.111897] [179] HEARTBEAT
[02:17:55.119689] [180] ATTITUDE_TARGET
[02:17:55.442721] [181] VFR_HUD
[02:17:56.018534] [182] HEARTBEAT
[02:17:56.280555] [183] VFR_HUD
[02:17:57.060434] [184] HEARTBEAT
[02:17:57.067397] [185] SYS_STATUS
[02:17:57.181392] [186] BATTERY_STATUS
[02:17:57.299442] [187] ATTITUDE_TARGET
[02:17:57.304318] [188] VFR_HUD
[02:17:57.867368] [189] VFR_HUD
[02:17:58.088376] [190] HEARTBEAT
[02:17:58.662352] [191] VFR_HUD
[02:17:59.021237] [192] HEARTBEAT
[02:17:59.029255] [193] ATTITUDE_TARGET
[02:17:59.472158] [194] VFR_HUD
[02:18:00.038146] [195] HEARTBEAT
[02:18:00.272100] [196] VFR_HUD
[02:18:01.089093] [197] HEARTBEAT
[02:18:01.096036] [198] SYS_STATUS
[02:18:01.215224] [199] BATTERY_STATUS
[02:18:01.223150] [200] ATTITUDE_TARGET
[02:18:01.253104] [201] VFR_HUD
[02:18:01.882065] [202] VFR_HUD
[02:18:02.003010] [203] HEARTBEAT
[02:18:02.691860] [204] VFR_HUD
[02:18:03.040998] [205] HEARTBEAT
[02:18:03.048892] [206] ATTITUDE_TARGET
[02:18:03.491780] [207] VFR_HUD
[02:18:04.072749] [208] HEARTBEAT
[02:18:04.411709] [209] VFR_HUD
[02:18:05.004676] [210] HEARTBEAT
[02:18:05.010652] [211] SYS_STATUS
[02:18:05.050660] [212] BATTERY_STATUS
[02:18:05.058709] [213] ATTITUDE_TARGET
[02:18:05.063672] [214] VFR_HUD
[02:18:06.027610] [215] VFR_HUD
[02:18:06.030463] [216] HEARTBEAT
[02:18:06.606399] [217] VFR_HUD
[02:18:07.075405] [218] HEARTBEAT
[02:18:07.083458] [219] ATTITUDE_TARGET
[02:18:07.401412] [220] VFR_HUD
[02:18:08.087327] [221] HEARTBEAT
[02:18:08.211289] [222] VFR_HUD
[02:18:09.019269] [223] HEARTBEAT
[02:18:09.026206] [224] SYS_STATUS
[02:18:09.148205] [225] BATTERY_STATUS
[02:18:09.150129] [226] EXTENDED_SYS_STATE
[02:18:09.182254] [227] ATTITUDE_TARGET
[02:18:09.187130] [228] VFR_HUD
[02:18:09.191083] [229] SYSTEM_TIME
[02:18:09.821087] [230] VFR_HUD
[02:18:10.052112] [231] HEARTBEAT
[02:18:10.621011] [232] VFR_HUD
[02:18:11.090093] [233] HEARTBEAT
[02:18:11.098028] [234] ATTITUDE_TARGET
[02:18:11.430938] [235] VFR_HUD
[02:18:11.996888] [236] HEARTBEAT
[02:18:12.230833] [237] VFR_HUD
[02:18:13.048763] [238] HEARTBEAT
[02:18:13.055718] [239] SYS_STATUS
[02:18:13.173706] [240] BATTERY_STATUS
[02:18:13.181660] [241] ATTITUDE_TARGET
[02:18:13.211736] [242] VFR_HUD
[02:18:13.841730] [243] VFR_HUD
[02:18:14.066645] [244] HEARTBEAT
[02:18:14.656567] [245] VFR_HUD
[02:18:14.986508] [246] HEARTBEAT
[02:18:15.124483] [247] ATTITUDE_TARGET
[02:18:15.450558] [248] VFR_HUD
[02:18:16.026555] [249] HEARTBEAT
[02:18:16.266372] [250] VFR_HUD
[02:18:17.068321] [251] HEARTBEAT
[02:18:17.075422] [252] SYS_STATUS
[02:18:17.195305] [253] BATTERY_STATUS
[02:18:17.307325] [254] ATTITUDE_TARGET
[02:18:17.312976] [255] VFR_HUD
[02:18:17.876208] [0] VFR_HUD
[02:18:17.987287] [1] HEARTBEAT
[02:18:18.670240] [2] VFR_HUD
[02:18:19.029115] [3] HEARTBEAT
[02:18:19.037091] [4] ATTITUDE_TARGET
[02:18:19.480130] [5] VFR_HUD
[02:18:20.046163] [6] HEARTBEAT
[02:18:20.279931] [7] VFR_HUD
[02:18:21.097985] [8] HEARTBEAT
[02:18:21.104861] [9] SYS_STATUS
[02:18:21.222791] [10] BATTERY_STATUS
[02:18:21.230821] [11] ATTITUDE_TARGET
[02:18:21.260844] [12] VFR_HUD
[02:18:21.890791] [13] VFR_HUD
[02:18:22.005774] [14] HEARTBEAT
[02:18:22.700628] [15] VFR_HUD
[02:18:23.049761] [16] HEARTBEAT
[02:18:23.057723] [17] ATTITUDE_TARGET
[02:18:23.417658] [18] VFR_HUD
[02:18:23.641404] JAMMING_START
[02:18:24.075658] [19] HEARTBEAT
[02:18:24.315832] [20] VFR_HUD
[02:18:25.013820] [21] HEARTBEAT
[02:18:25.019521] [22] SYS_STATUS
[02:18:25.059491] [23] BATTERY_STATUS
[02:18:25.067520] [24] ATTITUDE_TARGET
[02:18:25.071471] [25] VFR_HUD
[02:18:25.800481] [26] VFR_HUD
[02:18:26.025368] [27] HEARTBEAT
[02:18:26.610450] [28] VFR_HUD
[02:18:27.084268] [29] HEARTBEAT
[02:18:27.092240] [30] ATTITUDE_TARGET
[02:18:27.410311] [31] VFR_HUD
[02:18:35.014582] [57] HEARTBEAT
[02:18:35.022549] [58] ATTITUDE_TARGET
[02:19:14.147719] JAMMING_STOP
[02:19:15.059628] [191] HEARTBEAT
[02:19:15.067514] [192] ATTITUDE_TARGET
[02:19:15.405496] [193] VFR_HUD
[02:19:16.091312] [194] HEARTBEAT
[02:19:16.200405] [195] VFR_HUD
[02:19:17.023174] [196] HEARTBEAT
[02:19:17.030150] [197] SYS_STATUS
[02:19:17.069346] [198] BATTERY_STATUS
[02:19:17.077151] [199] ATTITUDE_TARGET
[02:19:17.082100] [200] VFR_HUD
[02:19:18.046104] [201] VFR_HUD
[02:19:18.049069] [202] HEARTBEAT
[02:19:18.647974] [203] VFR_HUD
[02:19:19.093971] [204] HEARTBEAT
[02:19:19.102109] [205] ATTITUDE_TARGET
[02:19:19.420052] [206] VFR_HUD
[02:19:20.000032] [207] HEARTBEAT
[02:19:20.229903] [208] VFR_HUD
[02:19:21.036762] [209] HEARTBEAT
[02:19:21.043834] [210] SYS_STATUS
[02:19:21.163720] [211] BATTERY_STATUS
[02:19:21.276710] [212] ATTITUDE_TARGET
[02:19:21.280788] [213] VFR_HUD
[02:19:21.839610] [214] VFR_HUD
[02:19:22.070757] [215] HEARTBEAT
[02:19:22.639563] [216] VFR_HUD
[02:19:23.109541] [217] HEARTBEAT
[02:19:23.116489] [218] ATTITUDE_TARGET
[02:19:23.449537] [219] VFR_HUD
[02:19:24.015450] [220] HEARTBEAT
[02:19:24.249516] [221] VFR_HUD
[02:19:25.067457] [222] HEARTBEAT
[02:19:25.073336] [223] SYS_STATUS
[02:19:25.192344] [224] BATTERY_STATUS
[02:19:25.200328] [225] ATTITUDE_TARGET
[02:19:25.230404] [226] VFR_HUD
[02:19:25.859292] [227] VFR_HUD
[02:19:26.085279] [228] HEARTBEAT
[02:19:26.697197] [229] VFR_HUD
[02:19:27.019313] [230] HEARTBEAT
[02:19:27.027141] [231] ATTITUDE_TARGET
[02:19:27.469235] [232] VFR_HUD
[02:19:28.045120] [233] HEARTBEAT
[02:19:28.285119] [234] VFR_HUD
[02:19:29.087048] [235] HEARTBEAT
[02:19:29.094078] [236] SYS_STATUS
[02:19:29.217106] [237] BATTERY_STATUS
[02:19:29.217955] [238] EXTENDED_SYS_STATE
[02:19:29.250988] [239] ATTITUDE_TARGET
[02:19:29.254920] [240] VFR_HUD
[02:19:29.258921] [241] SYSTEM_TIME
[02:19:29.894988] [242] VFR_HUD
[02:19:30.006004] [243] HEARTBEAT
[02:19:30.689846] [244] VFR_HUD
[02:19:31.048928] [245] HEARTBEAT
[02:19:31.056762] [246] ATTITUDE_TARGET
[02:19:31.498867] [247] VFR_HUD
[02:19:32.064808] [248] HEARTBEAT
[02:19:32.189659] [249] VFR_HUD
[02:19:32.984607] [250] HEARTBEAT
[02:19:33.004709] [251] SYS_STATUS
[02:19:33.053647] [252] BATTERY_STATUS
[02:19:33.060579] [253] ATTITUDE_TARGET
[02:19:33.065527] [254] VFR_HUD
[02:19:33.863465] [255] VFR_HUD
[02:19:34.026597] [0] HEARTBEAT
[02:19:34.600439] [1] VFR_HUD
[02:19:35.070512] [2] HEARTBEAT
[02:19:35.077380] [3] ATTITUDE_TARGET
[02:19:35.416413] [4] VFR_HUD
[02:19:36.096363] [5] HEARTBEAT
[02:19:36.210230] [6] VFR_HUD
[02:19:37.033311] [7] HEARTBEAT
[02:19:37.040167] [8] SYS_STATUS
[02:19:37.079152] [9] BATTERY_STATUS
[02:19:37.087137] [10] ATTITUDE_TARGET
[02:19:37.092153] [11] VFR_HUD
[02:19:38.056209] [12] VFR_HUD
[02:19:38.059105] [13] HEARTBEAT
[02:19:38.630002] [14] VFR_HUD
[02:19:39.105002] [15] HEARTBEAT
[02:19:39.113017] [16] ATTITUDE_TARGET
[02:19:39.430026] [17] VFR_HUD
[02:19:40.010881] [18] HEARTBEAT
[02:19:40.239851] [19] VFR_HUD
[02:19:41.047783] [20] HEARTBEAT
[02:19:41.053769] [21] SYS_STATUS
[02:19:41.173743] [22] BATTERY_STATUS
[02:19:41.286775] [23] ATTITUDE_TARGET
[02:19:41.291695] [24] VFR_HUD
[02:19:41.959710] [25] VFR_HUD
[02:19:42.080738] [26] HEARTBEAT
[02:19:42.649702] [27] VFR_HUD
[02:19:43.013681] [28] HEARTBEAT
[02:19:43.021560] [29] ATTITUDE_TARGET
[02:19:43.459545] [30] VFR_HUD
[02:19:44.025573] [31] HEARTBEAT
[02:19:44.259509] [32] VFR_HUD
[02:19:45.082444] [33] HEARTBEAT
[02:19:45.089381] [34] SYS_STATUS
[02:19:45.128432] [35] BATTERY_STATUS
[02:19:45.136399] [36] ATTITUDE_TARGET
[02:19:45.141348] [37] VFR_HUD
[02:19:45.989424] [38] VFR_HUD
[02:19:46.013288] [39] HEARTBEAT
[02:19:46.685218] [40] VFR_HUD
[02:19:47.029244] [41] HEARTBEAT
[02:19:47.036243] [42] ATTITUDE_TARGET
[02:19:47.479254] [43] VFR_HUD
[02:19:48.055195] [44] HEARTBEAT
[02:19:48.294136] [45] VFR_HUD
[02:19:49.096176] [46] HEARTBEAT
[02:19:49.103077] [47] SYS_STATUS
[02:19:49.225944] [48] BATTERY_STATUS
[02:19:49.227915] [49] EXTENDED_SYS_STATE
[02:19:49.259893] [50] ATTITUDE_TARGET
[02:19:49.264875] [51] VFR_HUD
[02:19:49.268857] [52] SYSTEM_TIME
[02:19:49.927964] [53] VFR_HUD
[02:19:50.003936] [54] HEARTBEAT
[02:19:50.698725] [55] VFR_HUD
[02:19:51.062763] [56] HEARTBEAT
[02:19:51.070702] [57] ATTITUDE_TARGET
[02:19:51.393705] [58] VFR_HUD
[02:19:52.073732] [59] HEARTBEAT
[02:19:52.203703] [60] VFR_HUD
[02:19:53.005682] [61] HEARTBEAT
[02:19:53.012731] [62] SYS_STATUS
[02:19:53.127555] [63] BATTERY_STATUS
[02:19:53.244528] [64] ATTITUDE_TARGET
[02:19:53.249481] [65] VFR_HUD
[02:19:53.813578] [66] VFR_HUD
[02:19:54.033571] [67] HEARTBEAT
[02:19:54.608486] [68] VFR_HUD
[02:19:55.077335] [69] HEARTBEAT
[02:19:55.085483] [70] ATTITUDE_TARGET
[02:19:55.423317] [71] VFR_HUD
[02:19:55.989384] [72] HEARTBEAT
[02:19:56.218336] [73] VFR_HUD
[02:19:57.035141] [74] HEARTBEAT
[02:19:57.042094] [75] SYS_STATUS
[02:19:57.161116] [76] BATTERY_STATUS
[02:19:57.168168] [77] ATTITUDE_TARGET
[02:19:57.199227] [78] VFR_HUD
[02:19:57.828141] [79] VFR_HUD
[02:19:58.053061] [80] HEARTBEAT
[02:19:58.638707] [81] VFR_HUD
[02:19:59.106987] [82] HEARTBEAT
[02:19:59.113921] [83] ATTITUDE_TARGET
[02:19:59.437875] [84] VFR_HUD
[02:20:00.018259] [85] HEARTBEAT
[02:20:00.246866] [86] VFR_HUD
[02:20:01.054795] [87] HEARTBEAT
[02:20:01.061738] [88] SYS_STATUS
[02:20:01.176644] [89] BATTERY_STATUS
[02:20:01.293738] [90] ATTITUDE_TARGET
[02:20:01.298593] [91] VFR_HUD
[02:20:01.966573] [92] VFR_HUD
[02:20:01.985561] [93] HEARTBEAT
[02:20:02.656460] [94] VFR_HUD
[02:20:03.021623] [95] HEARTBEAT
[02:20:03.028452] [96] ATTITUDE_TARGET
[02:20:03.472409] [97] VFR_HUD
[02:20:04.032449] [98] HEARTBEAT
[02:20:04.266337] [99] VFR_HUD
[02:20:05.089351] [100] HEARTBEAT
[02:20:05.096275] [101] SYS_STATUS
[02:20:05.136338] [102] BATTERY_STATUS
[02:20:05.143218] [103] ATTITUDE_TARGET
[02:20:05.148258] [104] VFR_HUD
[02:20:06.112224] [105] VFR_HUD
[02:20:06.115151] [106] HEARTBEAT
[02:20:06.692024] [107] VFR_HUD
[02:20:07.035984] [108] HEARTBEAT
[02:20:07.042998] [109] ATTITUDE_TARGET
[02:20:07.486093] [110] VFR_HUD
[02:20:08.067051] [111] HEARTBEAT
[02:20:08.295930] [112] VFR_HUD
[02:20:09.103797] [113] HEARTBEAT
[02:20:09.110832] [114] SYS_STATUS
[02:20:09.232763] [115] BATTERY_STATUS
[02:20:09.234717] [116] EXTENDED_SYS_STATE
[02:20:09.266781] [117] ATTITUDE_TARGET
[02:20:09.271744] [118] VFR_HUD
[02:20:09.275720] [119] SYSTEM_TIME
[02:20:09.785648] [120] VFR_HUD
[02:20:10.011687] [121] HEARTBEAT
[02:20:10.595586] [122] VFR_HUD
[02:20:11.064571] [123] HEARTBEAT
[02:20:11.072603] [124] ATTITUDE_TARGET
[02:20:11.395609] [125] VFR_HUD
[02:20:12.081504] [126] HEARTBEAT
[02:20:12.210540] [127] VFR_HUD
[02:20:13.013487] [128] HEARTBEAT
[02:20:13.020384] [129] SYS_STATUS
[02:20:13.134372] [130] BATTERY_STATUS
[02:20:13.252322] [131] ATTITUDE_TARGET
[02:20:13.257318] [132] VFR_HUD
[02:20:13.820269] [133] VFR_HUD
[02:20:14.041394] [134] HEARTBEAT
[02:20:14.615206] [135] VFR_HUD
[02:20:15.085195] [136] HEARTBEAT
[02:20:15.092144] [137] ATTITUDE_TARGET
[02:20:15.430147] [138] VFR_HUD
[02:20:15.991044] [139] HEARTBEAT
[02:20:16.225016] [140] VFR_HUD
[02:20:17.152962] [141] HEARTBEAT
[02:20:17.159945] [142] SYS_STATUS
[02:20:17.280033] [143] BATTERY_STATUS
[02:20:17.392031] [144] ATTITUDE_TARGET
[02:20:17.396986] [145] VFR_HUD
[02:20:17.834947] [146] VFR_HUD
[02:20:18.060975] [147] HEARTBEAT
[02:20:18.644880] [148] VFR_HUD
[02:20:18.985764] [149] HEARTBEAT
[02:20:19.007868] [150] ATTITUDE_TARGET
[02:20:19.444788] [151] VFR_HUD
[02:20:20.048806] [152] HEARTBEAT
[02:20:20.254652] [153] VFR_HUD
[02:20:21.062591] [154] HEARTBEAT
[02:20:21.069624] [155] SYS_STATUS
[02:20:21.183630] [156] BATTERY_STATUS
[02:20:21.301530] [157] ATTITUDE_TARGET
[02:20:21.306483] [158] VFR_HUD
[02:20:21.870456] [159] VFR_HUD
[02:20:21.981559] [160] HEARTBEAT
[02:20:22.665305] [161] VFR_HUD
[02:20:23.052296] [162] HEARTBEAT
[02:20:23.060294] [163] ATTITUDE_TARGET
[02:20:23.480250] [164] VFR_HUD
[02:20:24.040347] [165] HEARTBEAT
[02:20:24.275188] [166] VFR_HUD
[02:20:25.097262] [167] HEARTBEAT
[02:20:25.104113] [168] SYS_STATUS
[02:20:25.144183] [169] BATTERY_STATUS
[02:20:25.151219] [170] ATTITUDE_TARGET
[02:20:25.156205] [171] VFR_HUD
[02:20:26.037929] [172] VFR_HUD
[02:20:26.040998] [173] HEARTBEAT
[02:20:26.695054] [174] VFR_HUD
[02:20:27.043866] [175] HEARTBEAT
[02:20:27.051940] [176] ATTITUDE_TARGET
[02:20:27.494775] [177] VFR_HUD
[02:20:28.097795] [178] HEARTBEAT
[02:20:28.304673] [179] VFR_HUD
[02:20:29.047690] [180] HEARTBEAT
[02:20:29.053630] [181] SYS_STATUS
[02:20:29.061620] [182] BATTERY_STATUS
[02:20:29.063561] [183] EXTENDED_SYS_STATE
[02:20:29.080612] [184] ATTITUDE_TARGET
[02:20:29.084735] [185] VFR_HUD
[02:20:29.088685] [186] SYSTEM_TIME
[02:20:29.799668] [187] VFR_HUD
[02:20:30.019597] [188] HEARTBEAT
[02:20:30.609461] [189] VFR_HUD
[02:20:31.100547] [190] HEARTBEAT
[02:20:31.108488] [191] ATTITUDE_TARGET
[02:20:31.404388] [192] VFR_HUD
[02:20:31.979253] [193] HEARTBEAT
[02:20:32.219313] [194] VFR_HUD
[02:20:33.021292] [195] HEARTBEAT
[02:20:33.028124] [196] SYS_STATUS
[02:20:33.148183] [197] BATTERY_STATUS
[02:20:33.260163] [198] ATTITUDE_TARGET
[02:20:33.265125] [199] VFR_HUD
[02:20:33.829142] [200] VFR_HUD
[02:20:34.159053] [201] HEARTBEAT
[02:20:34.623107] [202] VFR_HUD
