[22:12:40.861575] [247] VFR_HUD
[22:12:40.971677] [226] RADIO
[22:12:40.974500] [226] RADIO_STATUS
[22:12:41.197695] [248] HEARTBEAT
[22:12:41.219482] [249] ATTITUDE_TARGET
[22:12:41.661572] [250] VFR_HUD
[22:12:41.891512] [227] RADIO
[22:12:41.893952] [227] RADIO_STATUS
[22:12:42.242663] [251] HEARTBEAT
[22:12:42.471620] [252] VFR_HUD
[22:12:42.920721] [228] RADIO
[22:12:42.923833] [228] RADIO_STATUS
[22:12:43.278730] [253] HEARTBEAT
[22:12:43.285735] [254] SYS_STATUS
[22:12:43.400740] [255] BATTERY_STATUS
[22:12:43.517993] [0] ATTITUDE_TARGET
[22:12:43.522757] [1] VFR_HUD
[22:12:43.960852] [229] RADIO
[22:12:43.963754] [229] RADIO_STATUS
[22:12:44.086927] [2] VFR_HUD
[22:12:44.203884] [3] HEARTBEAT
[22:12:44.881887] [4] VFR_HUD
[22:12:44.913954] [230] RADIO
[22:12:44.917038] [230] RADIO_STATUS
[22:12:45.245964] [5] HEARTBEAT
[22:12:45.253905] [6] ATTITUDE_TARGET
[22:12:45.697107] [7] VFR_HUD
[22:12:45.910943] [231] RADIO
[22:12:45.912950] [231] RADIO_STATUS
[22:12:46.257132] [8] HEARTBEAT
[22:12:46.491073] [9] VFR_HUD
[22:12:46.955064] [232] RADIO
[22:12:46.958122] [232] RADIO_STATUS
[22:12:47.314214] [10] HEARTBEAT
[22:12:47.320119] [11] SYS_STATUS
[22:12:47.355065] [12] BATTERY_STATUS
[22:12:47.356011] [13] EXTENDED_SYS_STATE
[22:12:47.364125] [14] ATTITUDE_TARGET
[22:12:47.369050] [15] VFR_HUD
[22:12:47.372114] [16] SYSTEM_TIME
[22:12:47.980176] [233] RADIO
[22:12:47.983138] [233] RADIO_STATUS
[22:12:48.101140] [17] VFR_HUD
[22:12:48.221214] [18] HEARTBEAT
[22:12:48.899297] [234] RADIO
[22:12:48.902243] [234] RADIO_STATUS
[22:12:49.020311] [19] VFR_HUD
[22:12:49.260314] [20] HEARTBEAT
[22:12:49.267293] [21] ATTITUDE_TARGET
[22:12:49.710422] [22] VFR_HUD
[22:12:49.944457] [235] RADIO
[22:12:49.947369] [235] RADIO_STATUS
[22:12:50.290421] [23] HEARTBEAT
[22:12:50.400566] [24] VFR_HUD
[22:12:50.969637] [236] RADIO
[22:12:50.972481] [236] RADIO_STATUS
[22:12:51.217543] [25] HEARTBEAT
[22:12:51.224598] [26] SYS_STATUS
[22:12:51.342636] [27] BATTERY_STATUS
[22:12:51.350541] [28] ATTITUDE_TARGET
[22:12:51.380553] [29] VFR_HUD
[22:12:52.009774] [30] VFR_HUD
[22:12:52.042787] [237] RADIO
[22:12:52.044700] [237] RADIO_STATUS
[22:12:52.235792] [31] HEARTBEAT
[22:12:52.824791] [32] VFR_HUD
[22:12:52.945725] [238] RADIO
[22:12:52.948665] [238] RADIO_STATUS
[22:12:53.294093] [33] HEARTBEAT
[22:12:53.301880] [34] ATTITUDE_TARGET
[22:12:53.619846] [35] VFR_HUD
[22:12:53.959047] [239] RADIO
[22:12:53.961896] [239] RADIO_STATUS
[22:12:54.305018] [36] HEARTBEAT
[22:12:54.434880] [37] VFR_HUD
[22:12:55.004143] [240] RADIO
[22:12:55.007141] [240] RADIO_STATUS
[22:12:55.237083] [38] HEARTBEAT
[22:12:55.244026] [39] SYS_STATUS
[22:12:55.364096] [40] BATTERY_STATUS
[22:12:55.476065] [41] ATTITUDE_TARGET
[22:12:55.481017] [42] VFR_HUD
[22:12:56.029171] [241] RADIO
[22:12:56.032208] [241] RADIO_STATUS
[22:12:56.067094] [43] VFR_HUD
[22:12:56.265224] [44] HEARTBEAT
[22:12:56.839319] [45] VFR_HUD
[22:12:56.948308] [242] RADIO
[22:12:56.951170] [242] RADIO_STATUS
[22:12:57.308529] [46] HEARTBEAT
[22:12:57.316461] [47] ATTITUDE_TARGET
[22:12:57.649397] [48] VFR_HUD
[22:12:57.988435] [243] RADIO
[22:12:57.991386] [243] RADIO_STATUS
[22:12:58.214587] [49] HEARTBEAT
[22:12:58.449440] [50] VFR_HUD
[22:12:59.018620] [244] RADIO
[22:12:59.021424] [244] RADIO_STATUS
[22:12:59.266565] [51] HEARTBEAT
[22:12:59.272510] [52] SYS_STATUS
[22:12:59.391660] [53] BATTERY_STATUS
[22:12:59.399739] [54] ATTITUDE_TARGET
[22:12:59.429614] [55] VFR_HUD
[22:12:59.937669] [245] RADIO
[22:12:59.940540] [245] RADIO_STATUS
[22:13:00.058571] [56] VFR_HUD
[22:13:00.283734] [57] HEARTBEAT
[22:13:00.868810] [58] VFR_HUD
[22:13:00.977776] [246] RADIO
[22:13:00.980776] [246] RADIO_STATUS
[22:13:01.217774] [59] HEARTBEAT
[22:13:01.224808] [60] ATTITUDE_TARGET
[22:13:01.667789] [61] VFR_HUD
[22:13:02.006847] [247] RADIO
[22:13:02.009808] [247] RADIO_STATUS
[22:13:02.243898] [62] HEARTBEAT
[22:13:02.482999] [63] VFR_HUD
[22:13:03.046947] [248] RADIO
[22:13:03.049913] [248] RADIO_STATUS
[22:13:03.285072] [64] HEARTBEAT
[22:13:03.291941] [65] SYS_STATUS
[22:13:03.406942] [66] BATTERY_STATUS
[22:13:03.523953] [67] ATTITUDE_TARGET
[22:13:03.528913] [68] VFR_HUD
[22:13:03.966951] [249] RADIO
[22:13:03.969909] [249] RADIO_STATUS
[22:13:04.093089] [69] VFR_HUD
[22:13:04.204051] [70] HEARTBEAT
[22:13:04.887077] [71] VFR_HUD
[22:13:04.996033] [250] RADIO
[22:13:04.999027] [250] RADIO_STATUS
[22:13:05.246121] [72] HEARTBEAT
[22:13:05.254076] [73] ATTITUDE_TARGET
[22:13:05.702137] [74] VFR_HUD
[22:13:06.036283] [251] RADIO
[22:13:06.039139] [251] RADIO_STATUS
[22:13:06.262227] [75] HEARTBEAT
[22:13:06.497212] [76] VFR_HUD
[22:13:07.066343] [252] RADIO
[22:13:07.069300] [252] RADIO_STATUS
[22:13:07.314323] [77] HEARTBEAT
[22:13:07.321316] [78] SYS_STATUS
[22:13:07.442412] [79] BATTERY_STATUS
[22:13:07.444215] [80] EXTENDED_SYS_STATE
[22:13:07.452419] [81] ATTITUDE_TARGET
[22:13:07.457262] [82] VFR_HUD
[22:13:07.460346] [83] SYSTEM_TIME
[22:13:07.985658] [253] RADIO
[22:13:07.988366] [253] RADIO_STATUS
[22:13:08.106464] [84] VFR_HUD
[22:13:08.227525] [85] HEARTBEAT
[22:13:08.801469] [86] VFR_HUD
[22:13:09.025584] [254] RADIO
[22:13:09.028629] [254] RADIO_STATUS
[22:13:09.265813] [87] HEARTBEAT
[22:13:09.273678] [88] ATTITUDE_TARGET
[22:13:09.605661] [89] VFR_HUD
[22:13:10.055554] [255] RADIO
[22:13:10.058517] [255] RADIO_STATUS
[22:13:10.296663] [90] HEARTBEAT
[22:13:10.411770] [91] VFR_HUD
[22:13:11.094870] [0] RADIO
[22:13:11.097733] [0] RADIO_STATUS
[22:13:11.228774] [92] HEARTBEAT
[22:13:11.235727] [93] SYS_STATUS
[22:13:11.274785] [94] BATTERY_STATUS
[22:13:11.282771] [95] ATTITUDE_TARGET
[22:13:11.287734] [96] VFR_HUD
[22:13:12.019763] [1] RADIO
[22:13:12.022844] [1] RADIO_STATUS
[22:13:12.250882] [97] VFR_HUD
[22:13:12.253849] [98] HEARTBEAT
[22:13:12.830028] [99] VFR_HUD
[22:13:13.043882] [2] RADIO
[22:13:13.046859] [2] RADIO_STATUS
[22:13:13.299056] [100] HEARTBEAT
[22:13:13.307040] [101] ATTITUDE_TARGET
[22:13:13.625078] [102] VFR_HUD
[22:13:14.088982] [3] RADIO
[22:13:14.091996] [3] RADIO_STATUS
[22:13:14.200052] [103] HEARTBEAT
[22:13:14.440174] [104] VFR_HUD
[22:13:15.114222] [4] RADIO
[22:13:15.117182] [4] RADIO_STATUS
[22:13:15.242216] [105] HEARTBEAT
[22:13:15.248229] [106] SYS_STATUS
[22:13:15.368134] [107] BATTERY_STATUS
[22:13:15.481192] [108] ATTITUDE_TARGET
[22:13:15.486108] [109] VFR_HUD
[22:13:16.033270] [5] RADIO
[22:13:16.036239] [5] RADIO_STATUS
[22:13:16.154220] [110] VFR_HUD
[22:13:16.269219] [111] HEARTBEAT
[22:13:16.844391] [112] VFR_HUD
[22:13:17.078314] [6] RADIO
[22:13:17.081286] [6] RADIO_STATUS
[22:13:17.313777] [113] HEARTBEAT
[22:13:17.321314] [114] ATTITUDE_TARGET
[22:13:17.653419] [115] VFR_HUD
[22:13:18.102537] [7] RADIO
[22:13:18.105440] [7] RADIO_STATUS
[22:13:18.219535] [116] HEARTBEAT
[22:13:18.453508] [117] VFR_HUD
[22:13:19.147575] [8] RADIO
[22:13:19.150595] [8] RADIO_STATUS
[22:13:19.270685] [118] HEARTBEAT
[22:13:19.277620] [119] SYS_STATUS
[22:13:19.395798] [120] BATTERY_STATUS
[22:13:19.403778] [121] ATTITUDE_TARGET
[22:13:19.433630] [122] VFR_HUD
[22:13:20.062763] [123] VFR_HUD
[22:13:20.094727] [9] RADIO
[22:13:20.097697] [9] RADIO_STATUS
[22:13:20.287739] [124] HEARTBEAT
[22:13:20.872742] [125] VFR_HUD
[22:13:21.091777] [10] RADIO
[22:13:21.094700] [10] RADIO_STATUS
[22:13:21.221784] [126] HEARTBEAT
[22:13:21.229769] [127] ATTITUDE_TARGET
[22:13:21.673015] [128] VFR_HUD
[22:13:22.136972] [11] RADIO
[22:13:22.139879] [11] RADIO_STATUS
[22:13:22.248001] [129] HEARTBEAT
[22:13:22.487993] [130] VFR_HUD
[22:13:23.051126] [12] RADIO
[22:13:23.054158] [12] RADIO_STATUS
[22:13:23.290168] [131] HEARTBEAT
[22:13:23.296167] [132] SYS_STATUS
[22:13:23.411355] [133] BATTERY_STATUS
[22:13:23.529159] [134] ATTITUDE_TARGET
[22:13:23.534060] [135] VFR_HUD
[22:13:24.081194] [13] RADIO
[22:13:24.084197] [13] RADIO_STATUS
[22:13:24.120169] [136] VFR_HUD
[22:13:24.197257] [137] HEARTBEAT
[22:13:24.892299] [138] VFR_HUD
[22:13:25.121288] [14] RADIO
[22:13:25.124247] [14] RADIO_STATUS
[22:13:25.251402] [139] HEARTBEAT
[22:13:25.259489] [140] ATTITUDE_TARGET
[22:13:25.707420] [141] VFR_HUD
[22:13:26.150497] [15] RADIO
[22:13:26.153364] [15] RADIO_STATUS
[22:13:26.268140] [142] HEARTBEAT
[22:13:26.501532] [143] VFR_HUD
[22:13:27.070555] [16] RADIO
[22:13:27.073472] [16] RADIO_STATUS
[22:13:27.318518] [144] HEARTBEAT
[22:13:27.325508] [145] SYS_STATUS
[22:13:27.447659] [146] BATTERY_STATUS
[22:13:27.448484] [147] EXTENDED_SYS_STATE
[22:13:27.456547] [148] ATTITUDE_TARGET
[22:13:27.461579] [149] VFR_HUD
[22:13:27.465493] [150] SYSTEM_TIME
[22:13:28.000642] [151] VFR_HUD
[22:13:28.110680] [17] RADIO
[22:13:28.113757] [17] RADIO_STATUS
[22:13:28.231710] [152] HEARTBEAT
[22:13:28.800754] [153] VFR_HUD
[22:13:29.139764] [18] RADIO
[22:13:29.142773] [18] RADIO_STATUS
[22:13:29.269839] [154] HEARTBEAT
[22:13:29.277717] [155] ATTITUDE_TARGET
[22:13:29.615782] [156] VFR_HUD
[22:13:30.179852] [19] RADIO
[22:13:30.182820] [19] RADIO_STATUS
[22:13:30.301113] [157] HEARTBEAT
[22:13:30.409939] [158] VFR_HUD
[22:13:31.099958] [20] RADIO
[22:13:31.101919] [20] RADIO_STATUS
[22:13:31.233160] [159] HEARTBEAT
[22:13:31.239961] [160] SYS_STATUS
[22:13:31.279225] [161] BATTERY_STATUS
[22:13:31.287062] [162] ATTITUDE_TARGET
[22:13:31.292023] [163] VFR_HUD
[22:13:32.129086] [21] RADIO
[22:13:32.132031] [21] RADIO_STATUS
[22:13:32.208090] [164] VFR_HUD
[22:13:32.211090] [165] HEARTBEAT
[22:13:32.834220] [166] VFR_HUD
[22:13:33.278198] [22] RADIO
[22:13:33.281122] [22] RADIO_STATUS
[22:13:33.326233] [167] HEARTBEAT
[22:13:33.333249] [168] ATTITUDE_TARGET
[22:13:33.628422] [169] VFR_HUD
[22:13:34.197424] [23] RADIO
[22:13:34.200336] [23] RADIO_STATUS
[22:13:34.438397] [171] VFR_HUD
[22:13:35.246501] [172] HEARTBEAT
[22:13:35.252495] [173] SYS_STATUS
[22:13:36.048601] [177] VFR_HUD
[22:13:36.267607] [24] RADIO
[22:13:36.270652] [24] RADIO_STATUS
[22:13:36.301671] [178] HEARTBEAT
[22:13:37.186849] [25] RADIO
[22:13:37.189707] [25] RADIO_STATUS
[22:13:37.441798] [180] HEARTBEAT
[22:13:37.449853] [181] ATTITUDE_TARGET
[22:13:38.222924] [183] HEARTBEAT
[22:13:38.336851] [26] RADIO
[22:13:38.339799] [26] RADIO_STATUS
[22:13:39.255930] [27] RADIO
[22:13:39.258930] [27] RADIO_STATUS
[22:13:39.342987] [188] ATTITUDE_TARGET
[22:13:39.347964] [189] VFR_HUD
[22:13:40.176002] [28] RADIO
[22:13:40.179015] [28] RADIO_STATUS
[22:13:40.820447] JAMMING_START
[22:13:40.882160] [192] VFR_HUD
[22:13:41.326150] [29] RADIO
[22:13:41.329200] [29] RADIO_STATUS
[22:13:41.373183] [193] HEARTBEAT
[22:13:41.381192] [194] ATTITUDE_TARGET
[22:13:41.676220] [195] VFR_HUD
[22:13:42.245212] [30] RADIO
[22:13:42.248129] [30] RADIO_STATUS
[22:13:42.491287] [197] VFR_HUD
[22:13:43.293379] [198] HEARTBEAT
[22:13:43.300349] [199] SYS_STATUS
[22:13:43.395367] [31] RADIO
[22:13:43.398334] [31] RADIO_STATUS
[22:13:44.314419] [32] RADIO
[22:13:44.317387] [32] RADIO_STATUS
[22:13:44.440433] [203] VFR_HUD
[22:13:44.443392] [204] HEARTBEAT
[22:13:45.234473] [33] RADIO
[22:13:45.237451] [33] RADIO_STATUS
[22:13:45.488553] [206] HEARTBEAT
[22:13:45.496536] [207] ATTITUDE_TARGET
[22:13:46.270750] [209] HEARTBEAT
[22:13:46.301597] [34] RADIO
[22:13:46.304663] [34] RADIO_STATUS
[22:13:47.265783] [216] VFR_HUD
[22:13:47.268701] [217] SYSTEM_TIME
[22:13:47.303733] [35] RADIO
[22:13:47.306941] [35] RADIO_STATUS
[22:13:48.223790] [36] RADIO
[22:13:48.226702] [36] RADIO_STATUS
[22:13:49.373903] [37] RADIO
[22:13:49.376885] [37] RADIO_STATUS
[22:13:49.619020] [223] VFR_HUD
[22:13:50.293146] [38] RADIO
[22:13:50.296141] [38] RADIO_STATUS
[22:13:50.543259] [224] HEARTBEAT
[22:13:50.547283] [225] VFR_HUD
[22:13:51.213295] [39] RADIO
[22:13:51.216148] [39] RADIO_STATUS
[22:13:51.272295] [226] HEARTBEAT
[22:13:51.279317] [227] SYS_STATUS
[22:13:51.287337] [228] BATTERY_STATUS
[22:13:51.299221] [229] ATTITUDE_TARGET
[22:13:51.304183] [230] VFR_HUD
[22:13:52.023320] [231] VFR_HUD
[22:13:52.362256] [40] RADIO
[22:13:52.365317] [40] RADIO_STATUS
[22:13:52.833358] [233] VFR_HUD
[22:13:53.282450] [41] RADIO
[22:13:53.285414] [41] RADIO_STATUS
[22:13:53.330505] [234] HEARTBEAT
[22:13:53.338334] [235] ATTITUDE_TARGET
[22:13:53.633436] [236] VFR_HUD
[22:13:54.213454] [237] HEARTBEAT
[22:13:54.327653] [42] RADIO
[22:13:54.330494] [42] RADIO_STATUS
[22:13:54.443526] [238] VFR_HUD
[22:13:55.352586] [43] RADIO
[22:13:55.355674] [43] RADIO_STATUS
[22:13:55.392905] [241] BATTERY_STATUS
[22:13:55.419595] [242] ATTITUDE_TARGET
[22:13:55.424624] [243] VFR_HUD
[22:13:56.271748] [44] RADIO
[22:13:56.274774] [44] RADIO_STATUS
[22:13:56.305779] [245] HEARTBEAT
[22:13:57.421843] [45] RADIO
[22:13:57.424816] [45] RADIO_STATUS
[22:13:57.661887] [249] VFR_HUD
[22:13:58.227999] [250] HEARTBEAT
[22:13:58.340981] [46] RADIO
[22:13:58.343925] [46] RADIO_STATUS
[22:13:59.260965] [47] RADIO
[22:13:59.264114] [47] RADIO_STATUS
[22:13:59.321178] [252] HEARTBEAT
[22:13:59.328070] [253] SYS_STATUS
[22:13:59.335016] [254] BATTERY_STATUS
[22:13:59.347306] [255] ATTITUDE_TARGET
[22:13:59.352030] [0] VFR_HUD
[22:14:00.072150] [1] VFR_HUD
[22:14:00.187369] [2] HEARTBEAT
[22:14:00.411136] [48] RADIO
[22:14:00.414106] [48] RADIO_STATUS
[22:14:00.887315] [3] VFR_HUD
[22:14:01.230281] [4] HEARTBEAT
[22:14:01.238251] [5] ATTITUDE_TARGET
[22:14:01.330225] [49] RADIO
[22:14:01.333243] [49] RADIO_STATUS
[22:14:01.681313] [6] VFR_HUD
[22:14:02.256363] [7] HEARTBEAT
[22:14:02.370414] [50] RADIO
[22:14:02.373346] [50] RADIO_STATUS
[22:14:02.496330] [8] VFR_HUD
[22:14:03.298498] [9] HEARTBEAT
[22:14:03.305500] [10] SYS_STATUS
[22:14:03.400569] [51] RADIO
[22:14:03.403438] [51] RADIO_STATUS
[22:14:03.469506] [11] BATTERY_STATUS
[22:14:03.477490] [12] ATTITUDE_TARGET
[22:14:03.482414] [13] VFR_HUD
[22:14:04.320645] [52] RADIO
[22:14:04.323487] [52] RADIO_STATUS
[22:14:04.363567] [14] VFR_HUD
[22:14:04.366683] [15] HEARTBEAT
[22:14:05.469919] [53] RADIO
[22:14:05.472760] [53] RADIO_STATUS
[22:14:05.710976] [19] VFR_HUD
[22:14:06.275828] [20] HEARTBEAT
[22:14:06.306804] [54] RADIO
[22:14:06.309896] [54] RADIO_STATUS
[22:14:07.309099] [55] RADIO
[22:14:07.311901] [55] RADIO_STATUS
[22:14:08.015006] [29] VFR_HUD
[22:14:08.236065] [30] HEARTBEAT
[22:14:08.459106] [56] RADIO
[22:14:08.462006] [56] RADIO_STATUS
[22:14:09.279255] [32] HEARTBEAT
[22:14:09.287124] [33] ATTITUDE_TARGET
[22:14:09.379108] [57] RADIO
[22:14:09.382262] [57] RADIO_STATUS
[22:14:09.625168] [34] VFR_HUD
[22:14:10.185346] [35] HEARTBEAT
[22:14:10.420271] [36] VFR_HUD
[22:14:10.447316] [58] RADIO
[22:14:10.450213] [58] RADIO_STATUS
[22:14:11.237315] [37] HEARTBEAT
[22:14:11.244317] [38] SYS_STATUS
[22:14:11.362398] [39] BATTERY_STATUS
[22:14:11.370321] [40] ATTITUDE_TARGET
[22:14:11.400315] [41] VFR_HUD
[22:14:11.428386] [59] RADIO
[22:14:11.431355] [59] RADIO_STATUS
[22:14:12.029467] [42] VFR_HUD
[22:14:12.369488] [60] RADIO
[22:14:12.372450] [60] RADIO_STATUS
[22:14:12.839482] [44] VFR_HUD
[22:14:13.518541] [61] RADIO
[22:14:13.521611] [61] RADIO_STATUS
[22:14:13.650700] [47] VFR_HUD
[22:14:14.219662] [48] HEARTBEAT
[22:14:14.333717] [62] RADIO
[22:14:14.336636] [62] RADIO_STATUS
[22:14:15.358793] [63] RADIO
[22:14:15.361913] [63] RADIO_STATUS
[22:14:15.398803] [52] BATTERY_STATUS
[22:14:15.426813] [53] ATTITUDE_TARGET
[22:14:15.431834] [54] VFR_HUD
[22:14:16.058856] [55] VFR_HUD
[22:14:16.289905] [56] HEARTBEAT
[22:14:16.507922] [64] RADIO
[22:14:16.511016] [64] RADIO_STATUS
[22:14:17.223155] [58] HEARTBEAT
[22:14:17.231093] [59] ATTITUDE_TARGET
[22:14:17.428088] [65] RADIO
[22:14:17.431004] [65] RADIO_STATUS
[22:14:17.674027] [60] VFR_HUD
[22:14:18.347117] [66] RADIO
[22:14:18.353466] [66] RADIO_STATUS
[22:14:18.468137] [62] VFR_HUD
[22:14:19.290255] [63] HEARTBEAT
[22:14:19.297204] [64] SYS_STATUS
[22:14:19.337185] [65] BATTERY_STATUS
[22:14:19.345308] [66] ATTITUDE_TARGET
[22:14:19.349177] [67] VFR_HUD
[22:14:19.392156] [67] RADIO
[22:14:19.395148] [67] RADIO_STATUS
[22:14:20.417357] [68] RADIO
[22:14:20.421634] [68] RADIO_STATUS
[22:14:20.892412] [70] VFR_HUD
[22:14:21.236451] [71] HEARTBEAT
[22:14:21.244504] [72] ATTITUDE_TARGET
[22:14:21.566518] [69] RADIO
[22:14:21.569435] [69] RADIO_STATUS
[22:14:21.687520] [73] VFR_HUD
[22:14:22.267608] [74] HEARTBEAT
[22:14:22.376786] [70] RADIO
[22:14:22.379559] [70] RADIO_STATUS
[22:14:23.406776] [71] RADIO
[22:14:23.409756] [71] RADIO_STATUS
[22:14:23.477843] [78] BATTERY_STATUS
[22:14:23.483811] [79] ATTITUDE_TARGET
[22:14:23.488691] [80] VFR_HUD
[22:14:24.222784] [81] VFR_HUD
[22:14:24.225786] [82] HEARTBEAT
[22:14:24.555760] [72] RADIO
[22:14:24.558811] [72] RADIO_STATUS
[22:14:25.266052] [84] HEARTBEAT
[22:14:25.273897] [85] ATTITUDE_TARGET
[22:14:25.475939] [73] RADIO
[22:14:25.479084] [73] RADIO_STATUS
[22:14:25.715963] [86] VFR_HUD
[22:14:26.282063] [87] HEARTBEAT
[22:14:26.395976] [74] RADIO
[22:14:26.398029] [74] RADIO_STATUS
[22:14:26.434030] [88] VFR_HUD
[22:14:27.343226] [91] BATTERY_STATUS
[22:14:27.345078] [92] EXTENDED_SYS_STATE
[22:14:27.378082] [93] ATTITUDE_TARGET
[22:14:27.382132] [94] VFR_HUD
[22:14:27.385074] [95] SYSTEM_TIME
[22:14:27.545197] [75] RADIO
[22:14:27.548103] [75] RADIO_STATUS
[22:14:28.021269] [96] VFR_HUD
[22:14:28.241324] [97] HEARTBEAT
[22:14:28.464333] [76] RADIO
[22:14:28.467182] [76] RADIO_STATUS
[22:14:28.815317] [98] VFR_HUD
[22:14:29.284381] [99] HEARTBEAT
[22:14:29.292362] [100] ATTITUDE_TARGET
[22:14:29.614445] [77] RADIO
[22:14:29.617406] [77] RADIO_STATUS
[22:14:29.735431] [101] VFR_HUD
[22:14:30.424688] [103] VFR_HUD
[22:14:30.452212] [78] RADIO
[22:14:30.454725] [78] RADIO_STATUS
[22:14:31.242639] [104] HEARTBEAT
[22:14:31.248521] [105] SYS_STATUS
[22:14:31.453578] [79] RADIO
[22:14:31.456570] [79] RADIO_STATUS
[22:14:32.034588] [109] VFR_HUD
[22:14:32.259711] [110] HEARTBEAT
[22:14:32.603749] [80] RADIO
[22:14:32.606686] [80] RADIO_STATUS
[22:14:33.313841] [112] HEARTBEAT
[22:14:33.320755] [113] ATTITUDE_TARGET
[22:14:33.441763] [81] RADIO
[22:14:33.443818] [81] RADIO_STATUS
[22:14:34.220028] [115] HEARTBEAT
[22:14:34.442888] [82] RADIO
[22:14:34.445898] [82] RADIO_STATUS
[22:14:34.481867] [116] VFR_HUD
[22:14:35.382994] [119] BATTERY_STATUS
[22:14:35.593389] [83] RADIO
[22:14:35.596006] [83] RADIO_STATUS
[22:14:35.647094] [120] ATTITUDE_TARGET
[22:14:35.651969] [121] VFR_HUD
[22:14:36.069075] [122] VFR_HUD
[22:14:36.513852] [84] RADIO
[22:14:36.515098] [84] RADIO_STATUS
[22:14:36.863296] [124] VFR_HUD
[22:14:37.227212] [125] HEARTBEAT
[22:14:37.235256] [126] ATTITUDE_TARGET
[22:14:37.432234] [85] RADIO
[22:14:37.435227] [85] RADIO_STATUS
[22:14:37.678196] [127] VFR_HUD
[22:14:38.472320] [129] VFR_HUD
[22:14:38.505333] [86] RADIO
[22:14:38.508260] [86] RADIO_STATUS
[22:14:39.295651] [130] HEARTBEAT
[22:14:39.302509] [131] SYS_STATUS
[22:14:39.341511] [132] BATTERY_STATUS
[22:14:39.349439] [133] ATTITUDE_TARGET
[22:14:39.354438] [134] VFR_HUD
[22:14:39.503552] [87] RADIO
[22:14:39.506525] [87] RADIO_STATUS
[22:14:40.214547] [135] VFR_HUD
[22:14:40.217646] [136] HEARTBEAT
[22:14:40.653769] [88] RADIO
[22:14:40.655778] [88] RADIO_STATUS
[22:14:41.362756] [138] HEARTBEAT
[22:14:41.370691] [139] ATTITUDE_TARGET
[22:14:41.467647] [89] RADIO
[22:14:41.470560] [89] RADIO_STATUS
[22:14:42.273898] [141] HEARTBEAT
[22:14:42.492786] [90] RADIO
[22:14:42.495844] [90] RADIO_STATUS
[22:14:42.612758] [142] VFR_HUD
[22:14:43.205865] [143] HEARTBEAT
[22:14:43.212829] [144] SYS_STATUS
[22:14:43.645845] [91] RADIO
[22:14:43.645984] [91] RADIO_STATUS
[22:14:43.709874] [145] BATTERY_STATUS
[22:14:43.717926] [146] ATTITUDE_TARGET
[22:14:43.722877] [147] VFR_HUD
[22:14:44.217928] [149] HEARTBEAT
[22:14:44.560988] [92] RADIO
[22:14:44.564006] [92] RADIO_STATUS
[22:14:44.806990] [150] VFR_HUD
[22:14:45.276088] [151] HEARTBEAT
[22:14:45.283136] [152] ATTITUDE_TARGET
[22:14:45.480092] [93] RADIO
[22:14:45.483078] [93] RADIO_STATUS
[22:14:46.416187] [155] VFR_HUD
[22:14:46.537215] [94] RADIO
[22:14:46.540154] [94] RADIO_STATUS
[22:14:47.218383] [156] HEARTBEAT
[22:14:47.225286] [157] SYS_STATUS
[22:14:47.348272] [158] BATTERY_STATUS
[22:14:47.349222] [159] EXTENDED_SYS_STATE
[22:14:47.381335] [160] ATTITUDE_TARGET
[22:14:47.386375] [161] VFR_HUD
[22:14:47.390305] [162] SYSTEM_TIME
[22:14:47.550383] [95] RADIO
[22:14:47.553388] [95] RADIO_STATUS
[22:14:48.020404] [163] VFR_HUD
[22:14:48.245568] [164] HEARTBEAT
[22:14:48.469416] [96] RADIO
[22:14:48.472406] [96] RADIO_STATUS
[22:14:48.820499] [165] VFR_HUD
[22:14:49.413795] [166] HEARTBEAT
[22:14:49.421591] [167] ATTITUDE_TARGET
[22:14:49.509615] [97] RADIO
[22:14:49.512825] [97] RADIO_STATUS
[22:14:49.629955] [168] VFR_HUD
[22:14:50.538675] [98] RADIO
[22:14:50.541621] [98] RADIO_STATUS
[22:14:51.688862] [99] RADIO
[22:14:51.691888] [99] RADIO_STATUS
[22:14:52.264975] [177] HEARTBEAT
[22:14:52.608062] [100] RADIO
[22:14:52.611032] [100] RADIO_STATUS
[22:14:52.849035] [178] VFR_HUD
[22:14:53.317058] [180] ATTITUDE_TARGET
[22:14:53.528044] [101] RADIO
[22:14:53.531041] [101] RADIO_STATUS
[22:14:54.228184] [182] HEARTBEAT
[22:14:54.463199] [183] VFR_HUD
[22:14:54.579400] [102] RADIO
[22:14:54.582301] [102] RADIO_STATUS
[22:14:55.266324] [184] HEARTBEAT
[22:14:55.272237] [185] SYS_STATUS
[22:14:55.387201] [186] BATTERY_STATUS
[22:14:55.515258] [103] RADIO
[22:14:55.518247] [103] RADIO_STATUS
[22:14:55.734259] [187] ATTITUDE_TARGET
[22:14:55.739290] [188] VFR_HUD
[22:14:56.073332] [189] VFR_HUD
[22:14:56.293550] [190] HEARTBEAT
[22:14:56.517495] [104] RADIO
[22:14:56.520387] [104] RADIO_STATUS
[22:14:56.867457] [191] VFR_HUD
[22:14:57.226481] [192] HEARTBEAT
[22:14:57.234421] [193] ATTITUDE_TARGET
[22:14:57.556446] [105] RADIO
[22:14:57.559592] [105] RADIO_STATUS
[22:14:57.682463] [194] VFR_HUD
[22:14:58.586525] [106] RADIO
[22:14:58.589538] [106] RADIO_STATUS
[22:14:59.506920] [107] RADIO
[22:14:59.509666] [107] RADIO_STATUS
[22:15:00.207821] [203] HEARTBEAT
[22:15:00.655892] [108] RADIO
[22:15:00.658744] [108] RADIO_STATUS
[22:15:00.896789] [204] VFR_HUD
[22:15:01.365969] [205] HEARTBEAT
[22:15:01.372878] [206] ATTITUDE_TARGET
[22:15:01.575983] [109] RADIO
[22:15:01.578826] [109] RADIO_STATUS
[22:15:02.272073] [208] HEARTBEAT
[22:15:02.507066] [209] VFR_HUD
[22:15:02.616043] [110] RADIO
[22:15:02.618974] [110] RADIO_STATUS
[22:15:03.209127] [210] HEARTBEAT
[22:15:03.216187] [211] SYS_STATUS
[22:15:03.255109] [212] BATTERY_STATUS
[22:15:03.263054] [213] ATTITUDE_TARGET
[22:15:03.268056] [214] VFR_HUD
[22:15:03.646162] [111] RADIO
[22:15:03.648115] [111] RADIO_STATUS
[22:15:04.565240] [112] RADIO
[22:15:04.568237] [112] RADIO_STATUS
[22:15:04.811323] [217] VFR_HUD
[22:15:05.280532] [218] HEARTBEAT
[22:15:05.288366] [219] ATTITUDE_TARGET
[22:15:05.606379] [220] VFR_HUD
[22:15:05.638391] [113] RADIO
[22:15:05.641309] [113] RADIO_STATUS
[22:15:06.416615] [222] VFR_HUD
[22:15:06.635572] [114] RADIO
[22:15:06.638443] [114] RADIO_STATUS
[22:15:07.223514] [223] HEARTBEAT
[22:15:07.230550] [224] SYS_STATUS
[22:15:07.554564] [115] RADIO
[22:15:07.557551] [115] RADIO_STATUS
[22:15:08.025717] [230] VFR_HUD
[22:15:08.255845] [231] HEARTBEAT
[22:15:08.704665] [116] RADIO
[22:15:08.707648] [116] RADIO_STATUS
[22:15:09.419000] [233] HEARTBEAT
[22:15:09.426776] [234] ATTITUDE_TARGET
[22:15:09.624819] [117] RADIO
[22:15:09.629238] [117] RADIO_STATUS
[22:15:10.201969] [236] HEARTBEAT
[22:15:10.668876] [118] RADIO
[22:15:10.672047] [118] RADIO_STATUS
[22:15:11.252031] [238] HEARTBEAT
[22:15:11.258901] [239] SYS_STATUS
[22:15:11.377917] [240] BATTERY_STATUS
[22:15:11.386051] [241] ATTITUDE_TARGET
[22:15:11.415909] [242] VFR_HUD
[22:15:11.693964] [119] RADIO
[22:15:11.696944] [119] RADIO_STATUS
[22:15:12.614135] [120] RADIO
[22:15:12.617005] [120] RADIO_STATUS
[22:15:12.859130] [245] VFR_HUD
[22:15:13.654226] [248] VFR_HUD
[22:15:13.686253] [121] RADIO
[22:15:13.689117] [121] RADIO_STATUS
[22:15:14.469229] [250] VFR_HUD
[22:15:14.683270] [122] RADIO
[22:15:14.686248] [122] RADIO_STATUS
[22:15:15.271419] [251] HEARTBEAT
[22:15:15.278477] [252] SYS_STATUS
[22:15:15.602415] [123] RADIO
[22:15:15.605377] [123] RADIO_STATUS
[22:15:16.078476] [0] VFR_HUD
[22:15:16.752435] [124] RADIO
[22:15:16.755414] [124] RADIO_STATUS
[22:15:17.232752] [3] HEARTBEAT
[22:15:17.240554] [4] ATTITUDE_TARGET
[22:15:17.672730] [125] RADIO
[22:15:17.675648] [125] RADIO_STATUS
[22:15:18.248723] [6] HEARTBEAT
[22:15:18.711810] [126] RADIO
[22:15:18.714689] [126] RADIO_STATUS
[22:15:19.299936] [8] HEARTBEAT
[22:15:19.307043] [9] SYS_STATUS
[22:15:19.425904] [10] BATTERY_STATUS
[22:15:19.433075] [11] ATTITUDE_TARGET
[22:15:19.463805] [12] VFR_HUD
[22:15:19.741959] [127] RADIO
[22:15:19.744839] [127] RADIO_STATUS
[22:15:20.208091] [14] HEARTBEAT
[22:15:20.661012] [128] RADIO
[22:15:20.663995] [128] RADIO_STATUS
[22:15:20.902081] [15] VFR_HUD
[22:15:21.371119] [16] HEARTBEAT
[22:15:21.378194] [17] ATTITUDE_TARGET
[22:15:21.597150] [18] VFR_HUD
[22:15:21.712137] [129] RADIO
[22:15:21.715149] [129] RADIO_STATUS
[22:15:22.731305] [130] RADIO
[22:15:22.734255] [130] RADIO_STATUS
[22:15:23.214343] [21] HEARTBEAT
[22:15:23.220315] [22] SYS_STATUS
[22:15:23.260381] [23] BATTERY_STATUS
[22:15:23.268291] [24] ATTITUDE_TARGET
[22:15:23.273329] [25] VFR_HUD
[22:15:23.650562] [131] RADIO
[22:15:23.653352] [131] RADIO_STATUS
[22:15:24.003457] [26] VFR_HUD
[22:15:24.802487] [132] RADIO
[22:15:24.805498] [132] RADIO_STATUS
[22:15:25.287597] [29] HEARTBEAT
[22:15:25.295915] [30] ATTITUDE_TARGET
[22:15:25.612701] [31] VFR_HUD
[22:15:25.639557] [133] RADIO
[22:15:25.642508] [133] RADIO_STATUS
[22:15:26.192691] [32] HEARTBEAT
[22:15:26.422672] [33] VFR_HUD
[22:15:26.646948] [134] RADIO
[22:15:26.649673] [134] RADIO_STATUS
[22:15:27.354872] [36] BATTERY_STATUS
[22:15:27.355687] [37] EXTENDED_SYS_STATE
[22:15:27.475791] [38] ATTITUDE_TARGET
[22:15:27.480848] [39] VFR_HUD
[22:15:27.484016] [40] SYSTEM_TIME
[22:15:27.791879] [135] RADIO
[22:15:27.794842] [135] RADIO_STATUS
[22:15:28.263000] [42] HEARTBEAT
[22:15:28.711968] [136] RADIO
[22:15:28.713990] [136] RADIO_STATUS
[22:15:29.421100] [44] HEARTBEAT
[22:15:29.428029] [45] ATTITUDE_TARGET
[22:15:29.642237] [46] VFR_HUD
[22:15:29.751047] [137] RADIO
[22:15:29.754035] [137] RADIO_STATUS
[22:15:30.207138] [47] HEARTBEAT
[22:15:30.781178] [138] RADIO
[22:15:30.784097] [138] RADIO_STATUS
[22:15:31.264284] [49] HEARTBEAT
[22:15:31.271207] [50] SYS_STATUS
[22:15:31.312941] [51] BATTERY_STATUS
[22:15:31.318231] [52] ATTITUDE_TARGET
[22:15:31.323174] [53] VFR_HUD
[22:15:31.701288] [139] RADIO
[22:15:31.705896] [139] RADIO_STATUS
[22:15:32.053237] [54] VFR_HUD
[22:15:32.852394] [140] RADIO
[22:15:32.855360] [140] RADIO_STATUS
[22:15:32.891443] [56] VFR_HUD
[22:15:33.198491] [57] HEARTBEAT
[22:15:33.221565] [58] ATTITUDE_TARGET
[22:15:33.663489] [59] VFR_HUD
[22:15:33.696541] [141] RADIO
[22:15:33.698457] [141] RADIO_STATUS
[22:15:34.238751] [60] HEARTBEAT
[22:15:34.478639] [61] VFR_HUD
[22:15:34.692658] [142] RADIO
[22:15:34.694803] [142] RADIO_STATUS
[22:15:35.406942] [64] BATTERY_STATUS
[22:15:35.519776] [65] ATTITUDE_TARGET
[22:15:35.523787] [66] VFR_HUD
[22:15:35.841898] [143] RADIO
[22:15:35.844812] [143] RADIO_STATUS
[22:15:36.761962] [144] RADIO
[22:15:36.765339] [144] RADIO_STATUS
[22:15:37.692110] [72] VFR_HUD
[22:15:37.806063] [145] RADIO
[22:15:37.809021] [145] RADIO_STATUS
[22:15:38.257123] [73] HEARTBEAT
[22:15:38.726246] [146] RADIO
[22:15:38.729224] [146] RADIO_STATUS
[22:15:39.309198] [75] HEARTBEAT
[22:15:39.316201] [76] SYS_STATUS
[22:15:39.434287] [77] BATTERY_STATUS
[22:15:39.442283] [78] ATTITUDE_TARGET
[22:15:39.472224] [79] VFR_HUD
[22:15:39.755623] [147] RADIO
[22:15:39.755777] [147] RADIO_STATUS
[22:15:39.997230] [80] VFR_HUD
[22:15:40.217313] [81] HEARTBEAT
[22:15:40.900426] [148] RADIO
[22:15:40.903315] [148] RADIO_STATUS
[22:15:40.939363] [82] VFR_HUD
[22:15:41.260376] [83] HEARTBEAT
[22:15:41.268361] [84] ATTITUDE_TARGET
[22:15:41.606590] [85] VFR_HUD
[22:15:41.722513] [149] RADIO
[22:15:41.725366] [149] RADIO_STATUS
[22:15:42.286561] [86] HEARTBEAT
[22:15:42.401588] [87] VFR_HUD
[22:15:42.740599] [150] RADIO
[22:15:42.743583] [150] RADIO_STATUS
[22:15:43.218640] [88] HEARTBEAT
[22:15:43.225706] [89] SYS_STATUS
[22:15:43.343648] [90] BATTERY_STATUS
[22:15:43.351594] [91] ATTITUDE_TARGET
[22:15:43.381647] [92] VFR_HUD
[22:15:43.889657] [151] RADIO
[22:15:43.892646] [151] RADIO_STATUS
[22:15:44.015325] [93] VFR_HUD
[22:15:44.809750] [152] RADIO
[22:15:44.812690] [152] RADIO_STATUS
[22:15:45.621040] [98] VFR_HUD
[22:15:45.729849] [153] RADIO
[22:15:45.732970] [153] RADIO_STATUS
[22:15:46.201037] [99] HEARTBEAT
[22:15:46.769950] [154] RADIO
[22:15:46.772891] [154] RADIO_STATUS
[22:15:47.362076] [103] BATTERY_STATUS
[22:15:47.364022] [104] EXTENDED_SYS_STATE
[22:15:47.483058] [105] ATTITUDE_TARGET
[22:15:47.488021] [106] VFR_HUD
[22:15:47.492049] [107] SYSTEM_TIME
[22:15:47.799114] [155] RADIO
[22:15:47.802010] [155] RADIO_STATUS
[22:15:48.040110] [108] VFR_HUD
[22:15:48.273841] [109] HEARTBEAT
[22:15:48.949161] [156] RADIO
[22:15:48.952152] [156] RADIO_STATUS
[22:15:49.190429] [111] HEARTBEAT
[22:15:49.308256] [112] ATTITUDE_TARGET
[22:15:49.654352] [113] VFR_HUD
[22:15:49.770330] [157] RADIO
[22:15:49.772303] [157] RADIO_STATUS
[22:15:50.214386] [114] HEARTBEAT
[22:15:50.449460] [115] VFR_HUD
[22:15:50.788423] [158] RADIO
[22:15:50.791397] [158] RADIO_STATUS
[22:15:51.274074] [116] HEARTBEAT
[22:15:51.278578] [117] SYS_STATUS
[22:15:51.317459] [118] BATTERY_STATUS
[22:15:51.325482] [119] ATTITUDE_TARGET
[22:15:51.330492] [120] VFR_HUD
[22:15:51.937599] [159] RADIO
[22:15:51.940641] [159] RADIO_STATUS
[22:15:52.413603] [121] VFR_HUD
[22:15:52.416587] [122] HEARTBEAT
[22:15:52.857661] [160] RADIO
[22:15:52.860684] [160] RADIO_STATUS
[22:15:52.896630] [123] VFR_HUD
[22:15:53.217741] [124] HEARTBEAT
[22:15:53.225635] [125] ATTITUDE_TARGET
[22:15:53.670093] [126] VFR_HUD
[22:15:53.776751] [161] RADIO
[22:15:53.779751] [161] RADIO_STATUS
[22:15:54.247883] [127] HEARTBEAT
[22:15:54.816829] [162] RADIO
[22:15:54.819875] [162] RADIO_STATUS
[22:15:55.410970] [131] BATTERY_STATUS
[22:15:55.523957] [132] ATTITUDE_TARGET
[22:15:55.529864] [133] VFR_HUD
[22:15:55.846017] [163] RADIO
[22:15:55.848919] [163] RADIO_STATUS
[22:15:56.086980] [134] VFR_HUD
[22:15:56.192018] [135] HEARTBEAT
[22:15:56.996225] [164] RADIO
[22:15:56.999064] [164] RADIO_STATUS
[22:15:57.246192] [137] HEARTBEAT
[22:15:57.253133] [138] ATTITUDE_TARGET
[22:15:57.696303] [139] VFR_HUD
[22:15:57.810297] [165] RADIO
[22:15:57.813318] [165] RADIO_STATUS
[22:15:58.264177] [140] HEARTBEAT
[22:15:58.496432] [141] VFR_HUD
[22:15:58.835367] [166] RADIO
[22:15:58.838251] [166] RADIO_STATUS
[22:15:59.985561] [167] RADIO
[22:15:59.988451] [167] RADIO_STATUS
[22:16:00.056769] [144] BATTERY_STATUS
[22:16:00.061542] [145] ATTITUDE_TARGET
[22:16:00.066472] [146] VFR_HUD
[22:16:00.071510] [147] VFR_HUD
[22:16:00.800682] [149] VFR_HUD
[22:16:00.828094] [168] RADIO
[22:16:00.833032] [168] RADIO_STATUS
[22:16:01.264706] [150] HEARTBEAT
[22:16:01.272604] [151] ATTITUDE_TARGET
[22:16:01.605967] [152] VFR_HUD
[22:16:01.824987] [169] RADIO
[22:16:01.827739] [169] RADIO_STATUS
[22:16:02.290869] [153] HEARTBEAT
[22:16:02.404793] [154] VFR_HUD
[22:16:02.869951] [170] RADIO
[22:16:02.872869] [170] RADIO_STATUS
[22:16:03.222983] [155] HEARTBEAT
[22:16:03.229899] [156] SYS_STATUS
[22:16:03.894251] [171] RADIO
[22:16:03.897040] [171] RADIO_STATUS
[22:16:04.014951] [160] VFR_HUD
[22:16:04.239996] [161] HEARTBEAT
[22:16:05.044086] [172] RADIO
[22:16:05.046995] [172] RADIO_STATUS
[22:16:05.294183] [163] HEARTBEAT
[22:16:05.302092] [164] ATTITUDE_TARGET
[22:16:05.859207] [173] RADIO
[22:16:05.862130] [173] RADIO_STATUS
[22:16:06.200287] [166] HEARTBEAT
[22:16:06.434253] [167] VFR_HUD
[22:16:06.883323] [174] RADIO
[22:16:06.886230] [174] RADIO_STATUS
[22:16:07.366425] [170] BATTERY_STATUS
[22:16:07.368300] [171] EXTENDED_SYS_STATE
[22:16:07.487391] [172] ATTITUDE_TARGET
[22:16:07.492325] [173] VFR_HUD
[22:16:07.496383] [174] SYSTEM_TIME
[22:16:08.033396] [175] RADIO
[22:16:08.036468] [175] RADIO_STATUS
[22:16:08.072392] [175] VFR_HUD
[22:16:08.844726] [177] VFR_HUD
[22:16:08.871717] [176] RADIO
[22:16:08.874560] [176] RADIO_STATUS
[22:16:09.208692] [178] HEARTBEAT
[22:16:09.216562] [179] ATTITUDE_TARGET
[22:16:09.658565] [180] VFR_HUD
[22:16:09.872572] [177] RADIO
[22:16:09.875742] [177] RADIO_STATUS
[22:16:10.453783] [182] VFR_HUD
[22:16:10.913036] [178] RADIO
[22:16:10.915679] [178] RADIO_STATUS
[22:16:11.275784] [183] HEARTBEAT
[22:16:11.282809] [184] SYS_STATUS
[22:16:11.321855] [185] BATTERY_STATUS
[22:16:11.330165] [186] ATTITUDE_TARGET
[22:16:11.334862] [187] VFR_HUD
[22:16:11.943776] [179] RADIO
[22:16:11.946809] [179] RADIO_STATUS
[22:16:12.195883] [188] VFR_HUD
[22:16:12.198841] [189] HEARTBEAT
[22:16:13.094192] [180] RADIO
[22:16:13.097000] [180] RADIO_STATUS
[22:16:13.224020] [191] HEARTBEAT
[22:16:13.233750] [192] ATTITUDE_TARGET
[22:16:13.904596] [181] RADIO
[22:16:13.905976] [181] RADIO_STATUS
[22:16:14.255007] [194] HEARTBEAT
[22:16:14.484148] [195] VFR_HUD
[22:16:14.933050] [182] RADIO
[22:16:14.936125] [182] RADIO_STATUS
[22:16:15.413284] [198] BATTERY_STATUS
[22:16:15.531084] [199] ATTITUDE_TARGET
[22:16:15.535164] [200] VFR_HUD
[22:16:16.083097] [183] RADIO
[22:16:16.086130] [183] RADIO_STATUS
[22:16:16.209271] [201] VFR_HUD
[22:16:16.212171] [202] HEARTBEAT
[22:16:16.894227] [203] VFR_HUD
[22:16:16.924310] [184] RADIO
[22:16:16.927250] [184] RADIO_STATUS
[22:16:17.258392] [204] HEARTBEAT
[22:16:17.266291] [205] ATTITUDE_TARGET
[22:16:17.709340] [206] VFR_HUD
[22:16:17.923368] [185] RADIO
[22:16:17.925389] [185] RADIO_STATUS
[22:16:18.398516] [208] VFR_HUD
[22:16:18.962597] [186] RADIO
[22:16:18.965480] [186] RADIO_STATUS
[22:16:19.201497] [209] HEARTBEAT
[22:16:19.207500] [210] SYS_STATUS
[22:16:19.327479] [211] BATTERY_STATUS
[22:16:19.559593] [212] ATTITUDE_TARGET
[22:16:19.564758] [213] VFR_HUD
[22:16:19.992565] [187] RADIO
[22:16:19.995513] [187] RADIO_STATUS
[22:16:20.228760] [215] HEARTBEAT
[22:16:20.802736] [216] VFR_HUD
[22:16:20.911897] [188] RADIO
[22:16:20.914812] [188] RADIO_STATUS
[22:16:21.396695] [217] HEARTBEAT
[22:16:21.404700] [218] ATTITUDE_TARGET
[22:16:21.612708] [219] VFR_HUD
[22:16:21.951833] [189] RADIO
[22:16:21.954835] [189] RADIO_STATUS
[22:16:22.303795] [220] HEARTBEAT
[22:16:22.424090] [221] VFR_HUD
[22:16:22.980893] [190] RADIO
[22:16:22.983768] [190] RADIO_STATUS
[22:16:24.130944] [191] RADIO
[22:16:24.134023] [191] RADIO_STATUS
[22:16:24.247106] [228] HEARTBEAT
[22:16:24.831050] [229] VFR_HUD
[22:16:24.945999] [192] RADIO
[22:16:24.948974] [192] RADIO_STATUS
[22:16:25.300186] [230] HEARTBEAT
[22:16:25.308108] [231] ATTITUDE_TARGET
[22:16:25.970252] [193] RADIO
[22:16:25.973106] [193] RADIO_STATUS
[22:16:26.206315] [233] HEARTBEAT
[22:16:26.446166] [234] VFR_HUD
[22:16:27.120295] [194] RADIO
[22:16:27.123204] [194] RADIO_STATUS
[22:16:27.248240] [235] HEARTBEAT
[22:16:27.255369] [236] SYS_STATUS
[22:16:27.372325] [237] BATTERY_STATUS
[22:16:27.374280] [238] EXTENDED_SYS_STATE
[22:16:28.039379] [195] RADIO
[22:16:28.042391] [195] RADIO_STATUS
[22:16:28.078571] [242] VFR_HUD
[22:16:28.275405] [243] HEARTBEAT
[22:16:28.850599] [244] VFR_HUD
[22:16:28.959419] [196] RADIO
[22:16:28.962439] [196] RADIO_STATUS
[22:16:29.209600] [245] HEARTBEAT
[22:16:29.217528] [246] ATTITUDE_TARGET
[22:16:29.665551] [247] VFR_HUD
[22:16:30.007770] [197] RADIO
[22:16:30.007918] [197] RADIO_STATUS
[22:16:31.029144] [198] RADIO
[22:16:31.031622] [198] RADIO_STATUS
[22:16:32.178869] [199] RADIO
[22:16:32.181819] [199] RADIO_STATUS
[22:16:32.212851] [0] HEARTBEAT
[22:16:32.878916] [1] VFR_HUD
[22:16:32.993887] [200] RADIO
[22:16:32.996893] [200] RADIO_STATUS
[22:16:33.347988] [2] HEARTBEAT
[22:16:33.356046] [3] ATTITUDE_TARGET
[22:16:34.018957] [201] RADIO
[22:16:34.021968] [201] RADIO_STATUS
[22:16:34.255039] [5] HEARTBEAT
[22:16:34.489067] [6] VFR_HUD
[22:16:35.168128] [202] RADIO
[22:16:35.171214] [202] RADIO_STATUS
[22:16:35.214152] [7] HEARTBEAT
[22:16:35.221193] [8] SYS_STATUS
[22:16:35.258104] [9] BATTERY_STATUS
[22:16:35.266124] [10] ATTITUDE_TARGET
[22:16:35.271207] [11] VFR_HUD
[22:16:36.088248] [203] RADIO
[22:16:36.091207] [203] RADIO_STATUS
[22:16:36.161212] [12] VFR_HUD
[22:16:36.180334] [13] HEARTBEAT
[22:16:36.797856] [14] VFR_HUD
[22:16:37.007299] [204] RADIO
[22:16:37.010368] [204] RADIO_STATUS
[22:16:37.263435] [15] HEARTBEAT
[22:16:37.270377] [16] ATTITUDE_TARGET
[22:16:37.593499] [17] VFR_HUD
[22:16:38.047516] [205] RADIO
[22:16:38.050414] [205] RADIO_STATUS
[22:16:38.398824] [19] VFR_HUD
[22:16:39.077680] [206] RADIO
[22:16:39.080709] [206] RADIO_STATUS
[22:16:39.205751] [20] HEARTBEAT
[22:16:39.212889] [21] SYS_STATUS
[22:16:39.564757] [23] ATTITUDE_TARGET
[22:16:39.568726] [24] VFR_HUD
[22:16:40.007764] [25] VFR_HUD
[22:16:40.227834] [207] RADIO
[22:16:40.229790] [207] RADIO_STATUS
[22:16:40.262020] [26] HEARTBEAT
[22:16:41.036891] [208] RADIO
[22:16:41.039829] [208] RADIO_STATUS
[22:16:41.401919] [28] HEARTBEAT
[22:16:41.409873] [29] ATTITUDE_TARGET
[22:16:42.066954] [209] RADIO
[22:16:42.069901] [209] RADIO_STATUS
[22:16:42.188960] [31] HEARTBEAT
[22:16:43.217150] [210] RADIO
[22:16:43.220099] [210] RADIO_STATUS
[22:16:43.277278] [33] HEARTBEAT
[22:16:43.283040] [34] SYS_STATUS
[22:16:43.291211] [35] BATTERY_STATUS
[22:16:43.303116] [36] ATTITUDE_TARGET
[22:16:43.309013] [37] VFR_HUD
[22:16:44.137210] [211] RADIO
[22:16:44.140054] [211] RADIO_STATUS
[22:16:44.842244] [40] VFR_HUD
[22:16:45.056200] [212] RADIO
[22:16:45.059270] [212] RADIO_STATUS
[22:16:45.311257] [41] HEARTBEAT
[22:16:45.321890] [42] ATTITUDE_TARGET
[22:16:45.637294] [43] VFR_HUD
[22:16:46.096371] [213] RADIO
[22:16:46.099457] [213] RADIO_STATUS
[22:16:46.222384] [44] HEARTBEAT
[22:16:46.452671] [45] VFR_HUD
[22:16:47.125462] [214] RADIO
[22:16:47.128455] [214] RADIO_STATUS
[22:16:47.253676] [46] HEARTBEAT
[22:16:47.260515] [47] SYS_STATUS
[22:16:48.061716] [53] VFR_HUD
[22:16:48.275705] [215] RADIO
[22:16:48.278593] [215] RADIO_STATUS
[22:16:48.391634] [54] HEARTBEAT
[22:16:49.084777] [216] RADIO
[22:16:49.087690] [216] RADIO_STATUS
[22:16:49.214774] [56] HEARTBEAT
[22:16:49.222777] [57] ATTITUDE_TARGET
[22:16:49.676806] [58] VFR_HUD
[22:16:50.113915] [217] RADIO
[22:16:50.116773] [217] RADIO_STATUS
[22:16:50.229880] [59] HEARTBEAT
[22:16:51.262933] [218] RADIO
[22:16:51.265932] [218] RADIO_STATUS
[22:16:51.391098] [61] HEARTBEAT
[22:16:51.398006] [62] SYS_STATUS
[22:16:51.518018] [63] BATTERY_STATUS
[22:16:51.750024] [64] ATTITUDE_TARGET
[22:16:51.754940] [65] VFR_HUD
[22:16:52.183126] [219] RADIO
[22:16:52.186327] [219] RADIO_STATUS
[22:16:52.883251] [68] VFR_HUD
[22:16:53.102185] [220] RADIO
[22:16:53.105258] [220] RADIO_STATUS
[22:16:53.352246] [69] HEARTBEAT
[22:16:53.360185] [70] ATTITUDE_TARGET
[22:16:53.683263] [71] VFR_HUD
[22:16:54.147308] [221] RADIO
[22:16:54.150355] [221] RADIO_STATUS
[22:16:54.498395] [73] VFR_HUD
[22:16:55.172380] [222] RADIO
[22:16:55.175381] [222] RADIO_STATUS
[22:16:55.232448] [74] HEARTBEAT
[22:16:55.238502] [75] SYS_STATUS
[22:16:55.246497] [76] BATTERY_STATUS
[22:16:55.258527] [77] ATTITUDE_TARGET
[22:16:55.263565] [78] VFR_HUD
[22:16:56.107589] [79] VFR_HUD
[22:16:56.244543] [223] RADIO
[22:16:56.247493] [223] RADIO_STATUS
[22:16:56.792639] [81] VFR_HUD
[22:16:57.136627] [224] RADIO
[22:16:57.139559] [224] RADIO_STATUS
[22:16:57.266713] [82] HEARTBEAT
[22:16:57.274692] [83] ATTITUDE_TARGET
[22:16:57.592733] [84] VFR_HUD
[22:16:58.161854] [225] RADIO
[22:16:58.164694] [225] RADIO_STATUS
[22:16:58.195914] [85] HEARTBEAT
[22:16:58.402835] [86] VFR_HUD
[22:16:59.312918] [226] RADIO
[22:16:59.313939] [226] RADIO_STATUS
[22:16:59.351928] [89] BATTERY_STATUS
[22:16:59.379580] [90] ATTITUDE_TARGET
[22:16:59.383968] [91] VFR_HUD
[22:17:00.231174] [227] RADIO
[22:17:00.233963] [227] RADIO_STATUS
[22:17:00.265153] [93] HEARTBEAT
[22:17:00.812294] [94] VFR_HUD
[22:17:01.150153] [228] RADIO
[22:17:01.153141] [228] RADIO_STATUS
[22:17:01.621236] [97] VFR_HUD
[22:17:02.186362] [98] HEARTBEAT
[22:17:02.221734] [229] RADIO
[22:17:02.221875] [229] RADIO_STATUS
[22:17:03.220377] [230] RADIO
[22:17:03.223479] [230] RADIO_STATUS
[22:17:03.279614] [100] HEARTBEAT
[22:17:03.286445] [101] SYS_STATUS
[22:17:03.294408] [102] BATTERY_STATUS
[22:17:03.357560] [103] ATTITUDE_TARGET
[22:17:03.361390] [104] VFR_HUD
[22:17:04.030536] [105] VFR_HUD
[22:17:04.265568] [106] HEARTBEAT
[22:17:04.369541] [231] RADIO
[22:17:04.372466] [231] RADIO_STATUS
[22:17:04.845623] [107] VFR_HUD
[22:17:05.184718] [232] RADIO
[22:17:05.187559] [232] RADIO_STATUS
[22:17:05.314718] [108] HEARTBEAT
[22:17:05.322699] [109] ATTITUDE_TARGET
[22:17:05.640770] [110] VFR_HUD
[22:17:06.209825] [233] RADIO
[22:17:06.212700] [233] RADIO_STATUS
[22:17:06.243844] [111] HEARTBEAT
[22:17:06.449817] [112] VFR_HUD
[22:17:07.359858] [234] RADIO
[22:17:07.361861] [234] RADIO_STATUS
[22:17:07.424023] [115] BATTERY_STATUS
[22:17:07.425882] [116] EXTENDED_SYS_STATE
[22:17:07.432918] [117] ATTITUDE_TARGET
[22:17:07.438071] [118] VFR_HUD
[22:17:07.442013] [119] SYSTEM_TIME
[22:17:08.278983] [235] RADIO
[22:17:08.282051] [235] RADIO_STATUS
[22:17:08.313104] [121] HEARTBEAT
[22:17:09.199063] [236] RADIO
[22:17:09.202047] [236] RADIO_STATUS
[22:17:09.454159] [123] HEARTBEAT
[22:17:09.461144] [124] ATTITUDE_TARGET
[22:17:09.670214] [125] VFR_HUD
[22:17:10.235218] [126] HEARTBEAT
[22:17:10.349258] [237] RADIO
[22:17:10.351210] [237] RADIO_STATUS
[22:17:11.268491] [238] RADIO
[22:17:11.271293] [238] RADIO_STATUS
[22:17:11.396413] [128] HEARTBEAT
[22:17:11.403360] [129] SYS_STATUS
[22:17:11.755440] [131] ATTITUDE_TARGET
[22:17:11.760368] [132] VFR_HUD
[22:17:12.079471] [133] VFR_HUD
[22:17:12.194671] [134] HEARTBEAT
[22:17:12.418533] [239] RADIO
[22:17:12.421569] [239] RADIO_STATUS
[22:17:12.894538] [135] VFR_HUD
[22:17:13.238691] [136] HEARTBEAT
[22:17:13.245647] [137] ATTITUDE_TARGET
[22:17:13.337674] [240] RADIO
[22:17:13.340570] [240] RADIO_STATUS
[22:17:13.688596] [138] VFR_HUD
[22:17:14.257722] [241] RADIO
[22:17:14.260732] [241] RADIO_STATUS
[22:17:14.373738] [139] HEARTBEAT
[22:17:14.397674] [140] VFR_HUD
[22:17:15.407887] [242] RADIO
[22:17:15.410745] [242] RADIO_STATUS
[22:17:15.476973] [143] BATTERY_STATUS
[22:17:15.484808] [144] ATTITUDE_TARGET
[22:17:15.489917] [145] VFR_HUD
[22:17:16.326908] [243] RADIO
[22:17:16.329830] [243] RADIO_STATUS
[22:17:16.797988] [148] VFR_HUD
[22:17:17.247040] [244] RADIO
[22:17:17.249943] [244] RADIO_STATUS
[22:17:17.501026] [149] HEARTBEAT
[22:17:17.509104] [150] ATTITUDE_TARGET
[22:17:18.283222] [152] HEARTBEAT
[22:17:18.396142] [245] RADIO
[22:17:18.399234] [245] RADIO_STATUS
[22:17:19.316215] [246] RADIO
[22:17:19.319215] [246] RADIO_STATUS
[22:17:19.357359] [156] BATTERY_STATUS
[22:17:19.384761] [157] ATTITUDE_TARGET
[22:17:19.389446] [158] VFR_HUD
[22:17:20.017331] [159] VFR_HUD
[22:17:20.241304] [247] RADIO
[22:17:20.244314] [247] RADIO_STATUS
[22:17:20.270519] [160] HEARTBEAT
[22:17:21.286688] [162] HEARTBEAT
[22:17:21.293481] [163] ATTITUDE_TARGET
[22:17:21.385591] [248] RADIO
[22:17:21.388498] [248] RADIO_STATUS
[22:17:21.631557] [164] VFR_HUD
[22:17:22.305584] [249] RADIO
[22:17:22.308531] [249] RADIO_STATUS
[22:17:22.426707] [166] VFR_HUD
[22:17:23.248689] [167] HEARTBEAT
[22:17:23.256889] [168] SYS_STATUS
[22:17:23.295741] [169] BATTERY_STATUS
[22:17:23.302780] [170] ATTITUDE_TARGET
[22:17:23.307751] [171] VFR_HUD
[22:17:23.345803] [250] RADIO
[22:17:23.348819] [250] RADIO_STATUS
[22:17:24.375874] [251] RADIO
[22:17:24.378832] [251] RADIO_STATUS
[22:17:24.850983] [174] VFR_HUD
[22:17:25.186886] [175] HEARTBEAT
[22:17:25.208933] [176] ATTITUDE_TARGET
[22:17:25.294917] [252] RADIO
[22:17:25.297875] [252] RADIO_STATUS
[22:17:25.645974] [177] VFR_HUD
[22:17:26.225995] [178] HEARTBEAT
[22:17:26.339985] [253] RADIO
[22:17:26.342940] [253] RADIO_STATUS
[22:17:27.364255] [254] RADIO
[22:17:27.367133] [254] RADIO_STATUS
[22:17:27.429353] [182] BATTERY_STATUS
[22:17:27.430321] [183] EXTENDED_SYS_STATE
[22:17:27.438205] [184] ATTITUDE_TARGET
[22:17:27.443122] [185] VFR_HUD
[22:17:27.449389] [186] SYSTEM_TIME
[22:17:28.065242] [187] VFR_HUD
[22:17:28.289227] [255] RADIO
[22:17:28.292257] [255] RADIO_STATUS
[22:17:28.318363] [188] HEARTBEAT
[22:17:29.224430] [190] HEARTBEAT
[22:17:29.232384] [191] ATTITUDE_TARGET
[22:17:29.352274] [0] RADIO
[22:17:29.355316] [0] RADIO_STATUS
[22:17:29.674415] [192] VFR_HUD
[22:17:30.241776] [193] HEARTBEAT
[22:17:30.354587] [1] RADIO
[22:17:30.356432] [1] RADIO_STATUS
[22:17:30.474425] [194] VFR_HUD
[22:17:31.297652] [195] HEARTBEAT
[22:17:31.303565] [196] SYS_STATUS
[22:17:31.343582] [197] BATTERY_STATUS
[22:17:31.351540] [198] ATTITUDE_TARGET
[22:17:31.355553] [199] VFR_HUD
[22:17:31.505580] [2] RADIO
[22:17:31.508596] [2] RADIO_STATUS
[22:17:32.424729] [3] RADIO
[22:17:32.427692] [3] RADIO_STATUS
[22:17:32.900782] [202] VFR_HUD
[22:17:33.245111] [203] HEARTBEAT
[22:17:33.252810] [204] ATTITUDE_TARGET
[22:17:33.344881] [4] RADIO
[22:17:33.347826] [4] RADIO_STATUS
[22:17:33.695890] [205] VFR_HUD
[22:17:34.270866] [206] HEARTBEAT
[22:17:34.386007] [207] VFR_HUD
[22:17:34.417884] [5] RADIO
[22:17:34.421016] [5] RADIO_STATUS
[22:17:35.203294] [208] HEARTBEAT
[22:17:35.210003] [209] SYS_STATUS
[22:17:35.414983] [6] RADIO
[22:17:35.417960] [6] RADIO_STATUS
[22:17:36.007013] [213] VFR_HUD
[22:17:36.221101] [214] HEARTBEAT
[22:17:36.335174] [7] RADIO
[22:17:36.337078] [7] RADIO_STATUS
[22:17:37.274375] [216] HEARTBEAT
[22:17:37.282240] [217] ATTITUDE_TARGET
[22:17:37.402248] [8] RADIO
[22:17:37.405238] [8] RADIO_STATUS
[22:17:38.290380] [219] HEARTBEAT
[22:17:38.404405] [9] RADIO
[22:17:38.406282] [9] RADIO_STATUS
[22:17:38.442347] [220] VFR_HUD
[22:17:39.343539] [223] BATTERY_STATUS
[22:17:39.461439] [224] ATTITUDE_TARGET
[22:17:39.465408] [225] VFR_HUD
[22:17:39.500458] [10] RADIO
[22:17:39.502408] [10] RADIO_STATUS
[22:17:40.029548] [226] VFR_HUD
[22:17:40.473603] [11] RADIO
[22:17:40.476564] [11] RADIO_STATUS
[22:17:40.823615] [228] VFR_HUD
[22:17:41.292676] [229] HEARTBEAT
[22:17:41.300718] [230] ATTITUDE_TARGET
[22:17:41.392662] [12] RADIO
[22:17:41.395723] [12] RADIO_STATUS
[22:17:41.638732] [231] VFR_HUD
[22:17:42.433934] [233] VFR_HUD
[22:17:42.460804] [13] RADIO
[22:17:42.464009] [13] RADIO_STATUS
[22:17:43.255848] [234] HEARTBEAT
[22:17:43.262813] [235] SYS_STATUS
[22:17:43.302839] [236] BATTERY_STATUS
[22:17:43.310803] [237] ATTITUDE_TARGET
[22:17:43.314867] [238] VFR_HUD
[22:17:43.464822] [14] RADIO
[22:17:43.466784] [14] RADIO_STATUS
[22:17:44.280981] [239] VFR_HUD
[22:17:44.284048] [240] HEARTBEAT
[22:17:44.384114] [15] RADIO
[22:17:44.387044] [15] RADIO_STATUS
[22:17:45.204164] [242] HEARTBEAT
[22:17:45.212111] [243] ATTITUDE_TARGET
[22:17:45.424083] [16] RADIO
[22:17:45.427123] [16] RADIO_STATUS
[22:17:46.235251] [245] HEARTBEAT
[22:17:46.454161] [17] RADIO
[22:17:46.457279] [17] RADIO_STATUS
[22:17:46.574176] [246] VFR_HUD
[22:17:47.396375] [249] BATTERY_STATUS
[22:17:47.398322] [250] EXTENDED_SYS_STATE
[22:17:47.518300] [251] ATTITUDE_TARGET
[22:17:47.522304] [252] VFR_HUD
[22:17:47.526337] [253] SYSTEM_TIME
[22:17:47.555386] [18] RADIO
[22:17:47.558303] [18] RADIO_STATUS
[22:17:48.074531] [254] VFR_HUD
[22:17:48.185438] [255] HEARTBEAT
[22:17:48.523462] [19] RADIO
[22:17:48.526332] [19] RADIO_STATUS
[22:17:48.874414] [0] VFR_HUD
[22:17:49.238543] [1] HEARTBEAT
[22:17:49.246476] [2] ATTITUDE_TARGET
[22:17:49.443500] [20] RADIO
[22:17:49.446509] [20] RADIO_STATUS
[22:17:49.689578] [3] VFR_HUD
[22:17:50.483677] [5] VFR_HUD
[22:17:50.510662] [21] RADIO
[22:17:50.513577] [21] RADIO_STATUS
[22:17:51.306729] [6] HEARTBEAT
[22:17:51.312761] [7] SYS_STATUS
[22:17:51.352692] [8] BATTERY_STATUS
[22:17:51.360691] [9] ATTITUDE_TARGET
[22:17:51.365634] [10] VFR_HUD
[22:17:51.514673] [22] RADIO
[22:17:51.517684] [22] RADIO_STATUS
[22:17:52.220870] [11] VFR_HUD
[22:17:52.223832] [12] HEARTBEAT
[22:17:52.434885] [23] RADIO
[22:17:52.437874] [23] RADIO_STATUS
[22:17:52.789910] [13] VFR_HUD
[22:17:53.254951] [14] HEARTBEAT
[22:17:53.262013] [15] ATTITUDE_TARGET
[22:17:53.474995] [24] RADIO
[22:17:53.478313] [24] RADIO_STATUS
[22:17:53.595154] [16] VFR_HUD
[22:17:54.286221] [17] HEARTBEAT
[22:17:54.395109] [18] VFR_HUD
[22:17:54.427145] [25] RADIO
[22:17:54.430158] [25] RADIO_STATUS
[22:17:55.424300] [26] RADIO
[22:17:55.427144] [26] RADIO_STATUS
[22:17:56.230326] [25] HEARTBEAT
[22:17:56.574388] [27] RADIO
[22:17:56.577272] [27] RADIO_STATUS
[22:17:56.814415] [26] VFR_HUD
[22:17:57.284434] [27] HEARTBEAT
[22:17:57.291446] [28] ATTITUDE_TARGET
[22:17:57.493402] [28] RADIO
[22:17:57.496340] [28] RADIO_STATUS
[22:17:58.190612] [30] HEARTBEAT
[22:17:58.429629] [31] VFR_HUD
[22:17:58.550602] [29] RADIO
[22:17:58.553625] [29] RADIO_STATUS
[22:17:59.232688] [32] HEARTBEAT
[22:17:59.238652] [33] SYS_STATUS
[22:17:59.353652] [34] BATTERY_STATUS
[22:17:59.563715] [30] RADIO
[22:17:59.566752] [30] RADIO_STATUS
[22:18:00.039749] [37] VFR_HUD
[22:18:00.261895] [38] HEARTBEAT
[22:18:00.483808] [31] RADIO
[22:18:00.486742] [31] RADIO_STATUS
[22:18:00.834814] [39] VFR_HUD
[22:18:01.179919] [40] HEARTBEAT
[22:18:01.303050] [41] ATTITUDE_TARGET
[22:18:01.528947] [32] RADIO
[22:18:01.532082] [32] RADIO_STATUS
[22:18:01.648962] [42] VFR_HUD
[22:18:02.457820] [44] VFR_HUD
[22:18:02.471120] [33] RADIO
[22:18:02.474015] [33] RADIO_STATUS
[22:18:03.473182] [34] RADIO
[22:18:03.476072] [34] RADIO_STATUS
[22:18:04.279310] [51] HEARTBEAT
[22:18:04.623242] [35] RADIO
[22:18:04.626317] [35] RADIO_STATUS
[22:18:04.863403] [52] VFR_HUD
[22:18:05.332435] [53] HEARTBEAT
[22:18:05.339358] [54] ATTITUDE_TARGET
[22:18:05.542393] [36] RADIO
[22:18:05.545335] [36] RADIO_STATUS
[22:18:06.243602] [56] HEARTBEAT
[22:18:06.473515] [57] VFR_HUD
[22:18:06.587505] [37] RADIO
[22:18:06.590600] [37] RADIO_STATUS
[22:18:07.280754] [58] HEARTBEAT
[22:18:07.287592] [59] SYS_STATUS
[22:18:07.405612] [60] BATTERY_STATUS
[22:18:07.406561] [61] EXTENDED_SYS_STATE
[22:18:07.612628] [38] RADIO
[22:18:07.615606] [38] RADIO_STATUS
[22:18:08.088735] [65] VFR_HUD
[22:18:08.532849] [39] RADIO
[22:18:08.534743] [39] RADIO_STATUS
[22:18:08.882740] [67] VFR_HUD
[22:18:09.248634] [68] HEARTBEAT
[22:18:09.254839] [69] ATTITUDE_TARGET
[22:18:09.571853] [40] RADIO
[22:18:09.574849] [40] RADIO_STATUS
[22:18:09.697863] [70] VFR_HUD
[22:18:10.519971] [41] RADIO
[22:18:10.522912] [41] RADIO_STATUS
[22:18:11.178032] [73] HEARTBEAT
[22:18:11.198008] [74] SYS_STATUS
[22:18:11.246037] [75] BATTERY_STATUS
[22:18:11.254017] [76] ATTITUDE_TARGET
[22:18:11.259024] [77] VFR_HUD
[22:18:11.523083] [42] RADIO
[22:18:11.526067] [42] RADIO_STATUS
[22:18:12.234293] [78] VFR_HUD
[22:18:12.237180] [79] HEARTBEAT
[22:18:12.672267] [43] RADIO
[22:18:12.675159] [43] RADIO_STATUS
[22:18:13.387361] [81] HEARTBEAT
[22:18:13.394422] [82] ATTITUDE_TARGET
[22:18:13.592314] [44] RADIO
[22:18:13.595294] [44] RADIO_STATUS
[22:18:14.293469] [84] HEARTBEAT
[22:18:14.632512] [45] RADIO
[22:18:14.636470] [45] RADIO_STATUS
[22:18:15.220517] [86] HEARTBEAT
[22:18:15.227462] [87] SYS_STATUS
[22:18:15.345887] [88] BATTERY_STATUS
[22:18:15.353504] [89] ATTITUDE_TARGET
[22:18:15.383571] [90] VFR_HUD
[22:18:15.662570] [46] RADIO
[22:18:15.664515] [46] RADIO_STATUS
[22:18:16.581654] [47] RADIO
[22:18:16.584613] [47] RADIO_STATUS
[22:18:16.827748] [93] VFR_HUD
[22:18:17.296733] [94] HEARTBEAT
[22:18:17.304687] [95] ATTITUDE_TARGET
[22:18:17.621721] [96] VFR_HUD
[22:18:17.648811] [48] RADIO
[22:18:17.651631] [48] RADIO_STATUS
[22:18:18.437155] [98] VFR_HUD
[22:18:18.650959] [49] RADIO
[22:18:18.653842] [49] RADIO_STATUS
[22:18:19.238971] [99] HEARTBEAT
[22:18:19.245918] [100] SYS_STATUS
[22:18:19.570986] [50] RADIO
[22:18:19.573997] [50] RADIO_STATUS
[22:18:20.046058] [104] VFR_HUD
[22:18:20.267086] [105] HEARTBEAT
[22:18:20.720076] [51] RADIO
[22:18:20.723106] [51] RADIO_STATUS
[22:18:21.186226] [107] HEARTBEAT
[22:18:21.209178] [108] ATTITUDE_TARGET
[22:18:21.640229] [52] RADIO
[22:18:21.643230] [52] RADIO_STATUS
[22:18:22.216366] [110] HEARTBEAT
[22:18:22.679355] [53] RADIO
[22:18:22.682331] [53] RADIO_STATUS
[22:18:23.267461] [112] HEARTBEAT
[22:18:23.274420] [113] SYS_STATUS
[22:18:23.393498] [114] BATTERY_STATUS
[22:18:23.400494] [115] ATTITUDE_TARGET
[22:18:23.430678] [116] VFR_HUD
[22:18:23.709517] [54] RADIO
[22:18:23.712941] [54] RADIO_STATUS
[22:18:24.628719] [55] RADIO
[22:18:24.631558] [55] RADIO_STATUS
[22:18:24.869688] [119] VFR_HUD
[22:18:25.337699] [120] HEARTBEAT
[22:18:25.345643] [121] ATTITUDE_TARGET
[22:18:25.668641] [122] VFR_HUD
[22:18:25.701694] [56] RADIO
[22:18:25.704709] [56] RADIO_STATUS
[22:18:26.483775] [124] VFR_HUD
[22:18:26.697869] [57] RADIO
[22:18:26.700861] [57] RADIO_STATUS
[22:18:27.286061] [125] HEARTBEAT
[22:18:27.292847] [126] SYS_STATUS
[22:18:27.409953] [127] BATTERY_STATUS
[22:18:27.411793] [128] EXTENDED_SYS_STATE
[22:18:27.616913] [58] RADIO
[22:18:27.619928] [58] RADIO_STATUS
[22:18:28.092942] [132] VFR_HUD
[22:18:28.767013] [59] RADIO
[22:18:28.769972] [59] RADIO_STATUS
[22:18:29.251099] [135] HEARTBEAT
[22:18:29.259072] [136] ATTITUDE_TARGET
[22:18:29.686281] [60] RADIO
[22:18:29.689035] [60] RADIO_STATUS
[22:18:30.262183] [138] HEARTBEAT
[22:18:30.731167] [61] RADIO
[22:18:30.734192] [61] RADIO_STATUS
[22:18:31.315453] [142] BATTERY_STATUS
[22:18:31.433507] [143] ATTITUDE_TARGET
[22:18:31.438294] [144] VFR_HUD
[22:18:31.755291] [62] RADIO
[22:18:31.758226] [62] RADIO_STATUS
[22:18:32.227378] [146] HEARTBEAT
[22:18:32.675421] [63] RADIO
[22:18:32.678336] [63] RADIO_STATUS
[22:18:33.384525] [148] HEARTBEAT
[22:18:33.392452] [149] ATTITUDE_TARGET
[22:18:33.606544] [150] VFR_HUD
[22:18:33.720465] [64] RADIO
[22:18:33.723483] [64] RADIO_STATUS
[22:18:34.296501] [151] HEARTBEAT
[22:18:34.745393] [65] RADIO
[22:18:34.747485] [65] RADIO_STATUS
[22:18:35.228630] [153] HEARTBEAT
[22:18:35.234621] [154] SYS_STATUS
[22:18:35.274643] [155] BATTERY_STATUS
[22:18:35.282638] [156] ATTITUDE_TARGET
[22:18:35.287527] [157] VFR_HUD
[22:18:35.664657] [66] RADIO
[22:18:35.667678] [66] RADIO_STATUS
[22:18:36.016776] [158] VFR_HUD
[22:18:36.815853] [67] RADIO
[22:18:36.818860] [67] RADIO_STATUS
[22:18:36.854897] [160] VFR_HUD
[22:18:37.300972] [161] HEARTBEAT
[22:18:37.308867] [162] ATTITUDE_TARGET
[22:18:37.626926] [163] VFR_HUD
[22:18:37.653886] [68] RADIO
[22:18:37.656955] [68] RADIO_STATUS
[22:18:38.201984] [164] HEARTBEAT
[22:18:38.442074] [165] VFR_HUD
[22:18:38.656091] [69] RADIO
[22:18:38.659010] [69] RADIO_STATUS
[22:18:39.370296] [168] BATTERY_STATUS
[22:18:39.483211] [169] ATTITUDE_TARGET
[22:18:39.487077] [170] VFR_HUD
[22:18:39.805144] [70] RADIO
[22:18:39.808114] [70] RADIO_STATUS
[22:18:40.276188] [172] HEARTBEAT
[22:18:40.725278] [71] RADIO
[22:18:40.728204] [71] RADIO_STATUS
[22:18:40.845246] [173] VFR_HUD
[22:18:41.655379] [176] VFR_HUD
[22:18:41.769883] [72] RADIO
[22:18:41.770026] [72] RADIO_STATUS
[22:18:42.220476] [177] HEARTBEAT
[22:18:42.794496] [73] RADIO
[22:18:42.797630] [73] RADIO_STATUS
[22:18:43.272553] [179] HEARTBEAT
[22:18:43.279522] [180] SYS_STATUS
[22:18:43.398594] [181] BATTERY_STATUS
[22:18:43.405584] [182] ATTITUDE_TARGET
[22:18:43.436551] [183] VFR_HUD
[22:18:43.714574] [74] RADIO
[22:18:43.717543] [74] RADIO_STATUS
[22:18:44.065747] [184] VFR_HUD
[22:18:44.180661] [185] HEARTBEAT
[22:18:44.864717] [75] RADIO
[22:18:44.867685] [75] RADIO_STATUS
[22:18:44.902724] [186] VFR_HUD
[22:18:45.223766] [187] HEARTBEAT
[22:18:45.231693] [188] ATTITUDE_TARGET
[22:18:45.674802] [189] VFR_HUD
[22:18:45.706782] [76] RADIO
[22:18:45.709729] [76] RADIO_STATUS
[22:18:46.250002] [190] HEARTBEAT
[22:18:46.489907] [191] VFR_HUD
[22:18:46.703871] [77] RADIO
[22:18:46.706859] [77] RADIO_STATUS
[22:18:47.416034] [194] BATTERY_STATUS
[22:18:47.417948] [195] EXTENDED_SYS_STATE
[22:18:47.537952] [196] ATTITUDE_TARGET
[22:18:47.542965] [197] VFR_HUD
[22:18:47.545988] [198] SYSTEM_TIME
[22:18:47.852985] [78] RADIO
[22:18:47.855929] [78] RADIO_STATUS
[22:18:48.773147] [79] RADIO
[22:18:48.776074] [79] RADIO_STATUS
[22:18:49.693169] [80] RADIO
[22:18:49.696174] [80] RADIO_STATUS
[22:18:50.269297] [205] HEARTBEAT
[22:18:50.842280] [81] RADIO
[22:18:50.845296] [81] RADIO_STATUS
[22:18:51.762489] [82] RADIO
[22:18:51.765364] [82] RADIO_STATUS
[22:18:52.243562] [212] VFR_HUD
[22:18:52.246994] [213] HEARTBEAT
[22:18:52.913582] [83] RADIO
[22:18:52.915510] [83] RADIO_STATUS
[22:18:53.271604] [215] HEARTBEAT
[22:18:53.279532] [216] ATTITUDE_TARGET
[22:18:53.617531] [217] VFR_HUD
[22:18:53.738600] [84] RADIO
[22:18:53.741564] [84] RADIO_STATUS
[22:18:54.412683] [219] VFR_HUD
[22:18:54.751699] [85] RADIO
[22:18:54.754638] [85] RADIO_STATUS
[22:18:55.234803] [220] HEARTBEAT
[22:18:55.241773] [221] SYS_STATUS
[22:18:55.281765] [222] BATTERY_STATUS
[22:18:55.288816] [223] ATTITUDE_TARGET
[22:18:55.293756] [224] VFR_HUD
[22:18:55.907114] [86] RADIO
[22:18:55.907279] [86] RADIO_STATUS
[22:18:56.378876] [225] VFR_HUD
[22:18:56.381829] [226] HEARTBEAT
[22:18:56.822995] [87] RADIO
[22:18:56.825870] [87] RADIO_STATUS
[22:18:56.860933] [227] VFR_HUD
[22:18:57.743018] [88] RADIO
[22:18:57.746105] [88] RADIO_STATUS
[22:18:58.214160] [231] HEARTBEAT
[22:18:58.892420] [89] RADIO
[22:18:58.895420] [89] RADIO_STATUS
[22:18:59.377344] [235] BATTERY_STATUS
[22:18:59.489299] [236] ATTITUDE_TARGET
[22:18:59.494453] [237] VFR_HUD
[22:18:59.812495] [90] RADIO
[22:18:59.815353] [90] RADIO_STATUS
[22:19:00.052368] [238] VFR_HUD
[22:19:00.283405] [239] HEARTBEAT
[22:19:00.965480] [91] RADIO
[22:19:00.965641] [91] RADIO_STATUS
[22:19:01.211652] [241] HEARTBEAT
[22:19:01.219488] [242] ATTITUDE_TARGET
[22:19:01.662568] [243] VFR_HUD
[22:19:01.771481] [92] RADIO
[22:19:01.774458] [92] RADIO_STATUS
[22:19:02.462578] [245] VFR_HUD
[22:19:02.801633] [93] RADIO
[22:19:02.804581] [93] RADIO_STATUS
[22:19:03.284704] [246] HEARTBEAT
[22:19:03.291722] [247] SYS_STATUS
[22:19:03.330645] [248] BATTERY_STATUS
[22:19:03.338645] [249] ATTITUDE_TARGET
[22:19:03.343647] [250] VFR_HUD
[22:19:03.950868] [94] RADIO
[22:19:03.953698] [94] RADIO_STATUS
[22:19:04.024809] [251] VFR_HUD
[22:19:04.760963] [95] RADIO
[22:19:04.764002] [95] RADIO_STATUS
[22:19:04.886921] [253] VFR_HUD
[22:19:05.230852] [254] HEARTBEAT
[22:19:05.237887] [255] ATTITUDE_TARGET
[22:19:05.680888] [0] VFR_HUD
[22:19:05.790994] [96] RADIO
[22:19:05.792972] [96] RADIO_STATUS
[22:19:06.256973] [1] HEARTBEAT
[22:19:06.830070] [97] RADIO
[22:19:06.833026] [97] RADIO_STATUS
[22:19:07.177202] [3] HEARTBEAT
[22:19:07.196350] [4] SYS_STATUS
[22:19:07.235168] [5] BATTERY_STATUS
[22:19:07.237019] [6] EXTENDED_SYS_STATE
[22:19:07.245957] [7] ATTITUDE_TARGET
[22:19:07.249045] [8] VFR_HUD
[22:19:07.253163] [9] SYSTEM_TIME
[22:19:07.860227] [98] RADIO
[22:19:07.863213] [98] RADIO_STATUS
[22:19:08.101206] [10] VFR_HUD
[22:19:08.206218] [11] HEARTBEAT
[22:19:08.779279] [99] RADIO
[22:19:08.782279] [99] RADIO_STATUS
[22:19:09.259324] [13] HEARTBEAT
[22:19:09.267280] [14] ATTITUDE_TARGET
[22:19:09.819361] [100] RADIO
[22:19:09.822441] [100] RADIO_STATUS
[22:19:10.275470] [16] HEARTBEAT
[22:19:10.400432] [17] VFR_HUD
[22:19:10.849426] [101] RADIO
[22:19:10.852452] [101] RADIO_STATUS
[22:19:11.329621] [20] BATTERY_STATUS
[22:19:11.676628] [21] ATTITUDE_TARGET
[22:19:11.681520] [22] VFR_HUD
[22:19:11.999586] [102] RADIO
[22:19:12.002545] [102] RADIO_STATUS
[22:19:12.037601] [23] VFR_HUD
[22:19:12.809790] [25] VFR_HUD
[22:19:12.842682] [103] RADIO
[22:19:12.844628] [103] RADIO_STATUS
[22:19:13.279059] [26] HEARTBEAT
[22:19:13.286718] [27] ATTITUDE_TARGET
[22:19:13.624887] [28] VFR_HUD
[22:19:13.838831] [104] RADIO
[22:19:13.841852] [104] RADIO_STATUS
[22:19:14.420096] [30] VFR_HUD
[22:19:14.881249] [105] RADIO
[22:19:14.881908] [105] RADIO_STATUS
[22:19:15.241956] [31] HEARTBEAT
[22:19:15.248933] [32] SYS_STATUS
[22:19:15.288910] [33] BATTERY_STATUS
[22:19:15.295930] [34] ATTITUDE_TARGET
[22:19:15.300880] [35] VFR_HUD
[22:19:15.910007] [106] RADIO
[22:19:15.912924] [106] RADIO_STATUS
[22:19:16.266979] [36] VFR_HUD
[22:19:16.270062] [37] HEARTBEAT
[22:19:16.830062] [107] RADIO
[22:19:16.833001] [107] RADIO_STATUS
[22:19:17.176080] [39] HEARTBEAT
