[22:07:43.326013] [50] HEARTBEAT
[22:07:43.331972] [51] SYS_STATUS
[22:07:43.451117] [52] BATTERY_STATUS
[22:07:43.459041] [53] ATTITUDE_TARGET
[22:07:43.488989] [54] VFR_HUD
[22:07:43.517110] [190] RADIO
[22:07:43.520017] [190] RADIO_STATUS
[22:07:44.118136] [55] VFR_HUD
[22:07:44.239110] [56] HEARTBEAT
[22:07:44.457134] [191] RADIO
[22:07:44.460139] [191] RADIO_STATUS
[22:07:44.928183] [57] VFR_HUD
[22:07:45.277336] [58] HEARTBEAT
[22:07:45.285258] [59] ATTITUDE_TARGET
[22:07:45.497334] [192] RADIO
[22:07:45.500265] [192] RADIO_STATUS
[22:07:45.623288] [60] VFR_HUD
[22:07:46.308497] [61] HEARTBEAT
[22:07:46.417379] [62] VFR_HUD
[22:07:46.527567] [193] RADIO
[22:07:46.530565] [193] RADIO_STATUS
[22:07:47.240531] [63] HEARTBEAT
[22:07:47.247616] [64] SYS_STATUS
[22:07:47.281590] [65] BATTERY_STATUS
[22:07:47.283476] [66] EXTENDED_SYS_STATE
[22:07:47.290735] [67] ATTITUDE_TARGET
[22:07:47.295534] [68] VFR_HUD
[22:07:47.299591] [69] SYSTEM_TIME
[22:07:47.566652] [194] RADIO
[22:07:47.569464] [194] RADIO_STATUS
[22:07:48.027606] [70] VFR_HUD
[22:07:48.252708] [71] HEARTBEAT
[22:07:48.491655] [195] RADIO
[22:07:48.494561] [195] RADIO_STATUS
[22:07:48.842634] [72] VFR_HUD
[22:07:49.311658] [73] HEARTBEAT
[22:07:49.319712] [74] ATTITUDE_TARGET
[22:07:49.516749] [196] RADIO
[22:07:49.519612] [196] RADIO_STATUS
[22:07:49.636734] [75] VFR_HUD
[22:07:50.217790] [76] HEARTBEAT
[22:07:50.446887] [77] VFR_HUD
[22:07:50.561869] [197] RADIO
[22:07:50.564803] [197] RADIO_STATUS
[22:07:51.254991] [78] HEARTBEAT
[22:07:51.260972] [79] SYS_STATUS
[22:07:51.380984] [80] BATTERY_STATUS
[22:07:51.494291] [81] ATTITUDE_TARGET
[22:07:51.497995] [82] VFR_HUD
[22:07:51.531998] [198] RADIO
[22:07:51.534908] [198] RADIO_STATUS
[22:07:52.057168] [83] VFR_HUD
[22:07:52.287101] [84] HEARTBEAT
[22:07:52.506175] [199] RADIO
[22:07:52.509145] [199] RADIO_STATUS
[22:07:52.857145] [85] VFR_HUD
[22:07:53.325300] [86] HEARTBEAT
[22:07:53.333206] [87] ATTITUDE_TARGET
[22:07:53.551292] [200] RADIO
[22:07:53.553149] [200] RADIO_STATUS
[22:07:53.666211] [88] VFR_HUD
[22:07:54.231353] [89] HEARTBEAT
[22:07:54.466324] [90] VFR_HUD
[22:07:54.575389] [201] RADIO
[22:07:54.578342] [201] RADIO_STATUS
[22:07:55.283442] [91] HEARTBEAT
[22:07:55.290464] [92] SYS_STATUS
[22:07:55.408473] [93] BATTERY_STATUS
[22:07:55.416466] [94] ATTITUDE_TARGET
[22:07:55.446476] [95] VFR_HUD
[22:07:55.620436] [202] RADIO
[22:07:55.623378] [202] RADIO_STATUS
[22:07:56.075625] [96] VFR_HUD
[22:07:56.301716] [97] HEARTBEAT
[22:07:56.539704] [203] RADIO
[22:07:56.542542] [203] RADIO_STATUS
[22:07:56.890594] [98] VFR_HUD
[22:07:57.234652] [99] HEARTBEAT
[22:07:57.242709] [100] ATTITUDE_TARGET
[22:07:57.564718] [204] RADIO
[22:07:57.567690] [204] RADIO_STATUS
[22:07:57.685752] [101] VFR_HUD
[22:07:58.260733] [102] HEARTBEAT
[22:07:58.500713] [103] VFR_HUD
[22:07:58.621702] [205] RADIO
[22:07:58.623830] [205] RADIO_STATUS
[22:07:59.302911] [104] HEARTBEAT
[22:07:59.309891] [105] SYS_STATUS
[22:07:59.451828] [106] BATTERY_STATUS
[22:07:59.475845] [107] ATTITUDE_TARGET
[22:07:59.480819] [108] VFR_HUD
[22:07:59.524865] [206] RADIO
[22:07:59.527820] [206] RADIO_STATUS
[22:08:00.109975] [109] VFR_HUD
[22:08:00.221946] [110] HEARTBEAT
[22:08:00.554150] [207] RADIO
[22:08:00.556976] [207] RADIO_STATUS
[22:08:00.904958] [111] VFR_HUD
[22:08:01.264074] [112] HEARTBEAT
[22:08:01.271989] [113] ATTITUDE_TARGET
[22:08:01.594300] [208] RADIO
[22:08:01.597171] [208] RADIO_STATUS
[22:08:01.715201] [114] VFR_HUD
[22:08:02.280156] [115] HEARTBEAT
[22:08:02.515234] [116] VFR_HUD
[22:08:02.542205] [209] RADIO
[22:08:02.545194] [209] RADIO_STATUS
[22:08:03.205383] [117] HEARTBEAT
[22:08:03.225385] [118] SYS_STATUS
[22:08:03.268281] [119] BATTERY_STATUS
[22:08:03.276264] [120] ATTITUDE_TARGET
[22:08:03.281247] [121] VFR_HUD
[22:08:03.545291] [210] RADIO
[22:08:03.548251] [210] RADIO_STATUS
[22:08:04.021383] [122] VFR_HUD
[22:08:04.241645] [123] HEARTBEAT
[22:08:04.585511] [211] RADIO
[22:08:04.588362] [211] RADIO_STATUS
[22:08:04.821590] [124] VFR_HUD
[22:08:05.285649] [125] HEARTBEAT
[22:08:05.294025] [126] ATTITUDE_TARGET
[22:08:05.615521] [212] RADIO
[22:08:05.618630] [212] RADIO_STATUS
[22:08:05.653606] [127] VFR_HUD
[22:08:06.311763] [128] HEARTBEAT
[22:08:06.425725] [129] VFR_HUD
[22:08:06.655619] [213] RADIO
[22:08:06.658584] [213] RADIO_STATUS
[22:08:07.248703] [130] HEARTBEAT
[22:08:07.255685] [131] SYS_STATUS
[22:08:07.289757] [132] BATTERY_STATUS
[22:08:07.291745] [133] EXTENDED_SYS_STATE
[22:08:07.299728] [134] ATTITUDE_TARGET
[22:08:07.304702] [135] VFR_HUD
[22:08:07.307640] [136] SYSTEM_TIME
[22:08:07.575741] [214] RADIO
[22:08:07.577712] [214] RADIO_STATUS
[22:08:08.035833] [137] VFR_HUD
[22:08:08.260958] [138] HEARTBEAT
[22:08:08.605002] [215] RADIO
[22:08:08.607784] [215] RADIO_STATUS
[22:08:08.845986] [139] VFR_HUD
[22:08:09.319979] [140] HEARTBEAT
[22:08:09.327979] [141] ATTITUDE_TARGET
[22:08:09.646028] [142] VFR_HUD
[22:08:09.673001] [216] RADIO
[22:08:09.676033] [216] RADIO_STATUS
[22:08:10.226127] [143] HEARTBEAT
[22:08:10.455221] [144] VFR_HUD
[22:08:10.675108] [217] RADIO
[22:08:10.678171] [217] RADIO_STATUS
[22:08:11.263292] [145] HEARTBEAT
[22:08:11.270143] [146] SYS_STATUS
[22:08:11.390304] [147] BATTERY_STATUS
[22:08:11.502345] [148] ATTITUDE_TARGET
[22:08:11.507286] [149] VFR_HUD
[22:08:11.594201] [218] RADIO
[22:08:11.597224] [218] RADIO_STATUS
[22:08:12.065296] [150] VFR_HUD
[22:08:12.296391] [151] HEARTBEAT
[22:08:12.634281] [219] RADIO
[22:08:12.637240] [219] RADIO_STATUS
[22:08:12.865425] [152] VFR_HUD
[22:08:13.229480] [153] HEARTBEAT
[22:08:13.237451] [154] ATTITUDE_TARGET
[22:08:13.664525] [220] RADIO
[22:08:13.667524] [220] RADIO_STATUS
[22:08:13.785421] [155] VFR_HUD
[22:08:14.240505] [156] HEARTBEAT
[22:08:14.474575] [157] VFR_HUD
[22:08:14.583513] [221] RADIO
[22:08:14.586483] [221] RADIO_STATUS
[22:08:15.296711] [158] HEARTBEAT
[22:08:15.303600] [159] SYS_STATUS
[22:08:15.343649] [160] BATTERY_STATUS
[22:08:15.350668] [161] ATTITUDE_TARGET
[22:08:15.355585] [162] VFR_HUD
[22:08:15.628741] [222] RADIO
[22:08:15.631696] [222] RADIO_STATUS
[22:08:16.319788] [163] VFR_HUD
[22:08:16.322868] [164] HEARTBEAT
[22:08:16.652863] [223] RADIO
[22:08:16.655672] [223] RADIO_STATUS
[22:08:16.898779] [165] VFR_HUD
[22:08:17.242966] [166] HEARTBEAT
[22:08:17.250809] [167] ATTITUDE_TARGET
[22:08:17.692878] [168] VFR_HUD
[22:08:17.725840] [224] RADIO
[22:08:17.728869] [224] RADIO_STATUS
[22:08:18.268935] [169] HEARTBEAT
[22:08:18.508100] [170] VFR_HUD
[22:08:18.629058] [225] RADIO
[22:08:18.631937] [225] RADIO_STATUS
[22:08:19.310250] [171] HEARTBEAT
[22:08:19.317031] [172] SYS_STATUS
[22:08:19.437036] [173] BATTERY_STATUS
[22:08:19.550222] [174] ATTITUDE_TARGET
[22:08:19.554116] [175] VFR_HUD
[22:08:19.642160] [226] RADIO
[22:08:19.645167] [226] RADIO_STATUS
[22:08:20.113055] [176] VFR_HUD
[22:08:20.218092] [177] HEARTBEAT
[22:08:20.687375] [227] RADIO
[22:08:20.690252] [227] RADIO_STATUS
[22:08:20.913383] [178] VFR_HUD
[22:08:21.272227] [179] HEARTBEAT
[22:08:21.280309] [180] ATTITUDE_TARGET
[22:08:21.712265] [228] RADIO
[22:08:21.715178] [228] RADIO_STATUS
[22:08:21.832333] [181] VFR_HUD
[22:08:22.288375] [182] HEARTBEAT
[22:08:22.417313] [183] VFR_HUD
[22:08:22.631425] [229] RADIO
[22:08:22.634384] [229] RADIO_STATUS
[22:08:23.207453] [184] HEARTBEAT
[22:08:23.227386] [185] SYS_STATUS
[22:08:23.276543] [186] BATTERY_STATUS
[22:08:23.284423] [187] ATTITUDE_TARGET
[22:08:23.288386] [188] VFR_HUD
[22:08:23.678479] [230] RADIO
[22:08:23.681460] [230] RADIO_STATUS
[22:08:24.259550] [189] VFR_HUD
[22:08:24.262562] [190] HEARTBEAT
[22:08:24.702615] [231] RADIO
[22:08:24.705639] [231] RADIO_STATUS
[22:08:24.823642] [191] VFR_HUD
[22:08:25.292624] [192] HEARTBEAT
[22:08:25.300685] [193] ATTITUDE_TARGET
[22:08:25.638793] [194] VFR_HUD
[22:08:25.759644] [232] RADIO
[22:08:25.762654] [232] RADIO_STATUS
[22:08:26.318694] [195] HEARTBEAT
[22:08:26.433801] [196] VFR_HUD
[22:08:26.662781] [233] RADIO
[22:08:26.665755] [233] RADIO_STATUS
[22:08:27.250800] [197] HEARTBEAT
[22:08:27.257910] [198] SYS_STATUS
[22:08:27.379092] [199] BATTERY_STATUS
[22:08:27.380858] [200] EXTENDED_SYS_STATE
[22:08:27.388951] [201] ATTITUDE_TARGET
[22:08:27.392900] [202] VFR_HUD
[22:08:27.396752] [203] SYSTEM_TIME
[22:08:27.692828] [234] RADIO
[22:08:27.694791] [234] RADIO_STATUS
[22:08:28.043112] [204] VFR_HUD
[22:08:28.268050] [205] HEARTBEAT
[22:08:28.732033] [235] RADIO
[22:08:28.734897] [235] RADIO_STATUS
[22:08:28.853010] [206] VFR_HUD
[22:08:29.322102] [207] HEARTBEAT
[22:08:29.330085] [208] ATTITUDE_TARGET
[22:08:29.653148] [209] VFR_HUD
[22:08:29.680073] [236] RADIO
[22:08:29.683088] [236] RADIO_STATUS
[22:08:30.233189] [210] HEARTBEAT
[22:08:30.462143] [211] VFR_HUD
[22:08:30.682137] [237] RADIO
[22:08:30.685162] [237] RADIO_STATUS
[22:08:31.270281] [212] HEARTBEAT
[22:08:31.276220] [213] SYS_STATUS
[22:08:31.391229] [214] BATTERY_STATUS
[22:08:31.509352] [215] ATTITUDE_TARGET
[22:08:31.514256] [216] VFR_HUD
[22:08:31.721335] [238] RADIO
[22:08:31.724301] [238] RADIO_STATUS
[22:08:32.072337] [217] VFR_HUD
[22:08:32.303338] [218] HEARTBEAT
[22:08:32.751598] [239] RADIO
[22:08:32.754343] [239] RADIO_STATUS
[22:08:32.872347] [219] VFR_HUD
[22:08:33.236494] [220] HEARTBEAT
[22:08:33.244477] [221] ATTITUDE_TARGET
[22:08:33.671506] [240] RADIO
[22:08:33.674449] [240] RADIO_STATUS
[22:08:33.709577] [222] VFR_HUD
[22:08:34.247605] [223] HEARTBEAT
[22:08:34.481791] [224] VFR_HUD
[22:08:34.711700] [241] RADIO
[22:08:34.713674] [241] RADIO_STATUS
[22:08:35.304757] [225] HEARTBEAT
[22:08:35.311687] [226] SYS_STATUS
[22:08:35.350716] [227] BATTERY_STATUS
[22:08:35.358699] [228] ATTITUDE_TARGET
[22:08:35.363730] [229] VFR_HUD
[22:08:35.740950] [242] RADIO
[22:08:35.743850] [242] RADIO_STATUS
[22:08:36.091848] [230] VFR_HUD
[22:08:36.213863] [231] HEARTBEAT
[22:08:36.780953] [243] RADIO
[22:08:36.783952] [243] RADIO_STATUS
[22:08:36.906970] [232] VFR_HUD
[22:08:37.251196] [233] HEARTBEAT
[22:08:37.259146] [234] ATTITUDE_TARGET
[22:08:37.701048] [235] VFR_HUD
[22:08:37.728008] [244] RADIO
[22:08:37.730976] [244] RADIO_STATUS
[22:08:38.282249] [236] HEARTBEAT
[22:08:38.511225] [237] VFR_HUD
[22:08:38.730155] [245] RADIO
[22:08:38.733156] [245] RADIO_STATUS
[22:08:39.318271] [238] HEARTBEAT
[22:08:39.325236] [239] SYS_STATUS
[22:08:39.445374] [240] BATTERY_STATUS
[22:08:39.557280] [241] ATTITUDE_TARGET
[22:08:39.562182] [242] VFR_HUD
[22:08:39.770361] [246] RADIO
[22:08:39.773296] [246] RADIO_STATUS
[22:08:40.121328] [243] VFR_HUD
[22:08:40.226413] [244] HEARTBEAT
[22:08:40.695453] [247] RADIO
[22:08:40.698352] [247] RADIO_STATUS
[22:08:40.816495] [245] VFR_HUD
[22:08:41.280478] [246] HEARTBEAT
[22:08:41.287478] [247] ATTITUDE_TARGET
[22:08:41.615471] [248] VFR_HUD
[22:08:41.719462] [248] RADIO
[22:08:41.722402] [248] RADIO_STATUS
[22:08:42.295709] [249] HEARTBEAT
[22:08:42.425494] [250] VFR_HUD
[22:08:42.764539] [249] RADIO
[22:08:42.767493] [249] RADIO_STATUS
[22:08:43.227661] [251] HEARTBEAT
[22:08:43.234645] [252] SYS_STATUS
[22:08:43.348686] [253] BATTERY_STATUS
[22:08:43.466770] [254] ATTITUDE_TARGET
[22:08:43.471639] [255] VFR_HUD
[22:08:43.712756] [250] RADIO
[22:08:43.714698] [250] RADIO_STATUS
[22:08:44.034750] [0] VFR_HUD
[22:08:44.254750] [1] HEARTBEAT
[22:08:44.708747] [251] RADIO
[22:08:44.711808] [251] RADIO_STATUS
[22:08:44.829939] [2] VFR_HUD
[22:08:45.298872] [3] HEARTBEAT
[22:08:45.306842] [4] ATTITUDE_TARGET
[22:08:45.638980] [5] VFR_HUD
[22:08:45.753871] [252] RADIO
[22:08:45.756894] [252] RADIO_STATUS
[22:08:46.204987] [6] HEARTBEAT
[22:08:46.438959] [7] VFR_HUD
[22:08:46.778003] [253] RADIO
[22:08:46.781040] [253] RADIO_STATUS
[22:08:47.256156] [8] HEARTBEAT
[22:08:47.263127] [9] SYS_STATUS
[22:08:47.385119] [10] BATTERY_STATUS
[22:08:47.386064] [11] EXTENDED_SYS_STATE
[22:08:47.394344] [12] ATTITUDE_TARGET
[22:08:47.399029] [13] VFR_HUD
[22:08:47.403092] [14] SYSTEM_TIME
[22:08:47.823200] [254] RADIO
[22:08:47.826096] [254] RADIO_STATUS
[22:08:48.048147] [15] VFR_HUD
[22:08:48.274203] [16] HEARTBEAT
[22:08:48.743385] [255] RADIO
[22:08:48.746241] [255] RADIO_STATUS
[22:08:48.858284] [17] VFR_HUD
[22:08:49.327301] [18] HEARTBEAT
[22:08:49.335343] [19] ATTITUDE_TARGET
[22:08:49.658361] [20] VFR_HUD
[22:08:49.767418] [0] RADIO
[22:08:49.770405] [0] RADIO_STATUS
[22:08:50.233482] [21] HEARTBEAT
[22:08:50.467525] [22] VFR_HUD
[22:08:50.812745] [1] RADIO
[22:08:50.815514] [1] RADIO_STATUS
[22:08:51.275630] [23] HEARTBEAT
[22:08:51.281544] [24] SYS_STATUS
[22:08:51.396610] [25] BATTERY_STATUS
[22:08:51.513741] [26] ATTITUDE_TARGET
[22:08:51.518609] [27] VFR_HUD
[22:08:51.754669] [2] RADIO
[22:08:51.757703] [2] RADIO_STATUS
[22:08:52.082691] [28] VFR_HUD
[22:08:52.302880] [29] HEARTBEAT
[22:08:52.756685] [3] RADIO
[22:08:52.759703] [3] RADIO_STATUS
[22:08:52.876725] [30] VFR_HUD
[22:08:53.240739] [31] HEARTBEAT
[22:08:53.248756] [32] ATTITUDE_TARGET
[22:08:53.691889] [33] VFR_HUD
[22:08:53.813003] [4] RADIO
[22:08:53.815818] [4] RADIO_STATUS
[22:08:54.252154] [34] HEARTBEAT
[22:08:54.486907] [35] VFR_HUD
[22:08:54.826102] [5] RADIO
[22:08:54.828951] [5] RADIO_STATUS
[22:08:55.309262] [36] HEARTBEAT
[22:08:55.316030] [37] SYS_STATUS
[22:08:55.356100] [38] BATTERY_STATUS
[22:08:55.363045] [39] ATTITUDE_TARGET
[22:08:55.367990] [40] VFR_HUD
[22:08:55.866103] [6] RADIO
[22:08:55.869042] [6] RADIO_STATUS
[22:08:56.227147] [41] VFR_HUD
[22:08:56.230095] [42] HEARTBEAT
[22:08:56.785222] [7] RADIO
[22:08:56.788203] [7] RADIO_STATUS
[22:08:56.906279] [43] VFR_HUD
[22:08:57.255407] [44] HEARTBEAT
[22:08:57.263336] [45] ATTITUDE_TARGET
[22:08:57.706345] [46] VFR_HUD
[22:08:57.815281] [8] RADIO
[22:08:57.818339] [8] RADIO_STATUS
[22:08:58.286422] [47] HEARTBEAT
[22:08:58.515476] [48] VFR_HUD
[22:08:58.854662] [9] RADIO
[22:08:58.857429] [9] RADIO_STATUS
[22:08:59.206550] [49] HEARTBEAT
[22:08:59.335531] [50] SYS_STATUS
[22:08:59.343501] [51] BATTERY_STATUS
[22:08:59.452607] [52] ATTITUDE_TARGET
[22:08:59.457536] [53] VFR_HUD
[22:08:59.885571] [10] RADIO
[22:08:59.888652] [10] RADIO_STATUS
[22:09:00.125707] [54] VFR_HUD
[22:09:00.231727] [55] HEARTBEAT
[22:09:00.804735] [11] RADIO
[22:09:00.807573] [11] RADIO_STATUS
[22:09:00.842649] [56] VFR_HUD
[22:09:01.289776] [57] HEARTBEAT
[22:09:01.297810] [58] ATTITUDE_TARGET
[22:09:01.615690] [59] VFR_HUD
[22:09:01.844868] [12] RADIO
[22:09:01.847659] [12] RADIO_STATUS
[22:09:02.301223] [60] HEARTBEAT
[22:09:02.429776] [61] VFR_HUD
[22:09:02.873917] [13] RADIO
[22:09:02.876872] [13] RADIO_STATUS
[22:09:03.232919] [62] HEARTBEAT
[22:09:03.239078] [63] SYS_STATUS
[22:09:03.358917] [64] BATTERY_STATUS
[22:09:03.470954] [65] ATTITUDE_TARGET
[22:09:03.475982] [66] VFR_HUD
[22:09:03.914047] [14] RADIO
[22:09:03.916942] [14] RADIO_STATUS
[22:09:04.034936] [67] VFR_HUD
[22:09:04.260048] [68] HEARTBEAT
[22:09:04.834048] [69] VFR_HUD
[22:09:04.861059] [15] RADIO
[22:09:04.863978] [15] RADIO_STATUS
[22:09:05.303080] [70] HEARTBEAT
[22:09:05.311123] [71] ATTITUDE_TARGET
[22:09:05.644251] [72] VFR_HUD
[22:09:05.863306] [16] RADIO
[22:09:05.866101] [16] RADIO_STATUS
[22:09:06.210266] [73] HEARTBEAT
[22:09:06.444216] [74] VFR_HUD
[22:09:06.903330] [17] RADIO
[22:09:06.906294] [17] RADIO_STATUS
[22:09:07.261324] [75] HEARTBEAT
[22:09:07.268417] [76] SYS_STATUS
[22:09:07.389451] [77] BATTERY_STATUS
[22:09:07.391380] [78] EXTENDED_SYS_STATE
[22:09:07.399352] [79] ATTITUDE_TARGET
[22:09:07.404250] [80] VFR_HUD
[22:09:07.407297] [81] SYSTEM_TIME
[22:09:07.933320] [18] RADIO
[22:09:07.935320] [18] RADIO_STATUS
[22:09:08.053370] [82] VFR_HUD
[22:09:08.279458] [83] HEARTBEAT
[22:09:08.852439] [19] RADIO
[22:09:08.855626] [19] RADIO_STATUS
[22:09:08.973540] [84] VFR_HUD
[22:09:09.332579] [85] HEARTBEAT
[22:09:09.340478] [86] ATTITUDE_TARGET
[22:09:09.663550] [87] VFR_HUD
[22:09:09.892638] [20] RADIO
[22:09:09.895480] [20] RADIO_STATUS
[22:09:10.238645] [88] HEARTBEAT
[22:09:10.478682] [89] VFR_HUD
[22:09:10.921920] [21] RADIO
[22:09:10.924763] [21] RADIO_STATUS
[22:09:11.280711] [90] HEARTBEAT
[22:09:11.286854] [91] SYS_STATUS
[22:09:11.401773] [92] BATTERY_STATUS
[22:09:11.519807] [93] ATTITUDE_TARGET
[22:09:11.524735] [94] VFR_HUD
[22:09:11.961872] [22] RADIO
[22:09:11.964826] [22] RADIO_STATUS
[22:09:12.087846] [95] VFR_HUD
[22:09:12.307973] [96] HEARTBEAT
[22:09:12.882954] [97] VFR_HUD
[22:09:12.914920] [23] RADIO
[22:09:12.917955] [23] RADIO_STATUS
[22:09:13.247098] [98] HEARTBEAT
[22:09:13.255095] [99] ATTITUDE_TARGET
[22:09:13.698177] [100] VFR_HUD
[22:09:13.912128] [24] RADIO
[22:09:13.914031] [24] RADIO_STATUS
[22:09:14.258192] [101] HEARTBEAT
[22:09:14.492169] [102] VFR_HUD
[22:09:14.956161] [25] RADIO
[22:09:14.959221] [25] RADIO_STATUS
[22:09:15.309255] [103] HEARTBEAT
[22:09:15.316556] [104] SYS_STATUS
[22:09:15.435349] [105] BATTERY_STATUS
[22:09:15.443303] [106] ATTITUDE_TARGET
[22:09:15.473309] [107] VFR_HUD
[22:09:15.876293] [26] RADIO
[22:09:15.879211] [26] RADIO_STATUS
[22:09:16.102378] [108] VFR_HUD
[22:09:16.222361] [109] HEARTBEAT
[22:09:16.900378] [27] RADIO
[22:09:16.903353] [27] RADIO_STATUS
[22:09:17.021371] [110] VFR_HUD
[22:09:17.260517] [111] HEARTBEAT
[22:09:17.268380] [112] ATTITUDE_TARGET
[22:09:17.711540] [113] VFR_HUD
[22:09:17.945555] [28] RADIO
[22:09:17.948590] [28] RADIO_STATUS
[22:09:18.291648] [114] HEARTBEAT
[22:09:18.520553] [115] VFR_HUD
[22:09:18.970624] [29] RADIO
[22:09:18.973580] [29] RADIO_STATUS
[22:09:19.223840] [116] HEARTBEAT
[22:09:19.230653] [117] SYS_STATUS
[22:09:19.269670] [118] BATTERY_STATUS
[22:09:19.277645] [119] ATTITUDE_TARGET
[22:09:19.282615] [120] VFR_HUD
[22:09:19.889791] [30] RADIO
[22:09:19.892684] [30] RADIO_STATUS
[22:09:20.245779] [121] VFR_HUD
[22:09:20.248757] [122] HEARTBEAT
[22:09:20.826074] [123] VFR_HUD
[22:09:20.940901] [31] RADIO
[22:09:20.943800] [31] RADIO_STATUS
[22:09:21.295194] [124] HEARTBEAT
[22:09:21.302001] [125] ATTITUDE_TARGET
[22:09:21.620073] [126] VFR_HUD
[22:09:21.958979] [32] RADIO
[22:09:21.961982] [32] RADIO_STATUS
[22:09:22.305157] [127] HEARTBEAT
[22:09:22.435042] [128] VFR_HUD
[22:09:23.004051] [33] RADIO
[22:09:23.007042] [33] RADIO_STATUS
[22:09:23.237219] [129] HEARTBEAT
[22:09:23.244095] [130] SYS_STATUS
[22:09:23.363138] [131] BATTERY_STATUS
[22:09:23.476179] [132] ATTITUDE_TARGET
[22:09:23.481140] [133] VFR_HUD
[22:09:23.918289] [34] RADIO
[22:09:23.921282] [34] RADIO_STATUS
[22:09:24.039239] [134] VFR_HUD
[22:09:24.270428] [135] HEARTBEAT
[22:09:24.839437] [136] VFR_HUD
[22:09:24.948345] [35] RADIO
[22:09:24.951359] [35] RADIO_STATUS
[22:09:25.308405] [137] HEARTBEAT
[22:09:25.316558] [138] ATTITUDE_TARGET
[22:09:25.648562] [139] VFR_HUD
[22:09:25.988595] [36] RADIO
[22:09:25.990516] [36] RADIO_STATUS
[22:09:26.214571] [140] HEARTBEAT
[22:09:26.448533] [141] VFR_HUD
[22:09:27.017711] [37] RADIO
[22:09:27.020847] [37] RADIO_STATUS
[22:09:27.265738] [142] HEARTBEAT
[22:09:27.272610] [143] SYS_STATUS
[22:09:27.394763] [144] BATTERY_STATUS
[22:09:27.396641] [145] EXTENDED_SYS_STATE
[22:09:27.403653] [146] ATTITUDE_TARGET
[22:09:27.408748] [147] VFR_HUD
[22:09:27.413371] [148] SYSTEM_TIME
[22:09:27.937715] [38] RADIO
[22:09:27.940736] [38] RADIO_STATUS
[22:09:28.058674] [149] VFR_HUD
[22:09:28.283730] [150] HEARTBEAT
[22:09:28.873844] [151] VFR_HUD
[22:09:28.988802] [39] RADIO
[22:09:28.991824] [39] RADIO_STATUS
[22:09:29.204062] [152] HEARTBEAT
[22:09:29.226052] [153] ATTITUDE_TARGET
[22:09:29.667979] [154] VFR_HUD
[22:09:30.006916] [40] RADIO
[22:09:30.010034] [40] RADIO_STATUS
[22:09:30.244177] [155] HEARTBEAT
[22:09:30.482978] [156] VFR_HUD
[22:09:31.047064] [41] RADIO
[22:09:31.050025] [41] RADIO_STATUS
[22:09:31.285301] [157] HEARTBEAT
[22:09:31.292271] [158] SYS_STATUS
[22:09:31.409266] [159] BATTERY_STATUS
[22:09:31.524092] [160] ATTITUDE_TARGET
[22:09:31.529533] [161] VFR_HUD
[22:09:31.967134] [42] RADIO
[22:09:31.970132] [42] RADIO_STATUS
[22:09:32.093155] [162] VFR_HUD
[22:09:32.210215] [163] HEARTBEAT
[22:09:32.888225] [164] VFR_HUD
[22:09:32.997424] [43] RADIO
[22:09:33.000188] [43] RADIO_STATUS
[22:09:33.247281] [165] HEARTBEAT
[22:09:33.255287] [166] ATTITUDE_TARGET
[22:09:33.697282] [167] VFR_HUD
[22:09:34.037455] [44] RADIO
[22:09:34.040287] [44] RADIO_STATUS
[22:09:34.263467] [168] HEARTBEAT
[22:09:34.497593] [169] VFR_HUD
[22:09:35.066515] [45] RADIO
[22:09:35.069514] [45] RADIO_STATUS
[22:09:35.315508] [170] HEARTBEAT
[22:09:35.321530] [171] SYS_STATUS
[22:09:35.986586] [46] RADIO
[22:09:35.989534] [46] RADIO_STATUS
[22:09:36.024640] [175] VFR_HUD
[22:09:36.917773] [177] VFR_HUD
[22:09:37.136670] [47] RADIO
[22:09:37.139676] [47] RADIO_STATUS
[22:09:37.266736] [178] HEARTBEAT
[22:09:37.274731] [179] ATTITUDE_TARGET
[22:09:38.056905] [48] RADIO
[22:09:38.060882] [48] RADIO_STATUS
[22:09:38.293097] [181] HEARTBEAT
[22:09:39.096028] [49] RADIO
[22:09:39.098916] [49] RADIO_STATUS
[22:09:39.230119] [183] HEARTBEAT
[22:09:39.236011] [184] SYS_STATUS
[22:09:39.276033] [185] BATTERY_STATUS
[22:09:39.283933] [186] ATTITUDE_TARGET
[22:09:39.287928] [187] VFR_HUD
[22:09:40.128135] [50] RADIO
[22:09:40.130001] [50] RADIO_STATUS
[22:09:40.201176] [188] VFR_HUD
[22:09:40.244042] [189] HEARTBEAT
[22:09:41.047423] [51] RADIO
[22:09:41.050288] [51] RADIO_STATUS
[22:09:41.302218] [191] HEARTBEAT
[22:09:41.312255] [192] ATTITUDE_TARGET
[22:09:42.197258] [52] RADIO
[22:09:42.200234] [52] RADIO_STATUS
[22:09:42.231544] [194] HEARTBEAT
[22:09:42.437254] [195] VFR_HUD
[22:09:43.012358] [53] RADIO
[22:09:43.015366] [53] RADIO_STATUS
[22:09:43.371460] [198] BATTERY_STATUS
[22:09:44.036535] [54] RADIO
[22:09:44.039368] [54] RADIO_STATUS
[22:09:44.100464] JAMMING_START
[22:09:44.157539] [201] VFR_HUD
[22:09:44.847566] [203] VFR_HUD
[22:09:45.186559] [55] RADIO
[22:09:45.189560] [55] RADIO_STATUS
[22:09:45.233615] [204] HEARTBEAT
[22:09:45.241713] [205] ATTITUDE_TARGET
[22:09:45.656623] [206] VFR_HUD
[22:09:46.105821] [56] RADIO
[22:09:46.108678] [56] RADIO_STATUS
[22:09:46.456802] [208] VFR_HUD
[22:09:47.025791] [57] RADIO
[22:09:47.029030] [57] RADIO_STATUS
[22:09:47.278871] [209] HEARTBEAT
[22:09:47.285956] [210] SYS_STATUS
[22:09:47.320069] [211] BATTERY_STATUS
[22:09:47.321998] [212] EXTENDED_SYS_STATE
[22:09:47.329855] [213] ATTITUDE_TARGET
[22:09:47.334809] [214] VFR_HUD
[22:09:47.337790] [215] SYSTEM_TIME
[22:09:48.174890] [58] RADIO
[22:09:48.177889] [58] RADIO_STATUS
[22:09:48.290983] [217] HEARTBEAT
[22:09:49.095172] [59] RADIO
[22:09:49.098120] [59] RADIO_STATUS
[22:09:49.349356] [219] HEARTBEAT
[22:09:49.357139] [220] ATTITUDE_TARGET
[22:09:50.244340] [60] RADIO
[22:09:50.247242] [60] RADIO_STATUS
[22:09:50.490364] [223] VFR_HUD
[22:09:51.054520] [61] RADIO
[22:09:51.057317] [61] RADIO_STATUS
[22:09:51.419440] [226] BATTERY_STATUS
[22:09:51.650479] [227] ATTITUDE_TARGET
[22:09:51.655457] [228] VFR_HUD
[22:09:52.083488] [62] RADIO
[22:09:52.086480] [62] RADIO_STATUS
[22:09:52.204483] [229] VFR_HUD
[22:09:52.233527] [230] HEARTBEAT
[22:09:52.894710] [231] VFR_HUD
[22:09:53.233773] [63] RADIO
[22:09:53.236543] [63] RADIO_STATUS
[22:09:53.363673] [232] HEARTBEAT
[22:09:53.371623] [233] ATTITUDE_TARGET
[22:09:53.703705] [234] VFR_HUD
[22:09:54.152765] [64] RADIO
[22:09:54.155646] [64] RADIO_STATUS
[22:09:54.503761] [236] VFR_HUD
[22:09:55.072898] [65] RADIO
[22:09:55.076874] [65] RADIO_STATUS
[22:09:55.320791] [237] HEARTBEAT
[22:09:55.327850] [238] SYS_STATUS
[22:09:56.222942] [66] RADIO
[22:09:56.224852] [66] RADIO_STATUS
[22:09:56.339049] [243] HEARTBEAT
[22:09:56.807910] [244] VFR_HUD
[22:09:57.141981] [67] RADIO
[22:09:57.144896] [67] RADIO_STATUS
[22:09:57.391013] [245] HEARTBEAT
[22:09:57.398983] [246] ATTITUDE_TARGET
[22:09:57.617994] [247] VFR_HUD
[22:09:58.292097] [68] RADIO
[22:09:58.295261] [68] RADIO_STATUS
[22:09:58.541140] [248] HEARTBEAT
[22:09:58.546105] [249] VFR_HUD
[22:09:59.101272] [69] RADIO
[22:09:59.104230] [69] RADIO_STATUS
[22:10:00.131344] [70] RADIO
[22:10:00.134630] [70] RADIO_STATUS
[22:10:00.202013] [252] BATTERY_STATUS
[22:10:00.207443] [253] ATTITUDE_TARGET
[22:10:00.213727] [254] VFR_HUD
[22:10:00.217360] [255] VFR_HUD
[22:10:00.220357] [0] HEARTBEAT
[22:10:00.831395] [1] VFR_HUD
[22:10:01.280502] [71] RADIO
[22:10:01.283420] [71] RADIO_STATUS
[22:10:01.410590] [2] HEARTBEAT
[22:10:01.418506] [3] ATTITUDE_TARGET
[22:10:02.200574] [72] RADIO
[22:10:02.203549] [72] RADIO_STATUS
[22:10:02.234741] [5] HEARTBEAT
[22:10:02.442056] [6] VFR_HUD
[22:10:03.120793] [73] RADIO
[22:10:03.123699] [73] RADIO_STATUS
[22:10:03.248791] [7] HEARTBEAT
[22:10:03.255780] [8] SYS_STATUS
[22:10:03.369756] [9] BATTERY_STATUS
[22:10:04.050903] [12] VFR_HUD
[22:10:04.269899] [74] RADIO
[22:10:04.272805] [74] RADIO_STATUS
[22:10:04.303907] [13] HEARTBEAT
[22:10:04.850886] [14] VFR_HUD
[22:10:05.189943] [75] RADIO
[22:10:05.193003] [75] RADIO_STATUS
[22:10:05.237901] [15] HEARTBEAT
[22:10:05.245981] [16] ATTITUDE_TARGET
[22:10:05.665958] [17] VFR_HUD
[22:10:06.340011] [76] RADIO
[22:10:06.342950] [76] RADIO_STATUS
[22:10:07.154101] [77] RADIO
[22:10:07.157082] [77] RADIO_STATUS
[22:10:08.179215] [78] RADIO
[22:10:08.182437] [78] RADIO_STATUS
[22:10:08.213252] [28] HEARTBEAT
[22:10:08.884253] [29] VFR_HUD
[22:10:09.329940] [79] RADIO
[22:10:09.331309] [79] RADIO_STATUS
[22:10:09.375520] [30] HEARTBEAT
[22:10:09.383401] [31] ATTITUDE_TARGET
[22:10:10.248542] [80] RADIO
[22:10:10.251598] [80] RADIO_STATUS
[22:10:10.282587] [33] HEARTBEAT
[22:10:10.488443] [34] VFR_HUD
[22:10:11.167625] [81] RADIO
[22:10:11.170669] [81] RADIO_STATUS
[22:10:11.296656] [35] HEARTBEAT
[22:10:11.302576] [36] SYS_STATUS
[22:10:11.422553] [37] BATTERY_STATUS
[22:10:11.654774] [38] ATTITUDE_TARGET
[22:10:11.659741] [39] VFR_HUD
[22:10:12.098660] [40] VFR_HUD
[22:10:12.317758] [82] RADIO
[22:10:12.320646] [82] RADIO_STATUS
[22:10:12.898838] [42] VFR_HUD
[22:10:13.237764] [83] RADIO
[22:10:13.241814] [83] RADIO_STATUS
[22:10:13.491871] [43] HEARTBEAT
[22:10:13.499843] [44] ATTITUDE_TARGET
[22:10:13.707845] [45] VFR_HUD
[22:10:14.390961] [84] RADIO
[22:10:14.393918] [84] RADIO_STATUS
[22:10:14.430950] [47] VFR_HUD
[22:10:15.202215] [85] RADIO
[22:10:15.204997] [85] RADIO_STATUS
[22:10:16.226129] [86] RADIO
[22:10:16.229069] [86] RADIO_STATUS
[22:10:16.343229] [54] HEARTBEAT
[22:10:17.376267] [87] RADIO
[22:10:17.379216] [87] RADIO_STATUS
[22:10:17.423214] [56] HEARTBEAT
[22:10:17.431210] [57] ATTITUDE_TARGET
[22:10:18.188955] [88] RADIO
[22:10:18.189257] [88] RADIO_STATUS
[22:10:18.302313] [59] HEARTBEAT
[22:10:19.215625] [89] RADIO
[22:10:19.218463] [89] RADIO_STATUS
[22:10:19.344480] [61] HEARTBEAT
[22:10:19.350458] [62] SYS_STATUS
[22:10:19.470463] [63] BATTERY_STATUS
[22:10:20.365632] [90] RADIO
[22:10:20.369458] [90] RADIO_STATUS
[22:10:20.835855] [68] VFR_HUD
[22:10:21.284670] [91] RADIO
[22:10:21.287670] [91] RADIO_STATUS
[22:10:21.539727] [69] HEARTBEAT
[22:10:21.547754] [70] ATTITUDE_TARGET
[22:10:21.635842] [71] VFR_HUD
[22:10:22.204813] [92] RADIO
[22:10:22.207927] [92] RADIO_STATUS
[22:10:22.445878] [73] VFR_HUD
[22:10:23.252902] [74] HEARTBEAT
[22:10:23.259887] [75] SYS_STATUS
[22:10:23.354974] [93] RADIO
[22:10:23.357875] [93] RADIO_STATUS
[22:10:24.060066] [79] VFR_HUD
[22:10:24.274060] [94] RADIO
[22:10:24.276959] [94] RADIO_STATUS
[22:10:24.391097] [80] HEARTBEAT
[22:10:25.206154] [82] HEARTBEAT
[22:10:25.424141] [95] RADIO
[22:10:25.427088] [95] RADIO_STATUS
[22:10:25.556198] [83] ATTITUDE_TARGET
[22:10:26.230350] [85] HEARTBEAT
[22:10:26.343226] [96] RADIO
[22:10:26.346166] [96] RADIO_STATUS
[22:10:27.263356] [97] RADIO
[22:10:27.266316] [97] RADIO_STATUS
[22:10:27.327370] [87] HEARTBEAT
[22:10:27.333371] [88] SYS_STATUS
[22:10:27.341950] [89] BATTERY_STATUS
[22:10:27.343398] [90] EXTENDED_SYS_STATE
[22:10:27.360437] [91] ATTITUDE_TARGET
[22:10:27.364296] [92] VFR_HUD
[22:10:27.368381] [93] SYSTEM_TIME
[22:10:28.413634] [98] RADIO
[22:10:28.416373] [98] RADIO_STATUS
[22:10:28.884742] [96] VFR_HUD
[22:10:29.332551] [99] RADIO
[22:10:29.335425] [99] RADIO_STATUS
[22:10:29.380624] [97] HEARTBEAT
[22:10:29.387512] [98] ATTITUDE_TARGET
[22:10:29.683594] [99] VFR_HUD
[22:10:30.252678] [100] RADIO
[22:10:30.255578] [100] RADIO_STATUS
[22:10:30.492878] [101] VFR_HUD
[22:10:31.300788] [102] HEARTBEAT
[22:10:31.306779] [103] SYS_STATUS
[22:10:31.401633] [101] RADIO
[22:10:31.404606] [101] RADIO_STATUS
[22:10:32.321823] [102] RADIO
[22:10:32.324737] [102] RADIO_STATUS
[22:10:32.365901] [107] VFR_HUD
[22:10:32.368757] [108] HEARTBEAT
[22:10:33.241939] [103] RADIO
[22:10:33.244880] [103] RADIO_STATUS
[22:10:33.288953] [110] HEARTBEAT
[22:10:33.296926] [111] ATTITUDE_TARGET
[22:10:34.277178] [113] HEARTBEAT
[22:10:34.309068] [104] RADIO
[22:10:34.313910] [104] RADIO_STATUS
[22:10:34.407056] [114] VFR_HUD
[22:10:35.311269] [105] RADIO
[22:10:35.314189] [105] RADIO_STATUS
[22:10:35.379250] [117] BATTERY_STATUS
[22:10:35.387223] [118] ATTITUDE_TARGET
[22:10:35.393904] [119] VFR_HUD
[22:10:36.237397] [121] HEARTBEAT
[22:10:36.460320] [106] RADIO
[22:10:36.463346] [106] RADIO_STATUS
[22:10:37.380541] [107] RADIO
[22:10:37.383412] [107] RADIO_STATUS
[22:10:37.427652] [123] HEARTBEAT
[22:10:37.435473] [124] ATTITUDE_TARGET
[22:10:37.621543] [125] VFR_HUD
[22:10:38.299474] [108] RADIO
[22:10:38.302467] [108] RADIO_STATUS
[22:10:38.549594] [126] HEARTBEAT
[22:10:38.554531] [127] VFR_HUD
[22:10:39.237612] [128] HEARTBEAT
[22:10:39.244749] [129] SYS_STATUS
[22:10:39.363676] [130] BATTERY_STATUS
[22:10:39.370695] [131] ATTITUDE_TARGET
[22:10:39.400690] [132] VFR_HUD
[22:10:39.428746] [109] RADIO
[22:10:39.431619] [109] RADIO_STATUS
[22:10:40.029754] [133] VFR_HUD
[22:10:40.369792] [110] RADIO
[22:10:40.372654] [110] RADIO_STATUS
[22:10:40.839850] [135] VFR_HUD
[22:10:41.288794] [111] RADIO
[22:10:41.291727] [111] RADIO_STATUS
[22:10:41.543852] [136] HEARTBEAT
[22:10:41.551810] [137] ATTITUDE_TARGET
[22:10:41.639778] [138] VFR_HUD
[22:10:42.214900] [139] HEARTBEAT
[22:10:42.333918] [112] RADIO
[22:10:42.336890] [112] RADIO_STATUS
[22:10:42.454891] [140] VFR_HUD
[22:10:43.358982] [113] RADIO
[22:10:43.361933] [113] RADIO_STATUS
[22:10:43.400032] [143] BATTERY_STATUS
[22:10:43.426895] [144] ATTITUDE_TARGET
[22:10:43.432876] [145] VFR_HUD
[22:10:44.278212] [114] RADIO
[22:10:44.281151] [114] RADIO_STATUS
[22:10:45.428194] [115] RADIO
[22:10:45.431153] [115] RADIO_STATUS
[22:10:45.673341] [151] VFR_HUD
[22:10:46.234416] [152] HEARTBEAT
[22:10:46.347341] [116] RADIO
[22:10:46.350838] [116] RADIO_STATUS
[22:10:47.285624] [154] HEARTBEAT
[22:10:47.292466] [155] SYS_STATUS
[22:10:47.413488] [156] BATTERY_STATUS
[22:10:47.415460] [157] EXTENDED_SYS_STATE
[22:10:47.423538] [158] ATTITUDE_TARGET
[22:10:47.428716] [159] VFR_HUD
[22:10:47.431437] [160] SYSTEM_TIME
[22:10:47.459674] [117] RADIO
[22:10:47.462496] [117] RADIO_STATUS
[22:10:48.077547] [161] VFR_HUD
[22:10:48.416709] [118] RADIO
[22:10:48.419668] [118] RADIO_STATUS
[22:10:48.887673] [163] VFR_HUD
[22:10:49.236977] [164] HEARTBEAT
[22:10:49.244805] [165] ATTITUDE_TARGET
[22:10:49.336711] [119] RADIO
[22:10:49.339688] [119] RADIO_STATUS
[22:10:49.686842] [166] VFR_HUD
[22:10:50.267902] [167] HEARTBEAT
[22:10:50.375845] [120] RADIO
[22:10:50.378843] [120] RADIO_STATUS
[22:10:50.496978] [168] VFR_HUD
[22:10:51.405959] [121] RADIO
[22:10:51.408923] [121] RADIO_STATUS
[22:10:51.447018] [171] BATTERY_STATUS
[22:10:51.474270] [172] ATTITUDE_TARGET
[22:10:51.479041] [173] VFR_HUD
[22:10:52.325005] [122] RADIO
[22:10:52.328092] [122] RADIO_STATUS
[22:10:53.475172] [123] RADIO
[22:10:53.477171] [123] RADIO_STATUS
[22:10:53.720293] [179] VFR_HUD
[22:10:54.280316] [180] HEARTBEAT
[22:10:54.394349] [124] RADIO
[22:10:54.397410] [124] RADIO_STATUS
[22:10:55.434403] [125] RADIO
[22:10:55.441863] [125] RADIO_STATUS
[22:10:56.255436] [187] VFR_HUD
[22:10:56.258508] [188] HEARTBEAT
[22:10:56.463482] [126] RADIO
[22:10:56.466508] [126] RADIO_STATUS
[22:10:57.283607] [190] HEARTBEAT
[22:10:57.291570] [191] ATTITUDE_TARGET
[22:10:57.383606] [127] RADIO
[22:10:57.386538] [127] RADIO_STATUS
[22:10:57.624597] [192] VFR_HUD
[22:10:58.314918] [193] HEARTBEAT
[22:10:58.423632] [194] VFR_HUD
[22:10:58.450622] [128] RADIO
[22:10:58.453676] [128] RADIO_STATUS
[22:10:59.241851] [195] HEARTBEAT
[22:10:59.247794] [196] SYS_STATUS
[22:10:59.404816] [199] VFR_HUD
[22:10:59.455721] [129] RADIO
[22:10:59.458770] [129] RADIO_STATUS
[22:11:00.032910] [200] VFR_HUD
[22:11:00.372919] [130] RADIO
[22:11:00.375984] [130] RADIO_STATUS
[22:11:00.847963] [202] VFR_HUD
[22:11:01.522052] [131] RADIO
[22:11:01.525127] [131] RADIO_STATUS
[22:11:02.218228] [206] HEARTBEAT
[22:11:02.442163] [132] RADIO
[22:11:02.445108] [132] RADIO_STATUS
[22:11:03.362291] [133] RADIO
[22:11:03.364230] [133] RADIO_STATUS
[22:11:03.431320] [210] BATTERY_STATUS
[22:11:03.439306] [211] ATTITUDE_TARGET
[22:11:03.444236] [212] VFR_HUD
[22:11:04.298384] [213] VFR_HUD
[22:11:04.301432] [214] HEARTBEAT
[22:11:04.511422] [134] RADIO
[22:11:04.514529] [134] RADIO_STATUS
[22:11:05.207508] [216] HEARTBEAT
[22:11:05.230466] [217] ATTITUDE_TARGET
[22:11:05.431516] [135] RADIO
[22:11:05.434425] [135] RADIO_STATUS
[22:11:05.671548] [218] VFR_HUD
[22:11:06.237657] [219] HEARTBEAT
[22:11:06.471607] [220] VFR_HUD
[22:11:06.503592] [136] RADIO
[22:11:06.506505] [136] RADIO_STATUS
[22:11:07.288718] [221] HEARTBEAT
[22:11:07.295686] [222] SYS_STATUS
[22:11:07.417704] [223] BATTERY_STATUS
[22:11:07.418635] [224] EXTENDED_SYS_STATE
[22:11:07.426672] [225] ATTITUDE_TARGET
[22:11:07.431680] [226] VFR_HUD
[22:11:07.435642] [227] SYSTEM_TIME
[22:11:07.462757] [137] RADIO
[22:11:07.465664] [137] RADIO_STATUS
[22:11:08.081786] [228] VFR_HUD
[22:11:08.421195] [138] RADIO
[22:11:08.423979] [138] RADIO_STATUS
[22:11:08.892365] [230] VFR_HUD
[22:11:09.240917] [231] HEARTBEAT
[22:11:09.247903] [232] ATTITUDE_TARGET
[22:11:09.569874] [139] RADIO
[22:11:09.572877] [139] RADIO_STATUS
[22:11:09.608855] [233] VFR_HUD
[22:11:10.266077] [234] HEARTBEAT
[22:11:10.490005] [140] RADIO
[22:11:10.492971] [140] RADIO_STATUS
[22:11:11.410152] [141] RADIO
[22:11:11.413768] [141] RADIO_STATUS
[22:11:11.451189] [238] BATTERY_STATUS
[22:11:11.477308] [239] ATTITUDE_TARGET
[22:11:11.482149] [240] VFR_HUD
[22:11:12.116352] [241] VFR_HUD
[22:11:12.227204] [242] HEARTBEAT
[22:11:12.559413] [142] RADIO
[22:11:12.562208] [142] RADIO_STATUS
[22:11:13.274375] [244] HEARTBEAT
[22:11:13.282362] [245] ATTITUDE_TARGET
[22:11:13.479470] [143] RADIO
[22:11:13.482305] [143] RADIO_STATUS
[22:11:13.725393] [246] VFR_HUD
[22:11:14.285460] [247] HEARTBEAT
[22:11:14.416714] [144] RADIO
[22:11:14.418522] [144] RADIO_STATUS
[22:11:14.437458] [248] VFR_HUD
[22:11:15.438593] [145] RADIO
[22:11:15.441553] [145] RADIO_STATUS
[22:11:16.468718] [146] RADIO
[22:11:16.473858] [146] RADIO_STATUS
[22:11:16.818725] [0] VFR_HUD
[22:11:17.287851] [1] HEARTBEAT
[22:11:17.295798] [2] ATTITUDE_TARGET
[22:11:17.617734] [147] RADIO
[22:11:17.620738] [147] RADIO_STATUS
[22:11:17.738795] [3] VFR_HUD
[22:11:18.318890] [4] HEARTBEAT
[22:11:18.429081] [5] VFR_HUD
[22:11:18.455931] [148] RADIO
[22:11:18.458882] [148] RADIO_STATUS
[22:11:19.250967] [6] HEARTBEAT
[22:11:19.257968] [7] SYS_STATUS
[22:11:19.298057] [8] BATTERY_STATUS
[22:11:19.304921] [9] ATTITUDE_TARGET
[22:11:19.310061] [10] VFR_HUD
[22:11:19.459010] [149] RADIO
[22:11:19.461946] [149] RADIO_STATUS
[22:11:20.276068] [11] VFR_HUD
[22:11:20.279052] [12] HEARTBEAT
[22:11:20.609166] [150] RADIO
[22:11:20.612617] [150] RADIO_STATUS
[22:11:21.324265] [14] HEARTBEAT
[22:11:21.333403] [15] ATTITUDE_TARGET
[22:11:21.529245] [151] RADIO
[22:11:21.532201] [151] RADIO_STATUS
[22:11:22.225389] [17] HEARTBEAT
[22:11:22.448408] [152] RADIO
[22:11:22.451271] [152] RADIO_STATUS
[22:11:22.487499] [18] VFR_HUD
[22:11:23.393454] [21] BATTERY_STATUS
[22:11:23.505394] [22] ATTITUDE_TARGET
[22:11:23.510360] [23] VFR_HUD
[22:11:23.597502] [153] RADIO
[22:11:23.600568] [153] RADIO_STATUS
[22:11:24.067578] [24] VFR_HUD
[22:11:24.516623] [154] RADIO
[22:11:24.519526] [154] RADIO_STATUS
[22:11:24.867598] [26] VFR_HUD
[22:11:25.226673] [27] HEARTBEAT
[22:11:25.233752] [28] ATTITUDE_TARGET
[22:11:25.666685] [155] RADIO
[22:11:25.669677] [155] RADIO_STATUS
[22:11:26.476809] [31] VFR_HUD
[22:11:26.503854] [156] RADIO
[22:11:26.506992] [156] RADIO_STATUS
[22:11:27.295231] [32] HEARTBEAT
[22:11:27.300920] [33] SYS_STATUS
[22:11:27.505896] [157] RADIO
[22:11:27.508890] [157] RADIO_STATUS
[22:11:28.087010] [39] VFR_HUD
[22:11:28.202037] [40] HEARTBEAT
[22:11:28.656047] [158] RADIO
[22:11:28.659181] [158] RADIO_STATUS
[22:11:29.365196] [42] HEARTBEAT
[22:11:29.373072] [43] ATTITUDE_TARGET
[22:11:29.575185] [159] RADIO
[22:11:29.578147] [159] RADIO_STATUS
[22:11:29.614257] [44] VFR_HUD
[22:11:30.271267] [45] HEARTBEAT
[22:11:30.495325] [160] RADIO
[22:11:30.498254] [160] RADIO_STATUS
[22:11:30.534256] [46] VFR_HUD
[22:11:31.442547] [50] ATTITUDE_TARGET
[22:11:31.449728] [51] VFR_HUD
[22:11:31.645546] [161] RADIO
[22:11:31.649826] [161] RADIO_STATUS
[22:11:32.120592] [52] VFR_HUD
[22:11:32.232523] [53] HEARTBEAT
[22:11:32.564549] [162] RADIO
[22:11:32.567522] [162] RADIO_STATUS
[22:11:32.915508] [54] VFR_HUD
[22:11:33.274828] [55] HEARTBEAT
[22:11:33.282630] [56] ATTITUDE_TARGET
[22:11:33.714679] [163] RADIO
[22:11:33.717582] [163] RADIO_STATUS
[22:11:33.753632] [57] VFR_HUD
[22:11:34.414834] [59] VFR_HUD
[22:11:34.529680] [164] RADIO
[22:11:34.532672] [164] RADIO_STATUS
[22:11:35.222836] [60] HEARTBEAT
[22:11:35.228790] [61] SYS_STATUS
[22:11:35.343755] [62] BATTERY_STATUS
[22:11:35.553857] [165] RADIO
[22:11:35.556815] [165] RADIO_STATUS
[22:11:36.024908] [65] VFR_HUD
[22:11:36.254982] [66] HEARTBEAT
[22:11:36.708414] [166] RADIO
[22:11:36.708559] [166] RADIO_STATUS
[22:11:36.824022] [67] VFR_HUD
[22:11:37.623080] [167] RADIO
[22:11:37.626057] [167] RADIO_STATUS
[22:11:37.662040] [70] VFR_HUD
[22:11:38.543190] [168] RADIO
[22:11:38.546103] [168] RADIO_STATUS
[22:11:39.692245] [169] RADIO
[22:11:39.695354] [169] RADIO_STATUS
[22:11:39.761324] [75] BATTERY_STATUS
[22:11:39.769860] [76] ATTITUDE_TARGET
[22:11:39.774471] [77] VFR_HUD
[22:11:40.268357] [79] HEARTBEAT
[22:11:40.612561] [170] RADIO
[22:11:40.615380] [170] RADIO_STATUS
[22:11:40.858415] [80] VFR_HUD
[22:11:41.326495] [82] ATTITUDE_TARGET
[22:11:41.761433] [171] RADIO
[22:11:41.766840] [171] RADIO_STATUS
[22:11:42.233624] [84] HEARTBEAT
[22:11:42.462618] [85] VFR_HUD
[22:11:42.571586] [172] RADIO
[22:11:42.574562] [172] RADIO_STATUS
[22:11:43.269697] [86] HEARTBEAT
[22:11:43.276684] [87] SYS_STATUS
[22:11:43.396804] [88] BATTERY_STATUS
[22:11:43.601712] [173] RADIO
[22:11:43.603746] [173] RADIO_STATUS
[22:11:43.737778] [89] ATTITUDE_TARGET
[22:11:43.742780] [90] VFR_HUD
[22:11:44.071788] [91] VFR_HUD
[22:11:44.302865] [92] HEARTBEAT
[22:11:44.750869] [174] RADIO
[22:11:44.753858] [174] RADIO_STATUS
[22:11:44.871844] [93] VFR_HUD
[22:11:45.230931] [94] HEARTBEAT
[22:11:45.239021] [95] ATTITUDE_TARGET
[22:11:45.670957] [175] RADIO
[22:11:45.673974] [175] RADIO_STATUS
[22:11:46.590090] [176] RADIO
[22:11:46.593058] [176] RADIO_STATUS
[22:11:47.740265] [177] RADIO
[22:11:47.743106] [177] RADIO_STATUS
[22:11:48.206201] [107] HEARTBEAT
[22:11:48.660221] [178] RADIO
[22:11:48.663189] [178] RADIO_STATUS
[22:11:48.906306] [108] VFR_HUD
[22:11:49.369327] [109] HEARTBEAT
[22:11:49.377257] [110] ATTITUDE_TARGET
[22:11:49.809278] [179] RADIO
[22:11:49.812330] [179] RADIO_STATUS
[22:11:50.275505] [112] HEARTBEAT
[22:11:50.619399] [113] VFR_HUD
[22:11:50.630437] [180] RADIO
[22:11:50.633493] [180] RADIO_STATUS
[22:11:51.195469] [114] HEARTBEAT
[22:11:51.215487] [115] SYS_STATUS
[22:11:51.258499] [116] BATTERY_STATUS
[22:11:51.266589] [117] ATTITUDE_TARGET
[22:11:51.271454] [118] VFR_HUD
[22:11:51.649089] [181] RADIO
[22:11:51.651499] [181] RADIO_STATUS
[22:11:52.354858] [119] VFR_HUD
[22:11:52.357582] [120] HEARTBEAT
[22:11:52.798742] [182] RADIO
[22:11:52.801933] [182] RADIO_STATUS
[22:11:52.919584] [121] VFR_HUD
[22:11:53.281825] [122] HEARTBEAT
[22:11:53.286912] [123] ATTITUDE_TARGET
[22:11:53.608679] [124] VFR_HUD
[22:11:53.635724] [183] RADIO
[22:11:53.638671] [183] RADIO_STATUS
[22:11:54.418912] [126] VFR_HUD
[22:11:54.637835] [184] RADIO
[22:11:54.640754] [184] RADIO_STATUS
[22:11:55.225961] [127] HEARTBEAT
[22:11:55.233003] [128] SYS_STATUS
[22:11:55.787917] [185] RADIO
[22:11:55.790946] [185] RADIO_STATUS
[22:11:56.033986] [132] VFR_HUD
[22:11:56.254056] [133] HEARTBEAT
[22:11:56.707963] [186] RADIO
[22:11:56.711131] [186] RADIO_STATUS
[22:11:57.417222] [135] HEARTBEAT
[22:11:57.425090] [136] ATTITUDE_TARGET
[22:11:57.857241] [187] RADIO
[22:11:57.860116] [187] RADIO_STATUS
[22:11:58.205111] [138] HEARTBEAT
[22:11:58.672160] [188] RADIO
[22:11:58.675191] [188] RADIO_STATUS
[22:11:59.260269] [140] HEARTBEAT
[22:11:59.267265] [141] SYS_STATUS
[22:11:59.306405] [142] BATTERY_STATUS
[22:11:59.314375] [143] ATTITUDE_TARGET
[22:11:59.319227] [144] VFR_HUD
[22:11:59.696264] [189] RADIO
[22:11:59.699337] [189] RADIO_STATUS
[22:12:00.846544] [190] RADIO
[22:12:00.849520] [190] RADIO_STATUS
[22:12:00.966465] [147] VFR_HUD
[22:12:01.333009] [148] HEARTBEAT
[22:12:01.339736] [149] ATTITUDE_TARGET
[22:12:01.656519] [150] VFR_HUD
[22:12:01.688555] [191] RADIO
[22:12:01.691522] [191] RADIO_STATUS
[22:12:02.466730] [152] VFR_HUD
[22:12:02.685655] [192] RADIO
[22:12:02.688665] [192] RADIO_STATUS
[22:12:03.273794] [153] HEARTBEAT
[22:12:03.280687] [154] SYS_STATUS
[22:12:03.632762] [156] ATTITUDE_TARGET
[22:12:03.636786] [157] VFR_HUD
[22:12:03.835866] [193] RADIO
[22:12:03.838787] [193] RADIO_STATUS
[22:12:04.075794] [158] VFR_HUD
[22:12:04.306868] [159] HEARTBEAT
[22:12:04.755020] [194] RADIO
[22:12:04.757760] [194] RADIO_STATUS
[22:12:05.239917] [161] HEARTBEAT
[22:12:05.247964] [162] ATTITUDE_TARGET
[22:12:05.674859] [195] RADIO
[22:12:05.677936] [195] RADIO_STATUS
[22:12:06.251027] [164] HEARTBEAT
[22:12:06.720007] [196] RADIO
[22:12:06.722961] [196] RADIO_STATUS
[22:12:07.349294] [168] BATTERY_STATUS
[22:12:07.351188] [169] EXTENDED_SYS_STATE
[22:12:07.359092] [170] ATTITUDE_TARGET
[22:12:07.364226] [171] VFR_HUD
[22:12:07.367064] [172] SYSTEM_TIME
[22:12:07.744161] [197] RADIO
[22:12:07.747272] [197] RADIO_STATUS
[22:12:08.210296] [174] HEARTBEAT
[22:12:08.894365] [198] RADIO
[22:12:08.897208] [198] RADIO_STATUS
[22:12:08.933236] [175] VFR_HUD
[22:12:09.379358] [176] HEARTBEAT
[22:12:09.386377] [177] ATTITUDE_TARGET
[22:12:09.705371] [178] VFR_HUD
[22:12:09.737397] [199] RADIO
[22:12:09.740372] [199] RADIO_STATUS
[22:12:10.519437] [180] VFR_HUD
[22:12:10.733492] [200] RADIO
[22:12:10.736450] [200] RADIO_STATUS
[22:12:11.321592] [181] HEARTBEAT
[22:12:11.330125] [182] SYS_STATUS
[22:12:11.679611] [184] ATTITUDE_TARGET
[22:12:11.684590] [185] VFR_HUD
[22:12:11.883605] [201] RADIO
[22:12:11.886590] [201] RADIO_STATUS
[22:12:12.003579] [186] VFR_HUD
