[23:31:47.645976] [77] RADIO
[23:31:47.648704] [77] RADIO_STATUS
[23:31:47.870846] [207] VFR_HUD
[23:31:47.991839] [208] HEARTBEAT
[23:31:48.669895] [78] RADIO
[23:31:48.672818] [78] RADIO_STATUS
[23:31:48.790919] [209] VFR_HUD
[23:31:49.029997] [210] HEARTBEAT
[23:31:49.037943] [211] ATTITUDE_TARGET
[23:31:49.481025] [212] VFR_HUD
[23:31:49.715092] [79] RADIO
[23:31:49.717976] [79] RADIO_STATUS
[23:31:50.062037] [213] HEARTBEAT
[23:31:50.290011] [214] VFR_HUD
[23:31:50.740134] [80] RADIO
[23:31:50.742028] [80] RADIO_STATUS
[23:31:50.981118] [215] HEARTBEAT
[23:31:51.110338] [216] SYS_STATUS
[23:31:51.118150] [217] BATTERY_STATUS
[23:31:51.227137] [218] ATTITUDE_TARGET
[23:31:51.232128] [219] VFR_HUD
[23:31:51.659305] [81] RADIO
[23:31:51.662235] [81] RADIO_STATUS
[23:31:51.785887] [220] VFR_HUD
[23:31:52.006440] [221] HEARTBEAT
[23:31:52.595306] [222] VFR_HUD
[23:31:52.711255] [82] RADIO
[23:31:52.713224] [82] RADIO_STATUS
[23:31:53.064390] [223] HEARTBEAT
[23:31:53.072332] [224] ATTITUDE_TARGET
[23:31:53.389382] [225] VFR_HUD
[23:31:53.729537] [83] RADIO
[23:31:53.732392] [83] RADIO_STATUS
[23:31:54.075500] [226] HEARTBEAT
[23:31:54.204451] [227] VFR_HUD
[23:31:54.768488] [84] RADIO
[23:31:54.771502] [84] RADIO_STATUS
[23:31:55.007463] [228] HEARTBEAT
[23:31:55.013516] [229] SYS_STATUS
[23:31:55.133606] [230] BATTERY_STATUS
[23:31:55.246509] [231] ATTITUDE_TARGET
[23:31:55.250522] [232] VFR_HUD
[23:31:55.688693] [85] RADIO
[23:31:55.691658] [85] RADIO_STATUS
[23:31:55.809568] [233] VFR_HUD
[23:31:56.034617] [234] HEARTBEAT
[23:31:56.609667] [235] VFR_HUD
[23:31:56.718755] [86] RADIO
[23:31:56.721599] [86] RADIO_STATUS
[23:31:57.078712] [236] HEARTBEAT
[23:31:57.085750] [237] ATTITUDE_TARGET
[23:31:57.418794] [238] VFR_HUD
[23:31:57.757782] [87] RADIO
[23:31:57.760844] [87] RADIO_STATUS
[23:31:57.983801] [239] HEARTBEAT
[23:31:58.218816] [240] VFR_HUD
[23:31:58.677902] [88] RADIO
[23:31:58.680855] [88] RADIO_STATUS
[23:31:59.035926] [241] HEARTBEAT
[23:31:59.043088] [242] SYS_STATUS
[23:31:59.160929] [243] BATTERY_STATUS
[23:31:59.169067] [244] ATTITUDE_TARGET
[23:31:59.198933] [245] VFR_HUD
[23:31:59.707058] [89] RADIO
[23:31:59.709993] [89] RADIO_STATUS
[23:31:59.827990] [246] VFR_HUD
[23:32:00.053028] [247] HEARTBEAT
[23:32:00.638098] [248] VFR_HUD
[23:32:00.747182] [90] RADIO
[23:32:00.750171] [90] RADIO_STATUS
[23:32:00.978126] [249] HEARTBEAT
[23:32:01.001233] [250] ATTITUDE_TARGET
[23:32:01.437138] [251] VFR_HUD
[23:32:01.777312] [91] RADIO
[23:32:01.780147] [91] RADIO_STATUS
[23:32:02.013307] [252] HEARTBEAT
[23:32:02.252233] [253] VFR_HUD
[23:32:02.696286] [92] RADIO
[23:32:02.699366] [92] RADIO_STATUS
[23:32:03.054280] [254] HEARTBEAT
[23:32:03.061272] [255] SYS_STATUS
[23:32:03.176309] [0] BATTERY_STATUS
[23:32:03.293376] [1] ATTITUDE_TARGET
[23:32:03.298287] [2] VFR_HUD
[23:32:03.736489] [93] RADIO
[23:32:03.739432] [93] RADIO_STATUS
[23:32:03.862405] [3] VFR_HUD
[23:32:04.082494] [4] HEARTBEAT
[23:32:04.656600] [5] VFR_HUD
[23:32:04.766564] [94] RADIO
[23:32:04.769920] [94] RADIO_STATUS
[23:32:05.015548] [6] HEARTBEAT
[23:32:05.023516] [7] ATTITUDE_TARGET
[23:32:05.471503] [8] VFR_HUD
[23:32:05.805683] [95] RADIO
[23:32:05.808603] [95] RADIO_STATUS
[23:32:06.032657] [9] HEARTBEAT
[23:32:06.266661] [10] VFR_HUD
[23:32:06.730659] [96] RADIO
[23:32:06.733666] [96] RADIO_STATUS
[23:32:07.083822] [11] HEARTBEAT
[23:32:07.090829] [12] SYS_STATUS
[23:32:07.211966] [13] BATTERY_STATUS
[23:32:07.213806] [14] EXTENDED_SYS_STATE
[23:32:07.222088] [15] ATTITUDE_TARGET
[23:32:07.755853] [97] RADIO
[23:32:07.757760] [97] RADIO_STATUS
[23:32:07.876048] [18] VFR_HUD
[23:32:08.685881] [20] VFR_HUD
[23:32:08.800876] [98] RADIO
[23:32:08.803804] [98] RADIO_STATUS
[23:32:09.034961] [21] HEARTBEAT
[23:32:09.042919] [22] ATTITUDE_TARGET
[23:32:09.490552] [23] VFR_HUD
[23:32:09.755632] JAMMING_START
[23:32:09.824973] [99] RADIO
[23:32:09.827970] [99] RADIO_STATUS
[23:32:10.066067] [24] HEARTBEAT
[23:32:10.745103] [100] RADIO
[23:32:10.748063] [100] RADIO_STATUS
[23:32:10.998161] [26] HEARTBEAT
[23:32:11.005132] [27] SYS_STATUS
[23:32:11.045896] [28] BATTERY_STATUS
[23:32:11.052075] [29] ATTITUDE_TARGET
[23:32:11.057117] [30] VFR_HUD
[23:32:11.790174] [101] RADIO
[23:32:11.793170] [101] RADIO_STATUS
[23:32:12.021245] [31] VFR_HUD
[23:32:12.024194] [32] HEARTBEAT
[23:32:12.815301] [102] RADIO
[23:32:12.818354] [102] RADIO_STATUS
[23:32:13.070385] [34] HEARTBEAT
[23:32:13.078298] [35] ATTITUDE_TARGET
[23:32:13.395454] [36] VFR_HUD
[23:32:13.964377] [103] RADIO
[23:32:13.967446] [103] RADIO_STATUS
[23:32:13.998402] [37] HEARTBEAT
[23:32:14.205388] [38] VFR_HUD
[23:32:14.779452] [104] RADIO
[23:32:14.782457] [104] RADIO_STATUS
[23:32:15.139515] [41] BATTERY_STATUS
[23:32:15.251555] [42] ATTITUDE_TARGET
[23:32:15.256485] [43] VFR_HUD
[23:32:15.804547] [105] RADIO
[23:32:15.807466] [105] RADIO_STATUS
[23:32:15.925597] [44] VFR_HUD
[23:32:16.045597] [45] HEARTBEAT
[23:32:16.614628] [46] VFR_HUD
[23:32:16.849603] [106] RADIO
[23:32:16.851556] [106] RADIO_STATUS
[23:32:17.083686] [47] HEARTBEAT
[23:32:17.091653] [48] ATTITUDE_TARGET
[23:32:17.424700] [49] VFR_HUD
[23:32:17.873700] [107] RADIO
[23:32:17.876683] [107] RADIO_STATUS
[23:32:17.989804] [50] HEARTBEAT
[23:32:18.224843] [51] VFR_HUD
[23:32:18.793837] [108] RADIO
[23:32:18.796771] [108] RADIO_STATUS
[23:32:19.041916] [52] HEARTBEAT
[23:32:19.048865] [53] SYS_STATUS
[23:32:19.166995] [54] BATTERY_STATUS
[23:32:19.174919] [55] ATTITUDE_TARGET
[23:32:19.204920] [56] VFR_HUD
[23:32:19.833940] [57] VFR_HUD
[23:32:19.860944] [109] RADIO
[23:32:19.863916] [109] RADIO_STATUS
[23:32:20.060043] [58] HEARTBEAT
[23:32:20.863089] [110] RADIO
[23:32:20.866021] [110] RADIO_STATUS
[23:32:20.993142] [60] HEARTBEAT
[23:32:21.001163] [61] ATTITUDE_TARGET
[23:32:21.444139] [62] VFR_HUD
[23:32:21.789197] [111] RADIO
[23:32:21.792200] [111] RADIO_STATUS
[23:32:22.020266] [63] HEARTBEAT
[23:32:22.259316] [64] VFR_HUD
[23:32:22.823344] [112] RADIO
[23:32:22.826317] [112] RADIO_STATUS
[23:32:23.188419] [67] BATTERY_STATUS
[23:32:23.300467] [68] ATTITUDE_TARGET
[23:32:23.305708] [69] VFR_HUD
[23:32:23.853560] [113] RADIO
[23:32:23.856561] [113] RADIO_STATUS
[23:32:23.892646] [70] VFR_HUD
[23:32:24.098499] [71] HEARTBEAT
[23:32:24.663573] [72] VFR_HUD
[23:32:24.892573] [114] RADIO
[23:32:24.895531] [114] RADIO_STATUS
[23:32:25.022572] [73] HEARTBEAT
[23:32:25.030558] [74] ATTITUDE_TARGET
[23:32:25.473635] [75] VFR_HUD
[23:32:25.812656] [115] RADIO
[23:32:25.815611] [115] RADIO_STATUS
[23:32:26.039691] [76] HEARTBEAT
[23:32:26.273739] [77] VFR_HUD
[23:32:26.842759] [116] RADIO
[23:32:26.845708] [116] RADIO_STATUS
[23:32:27.090821] [78] HEARTBEAT
[23:32:27.097794] [79] SYS_STATUS
[23:32:27.219965] [80] BATTERY_STATUS
[23:32:27.220860] [81] EXTENDED_SYS_STATE
[23:32:27.228775] [82] ATTITUDE_TARGET
[23:32:27.233750] [83] VFR_HUD
[23:32:27.237752] [84] SYSTEM_TIME
[23:32:27.883879] [85] VFR_HUD
[23:32:27.912511] [117] RADIO
[23:32:27.913855] [117] RADIO_STATUS
[23:32:27.998933] [86] HEARTBEAT
[23:32:28.913033] [118] RADIO
[23:32:28.915999] [118] RADIO_STATUS
[23:32:29.042995] [88] HEARTBEAT
[23:32:29.050985] [89] ATTITUDE_TARGET
[23:32:29.389671] [90] VFR_HUD
[23:32:29.832068] [119] RADIO
[23:32:29.835060] [119] RADIO_STATUS
[23:32:30.069140] [91] HEARTBEAT
[23:32:30.189808] [92] VFR_HUD
[23:32:30.872174] [120] RADIO
[23:32:30.875161] [120] RADIO_STATUS
[23:32:31.052367] [95] BATTERY_STATUS
[23:32:31.060155] [96] ATTITUDE_TARGET
[23:32:31.065141] [97] VFR_HUD
[23:32:31.900258] [121] RADIO
[23:32:31.903204] [121] RADIO_STATUS
[23:32:31.974255] [98] VFR_HUD
[23:32:31.993281] [99] HEARTBEAT
[23:32:32.601401] [100] VFR_HUD
[23:32:32.940351] [122] RADIO
[23:32:32.943352] [122] RADIO_STATUS
[23:32:33.075398] [101] HEARTBEAT
[23:32:33.083384] [102] ATTITUDE_TARGET
[23:32:33.865563] [123] RADIO
[23:32:33.868670] [123] RADIO_STATUS
[23:32:33.981631] [104] HEARTBEAT
[23:32:34.212759] [105] VFR_HUD
[23:32:34.889649] [124] RADIO
[23:32:34.892597] [124] RADIO_STATUS
[23:32:35.018867] [106] HEARTBEAT
[23:32:35.024670] [107] SYS_STATUS
[23:32:35.139631] [108] BATTERY_STATUS
[23:32:35.257655] [109] ATTITUDE_TARGET
[23:32:35.261616] [110] VFR_HUD
[23:32:35.820705] [111] VFR_HUD
[23:32:35.934728] [125] RADIO
[23:32:35.937696] [125] RADIO_STATUS
[23:32:36.050939] [112] HEARTBEAT
[23:32:36.620860] [113] VFR_HUD
[23:32:36.959868] [126] RADIO
[23:32:36.962839] [126] RADIO_STATUS
[23:32:37.007857] [114] HEARTBEAT
[23:32:37.014826] [115] ATTITUDE_TARGET
[23:32:37.429890] [116] VFR_HUD
[23:32:37.879915] [127] RADIO
[23:32:37.882842] [127] RADIO_STATUS
[23:32:38.229962] [118] VFR_HUD
[23:32:38.924988] [128] RADIO
[23:32:38.927976] [128] RADIO_STATUS
[23:32:39.053062] [119] HEARTBEAT
[23:32:39.060019] [120] SYS_STATUS
[23:32:39.099024] [121] BATTERY_STATUS
[23:32:39.107054] [122] ATTITUDE_TARGET
[23:32:39.112173] [123] VFR_HUD
[23:32:39.947223] [129] RADIO
[23:32:39.950240] [129] RADIO_STATUS
[23:32:40.074137] [124] VFR_HUD
[23:32:40.077149] [125] HEARTBEAT
[23:32:40.653698] [126] VFR_HUD
[23:32:40.983431] [127] HEARTBEAT
[23:32:41.006270] [128] ATTITUDE_TARGET
[23:32:41.036261] [130] RADIO
[23:32:41.039237] [130] RADIO_STATUS
[23:32:41.912461] [131] RADIO
[23:32:41.915336] [131] RADIO_STATUS
[23:32:42.023371] [130] HEARTBEAT
[23:32:42.263336] [131] VFR_HUD
[23:32:42.937517] [132] RADIO
[23:32:42.940446] [132] RADIO_STATUS
[23:32:43.065558] [132] HEARTBEAT
[23:32:43.072589] [133] SYS_STATUS
[23:32:43.192507] [134] BATTERY_STATUS
[23:32:43.304500] [135] ATTITUDE_TARGET
[23:32:43.309536] [136] VFR_HUD
[23:32:43.867544] [137] VFR_HUD
[23:32:43.972706] [138] HEARTBEAT
[23:32:44.004557] [133] RADIO
[23:32:44.007535] [133] RADIO_STATUS
[23:32:44.667697] [139] VFR_HUD
[23:32:45.006655] [134] RADIO
[23:32:45.009612] [134] RADIO_STATUS
[23:32:45.136821] [140] HEARTBEAT
[23:32:45.144643] [141] ATTITUDE_TARGET
[23:32:45.476690] [142] VFR_HUD
[23:32:45.925730] [135] RADIO
[23:32:45.928717] [135] RADIO_STATUS
[23:32:46.276811] [144] VFR_HUD
[23:32:46.965859] [136] RADIO
[23:32:46.968845] [136] RADIO_STATUS
[23:32:47.887022] [152] VFR_HUD
[23:32:47.914202] [137] RADIO
[23:32:47.916957] [137] RADIO_STATUS
[23:32:48.001986] [153] HEARTBEAT
[23:32:48.581160] [154] VFR_HUD
[23:32:48.915091] [138] RADIO
[23:32:48.918056] [138] RADIO_STATUS
[23:32:49.045163] [155] HEARTBEAT
[23:32:49.053050] [156] ATTITUDE_TARGET
[23:32:49.391105] [157] VFR_HUD
[23:32:49.954254] [139] RADIO
[23:32:49.957194] [139] RADIO_STATUS
[23:32:50.070216] [158] HEARTBEAT
[23:32:50.185264] [159] VFR_HUD
[23:32:50.984270] [140] RADIO
[23:32:50.987266] [140] RADIO_STATUS
[23:32:51.112393] [160] HEARTBEAT
[23:32:51.119584] [161] SYS_STATUS
[23:32:51.234363] [162] BATTERY_STATUS
[23:32:51.351408] [163] ATTITUDE_TARGET
[23:32:51.356370] [164] VFR_HUD
[23:32:52.020437] [166] HEARTBEAT
[23:32:52.134428] [141] RADIO
[23:32:52.137454] [141] RADIO_STATUS
[23:32:52.604526] [167] VFR_HUD
[23:32:53.054471] [142] RADIO
[23:32:53.057457] [142] RADIO_STATUS
[23:32:53.183607] [168] HEARTBEAT
[23:32:53.191556] [169] ATTITUDE_TARGET
[23:32:53.404561] [170] VFR_HUD
[23:32:53.973644] [143] RADIO
[23:32:53.976581] [143] RADIO_STATUS
[23:32:54.007652] [171] HEARTBEAT
[23:32:54.218592] [172] VFR_HUD
[23:32:55.021705] [173] HEARTBEAT
[23:32:55.029516] [174] SYS_STATUS
[23:32:55.123676] [144] RADIO
[23:32:55.126729] [144] RADIO_STATUS
[23:32:56.046817] [145] RADIO_STATUS
[23:32:56.077851] [179] HEARTBEAT
[23:32:56.623985] [180] VFR_HUD
[23:32:56.962880] [146] RADIO
[23:32:56.965829] [146] RADIO_STATUS
[23:32:57.010913] [181] HEARTBEAT
[23:32:57.018886] [182] ATTITUDE_TARGET
[23:32:57.999992] [184] HEARTBEAT
[23:32:58.112939] [147] RADIO
[23:32:58.115985] [147] RADIO_STATUS
[23:32:58.234067] [185] VFR_HUD
[23:32:59.033077] [148] RADIO
[23:32:59.036015] [148] RADIO_STATUS
[23:32:59.093027] [186] HEARTBEAT
[23:32:59.100050] [187] SYS_STATUS
[23:32:59.107024] [188] BATTERY_STATUS
[23:32:59.120039] [189] ATTITUDE_TARGET
[23:32:59.123999] [190] VFR_HUD
[23:33:00.069189] [192] HEARTBEAT
[23:33:00.183127] [149] RADIO
[23:33:00.186101] [149] RADIO_STATUS
[23:33:00.658218] [193] VFR_HUD
[23:33:01.102229] [150] RADIO
[23:33:01.105207] [150] RADIO_STATUS
[23:33:01.149232] [194] HEARTBEAT
[23:33:01.157287] [195] ATTITUDE_TARGET
[23:33:01.453283] [196] VFR_HUD
[23:33:02.022351] [151] RADIO
[23:33:02.025500] [151] RADIO_STATUS
[23:33:02.065318] [197] HEARTBEAT
[23:33:02.262354] [198] VFR_HUD
[23:33:03.070525] [199] HEARTBEAT
[23:33:03.076493] [200] SYS_STATUS
[23:33:03.089963] [152] RADIO
[23:33:03.092443] [152] RADIO_STATUS
[23:33:03.428595] [202] ATTITUDE_TARGET
[23:33:03.433470] [203] VFR_HUD
[23:33:03.872657] [204] VFR_HUD
[23:33:03.977495] [205] HEARTBEAT
[23:33:04.009485] [153] RADIO
[23:33:04.012620] [153] RADIO_STATUS
[23:33:04.672648] [206] VFR_HUD
[23:33:05.011556] [154] RADIO
[23:33:05.014701] [154] RADIO_STATUS
[23:33:05.141622] [207] HEARTBEAT
[23:33:05.149565] [208] ATTITUDE_TARGET
[23:33:05.482622] [209] VFR_HUD
[23:33:06.046735] [210] HEARTBEAT
[23:33:06.078679] [155] RADIO
[23:33:06.081622] [155] RADIO_STATUS
[23:33:06.281703] [211] VFR_HUD
[23:33:07.080769] [156] RADIO
[23:33:07.083771] [156] RADIO_STATUS
[23:33:07.143848] [212] HEARTBEAT
[23:33:07.150785] [213] SYS_STATUS
[23:33:07.161798] [214] BATTERY_STATUS
[23:33:07.161936] [215] EXTENDED_SYS_STATE
[23:33:07.176817] [216] ATTITUDE_TARGET
[23:33:07.182035] [217] VFR_HUD
[23:33:07.185820] [218] SYSTEM_TIME
[23:33:08.001030] [157] RADIO
[23:33:08.002893] [157] RADIO_STATUS
[23:33:08.116925] [220] HEARTBEAT
[23:33:08.581097] [221] VFR_HUD
[23:33:09.150036] [158] RADIO
[23:33:09.152981] [158] RADIO_STATUS
[23:33:09.197219] [222] HEARTBEAT
[23:33:09.205074] [223] ATTITUDE_TARGET
[23:33:09.391866] [224] VFR_HUD
[23:33:10.070081] [159] RADIO
[23:33:10.073257] [159] RADIO_STATUS
[23:33:10.319158] [225] HEARTBEAT
[23:33:10.324235] [226] VFR_HUD
[23:33:11.008215] [227] HEARTBEAT
[23:33:11.015306] [228] SYS_STATUS
[23:33:11.133207] [229] BATTERY_STATUS
[23:33:11.141218] [230] ATTITUDE_TARGET
[23:33:11.171219] [231] VFR_HUD
[23:33:11.199220] [160] RADIO
[23:33:11.202167] [160] RADIO_STATUS
[23:33:11.800685] [232] VFR_HUD
[23:33:12.025354] [233] HEARTBEAT
[23:33:12.057295] [161] RADIO
[23:33:12.060554] [161] RADIO_STATUS
[23:33:12.610368] [234] VFR_HUD
[23:33:13.059426] [162] RADIO
[23:33:13.062323] [162] RADIO_STATUS
[23:33:13.189491] [235] HEARTBEAT
[23:33:13.197609] [236] ATTITUDE_TARGET
[23:33:13.410466] [237] VFR_HUD
[23:33:13.985541] [238] HEARTBEAT
[23:33:14.104582] [163] RADIO
[23:33:14.107529] [163] RADIO_STATUS
[23:33:14.219566] [239] VFR_HUD
[23:33:15.027626] [240] HEARTBEAT
[23:33:15.034603] [241] SYS_STATUS
[23:33:15.128776] [164] RADIO
[23:33:15.131601] [164] RADIO_STATUS
[23:33:15.169672] [242] BATTERY_STATUS
[23:33:15.196695] [243] ATTITUDE_TARGET
[23:33:15.201640] [244] VFR_HUD
[23:33:15.834701] [245] VFR_HUD
[23:33:16.047709] [165] RADIO
[23:33:16.050695] [165] RADIO_STATUS
[23:33:16.164735] [246] HEARTBEAT
[23:33:16.628816] [247] VFR_HUD
[23:33:17.197761] [166] RADIO
[23:33:17.201866] [166] RADIO_STATUS
[23:33:17.326831] [249] ATTITUDE_TARGET
[23:33:17.448011] [250] VFR_HUD
[23:33:18.003890] [251] HEARTBEAT
[23:33:18.117898] [167] RADIO
[23:33:18.120085] [167] RADIO_STATUS
[23:33:19.060987] [253] HEARTBEAT
[23:33:19.067921] [254] SYS_STATUS
[23:33:19.106965] [255] BATTERY_STATUS
[23:33:19.116061] [0] ATTITUDE_TARGET
[23:33:19.119922] [1] VFR_HUD
[23:33:19.156943] [168] RADIO
[23:33:19.159930] [168] RADIO_STATUS
[23:33:20.083065] [2] VFR_HUD
[23:33:20.086002] [3] HEARTBEAT
[23:33:20.093992] [169] RADIO
[23:33:20.097171] [169] RADIO_STATUS
[23:33:20.658182] [4] VFR_HUD
[23:33:21.007210] [5] HEARTBEAT
[23:33:21.015188] [6] ATTITUDE_TARGET
[23:33:21.107143] [170] RADIO
[23:33:21.110117] [170] RADIO_STATUS
[23:33:21.457221] [7] VFR_HUD
[23:33:22.038290] [8] HEARTBEAT
[23:33:22.147204] [171] RADIO
[23:33:22.149189] [171] RADIO_STATUS
[23:33:22.267322] [9] VFR_HUD
[23:33:23.075406] [10] HEARTBEAT
[23:33:23.081384] [11] SYS_STATUS
[23:33:23.176366] [172] RADIO
[23:33:23.179411] [172] RADIO_STATUS
[23:33:23.217374] [12] BATTERY_STATUS
[23:33:23.244353] [13] ATTITUDE_TARGET
[23:33:23.249328] [14] VFR_HUD
[23:33:24.096421] [173] RADIO
[23:33:24.103623] [173] RADIO_STATUS
[23:33:24.677572] [17] VFR_HUD
[23:33:25.245469] [174] RADIO
[23:33:25.248460] [174] RADIO_STATUS
[23:33:25.486477] [20] VFR_HUD
[23:33:26.052518] [21] HEARTBEAT
[23:33:26.085642] [175] RADIO
[23:33:26.086519] [175] RADIO_STATUS
[23:33:26.181677] [22] VFR_HUD
[23:33:26.976682] [23] HEARTBEAT
[23:33:26.996666] [24] SYS_STATUS
[23:33:27.036923] [25] BATTERY_STATUS
[23:33:27.037055] [26] EXTENDED_SYS_STATE
[23:33:27.043625] [27] ATTITUDE_TARGET
[23:33:27.048631] [28] VFR_HUD
[23:33:27.052753] [29] SYSTEM_TIME
[23:33:27.084668] [176] RADIO
[23:33:27.087631] [176] RADIO_STATUS
[23:33:27.785758] [30] VFR_HUD
[23:33:28.010797] [31] HEARTBEAT
[23:33:28.129800] [177] RADIO
[23:33:28.132759] [177] RADIO_STATUS
[23:33:29.054012] [33] HEARTBEAT
[23:33:29.061887] [34] ATTITUDE_TARGET
[23:33:29.153909] [178] RADIO
[23:33:29.156956] [178] RADIO_STATUS
[23:33:29.395107] [35] VFR_HUD
[23:33:30.080058] [36] HEARTBEAT
[23:33:30.195028] [37] VFR_HUD
[23:33:30.222137] [179] RADIO
[23:33:30.225081] [179] RADIO_STATUS
[23:33:31.012140] [38] HEARTBEAT
[23:33:31.019198] [39] SYS_STATUS
[23:33:31.138189] [40] BATTERY_STATUS
[23:33:31.145933] [41] ATTITUDE_TARGET
[23:33:31.175133] [42] VFR_HUD
[23:33:31.203164] [180] RADIO
[23:33:31.206117] [180] RADIO_STATUS
[23:33:31.804264] [43] VFR_HUD
[23:33:32.144241] [181] RADIO
[23:33:32.147179] [181] RADIO_STATUS
[23:33:32.614368] [45] VFR_HUD
[23:33:33.294415] [182] RADIO
[23:33:33.296392] [182] RADIO_STATUS
[23:33:33.414463] [48] VFR_HUD
[23:33:33.989484] [49] HEARTBEAT
[23:33:34.213561] [183] RADIO
[23:33:34.216564] [183] RADIO_STATUS
[23:33:35.031600] [51] HEARTBEAT
[23:33:35.038597] [52] SYS_STATUS
[23:33:35.133558] [184] RADIO
[23:33:35.136716] [184] RADIO_STATUS
[23:33:35.175144] [53] BATTERY_STATUS
[23:33:35.201599] [54] ATTITUDE_TARGET
[23:33:35.206559] [55] VFR_HUD
[23:33:35.839713] [56] VFR_HUD
[23:33:36.059672] [57] HEARTBEAT
[23:33:36.178738] [185] RADIO
[23:33:36.181770] [185] RADIO_STATUS
[23:33:36.993946] [59] HEARTBEAT
[23:33:37.001748] [60] ATTITUDE_TARGET
[23:33:37.204115] [186] RADIO
[23:33:37.206770] [186] RADIO_STATUS
[23:33:37.449847] [61] VFR_HUD
[23:33:38.009896] [62] HEARTBEAT
[23:33:38.243886] [63] VFR_HUD
[23:33:38.275888] [187] RADIO
[23:33:38.278946] [187] RADIO_STATUS
[23:33:39.061020] [64] HEARTBEAT
[23:33:39.068011] [65] SYS_STATUS
[23:33:39.187113] [66] BATTERY_STATUS
[23:33:39.194035] [67] ATTITUDE_TARGET
[23:33:39.225005] [68] VFR_HUD
[23:33:39.253238] [188] RADIO
[23:33:39.255088] [188] RADIO_STATUS
[23:33:39.854115] [69] VFR_HUD
[23:33:40.193306] [189] RADIO
[23:33:40.196105] [189] RADIO_STATUS
[23:33:40.663207] [71] VFR_HUD
[23:33:41.013211] [72] HEARTBEAT
[23:33:41.020243] [73] ATTITUDE_TARGET
[23:33:41.343195] [190] RADIO
[23:33:41.346162] [190] RADIO_STATUS
[23:33:41.381257] [74] VFR_HUD
[23:33:42.044366] [75] HEARTBEAT
[23:33:42.262296] [191] RADIO
[23:33:42.265271] [191] RADIO_STATUS
[23:33:43.081487] [77] HEARTBEAT
[23:33:43.087428] [78] SYS_STATUS
[23:33:43.182540] [192] RADIO
[23:33:43.185372] [192] RADIO_STATUS
[23:33:43.223439] [79] BATTERY_STATUS
[23:33:43.250438] [80] ATTITUDE_TARGET
[23:33:43.255436] [81] VFR_HUD
[23:33:43.883521] [82] VFR_HUD
[23:33:43.988707] [83] HEARTBEAT
[23:33:44.222471] [193] RADIO
[23:33:44.225510] [193] RADIO_STATUS
[23:33:45.047721] [85] HEARTBEAT
[23:33:45.055660] [86] ATTITUDE_TARGET
[23:33:45.251724] [194] RADIO
[23:33:45.255051] [194] RADIO_STATUS
[23:33:45.497935] [87] VFR_HUD
[23:33:46.057823] [88] HEARTBEAT
[23:33:46.292839] [89] VFR_HUD
[23:33:46.319710] [195] RADIO
[23:33:46.322720] [195] RADIO_STATUS
[23:33:47.119831] [92] BATTERY_STATUS
[23:33:47.121773] [93] EXTENDED_SYS_STATE
[23:33:47.153834] [94] ATTITUDE_TARGET
[23:33:47.157936] [95] VFR_HUD
[23:33:47.162184] [96] SYSTEM_TIME
[23:33:47.213927] [196] RADIO
[23:33:47.214840] [196] RADIO_STATUS
[23:33:47.791957] [97] VFR_HUD
[23:33:48.031921] [98] HEARTBEAT
[23:33:48.240929] [197] RADIO
[23:33:48.243942] [197] RADIO_STATUS
[23:33:48.592019] [99] VFR_HUD
[23:33:49.061096] [100] HEARTBEAT
[23:33:49.069058] [101] ATTITUDE_TARGET
[23:33:49.390112] [198] RADIO
[23:33:49.393062] [198] RADIO_STATUS
[23:33:49.511109] [102] VFR_HUD
[23:33:50.091212] [103] HEARTBEAT
[23:33:50.201177] [104] VFR_HUD
[23:33:50.228403] [199] RADIO
[23:33:50.231180] [199] RADIO_STATUS
[23:33:51.025897] [105] HEARTBEAT
[23:33:51.026145] [106] SYS_STATUS
[23:33:51.143239] [107] BATTERY_STATUS
[23:33:51.151231] [108] ATTITUDE_TARGET
[23:33:51.181217] [109] VFR_HUD
[23:33:51.209176] [200] RADIO
[23:33:51.213887] [200] RADIO_STATUS
[23:33:51.810421] [110] VFR_HUD
[23:33:52.036340] [111] HEARTBEAT
[23:33:52.270322] [201] RADIO
[23:33:52.273289] [201] RADIO_STATUS
[23:33:53.089632] [113] HEARTBEAT
[23:33:53.097450] [114] ATTITUDE_TARGET
[23:33:53.217504] [202] RADIO
[23:33:53.220501] [202] RADIO_STATUS
[23:33:53.420524] [115] VFR_HUD
[23:33:53.995640] [116] HEARTBEAT
[23:33:54.219529] [203] RADIO
[23:33:54.222493] [203] RADIO_STATUS
[23:33:54.258596] [117] VFR_HUD
[23:33:55.164716] [120] BATTERY_STATUS
[23:33:55.276672] [121] ATTITUDE_TARGET
[23:33:55.281632] [122] VFR_HUD
[23:33:55.287634] [204] RADIO
[23:33:55.290788] [204] RADIO_STATUS
[23:33:55.845803] [123] VFR_HUD
[23:33:56.288743] [205] RADIO
[23:33:56.291686] [205] RADIO_STATUS
[23:33:56.639750] [125] VFR_HUD
[23:33:56.998760] [126] HEARTBEAT
[23:33:57.006760] [127] ATTITUDE_TARGET
[23:33:57.438817] [206] RADIO
[23:33:57.441726] [206] RADIO_STATUS
[23:33:57.559770] [128] VFR_HUD
[23:33:58.015130] [129] HEARTBEAT
[23:33:58.249507] [130] VFR_HUD
[23:33:58.281839] [207] RADIO
[23:33:58.284796] [207] RADIO_STATUS
[23:33:59.066943] [131] HEARTBEAT
[23:33:59.073927] [132] SYS_STATUS
[23:33:59.192014] [133] BATTERY_STATUS
[23:33:59.200069] [134] ATTITUDE_TARGET
[23:33:59.230033] [135] VFR_HUD
[23:33:59.257992] [208] RADIO
[23:33:59.260971] [208] RADIO_STATUS
[23:33:59.859268] [136] VFR_HUD
[23:33:59.984066] [137] HEARTBEAT
[23:34:00.323082] [209] RADIO
[23:34:00.326108] [209] RADIO_STATUS
[23:34:01.018555] [139] HEARTBEAT
[23:34:01.026143] [140] ATTITUDE_TARGET
[23:34:01.243172] [210] RADIO
[23:34:01.246120] [210] RADIO_STATUS
[23:34:01.469506] [141] VFR_HUD
[23:34:02.046051] [142] HEARTBEAT
[23:34:02.267368] [211] RADIO
[23:34:02.270553] [211] RADIO_STATUS
[23:34:02.306312] [143] VFR_HUD
[23:34:03.207482] [146] BATTERY_STATUS
[23:34:03.324302] [147] ATTITUDE_TARGET
[23:34:03.329305] [148] VFR_HUD
[23:34:03.363339] [212] RADIO
[23:34:03.366349] [212] RADIO_STATUS
[23:34:03.893448] [149] VFR_HUD
[23:34:04.004543] [150] HEARTBEAT
[23:34:04.337712] [213] RADIO
[23:34:04.340460] [213] RADIO_STATUS
[23:34:04.577483] [151] VFR_HUD
[23:34:05.052623] [152] HEARTBEAT
[23:34:05.059531] [153] ATTITUDE_TARGET
[23:34:05.256532] [214] RADIO
[23:34:05.259534] [214] RADIO_STATUS
[23:34:06.062782] [155] HEARTBEAT
[23:34:06.187571] [156] VFR_HUD
[23:34:06.301587] [215] RADIO
[23:34:06.304671] [215] RADIO_STATUS
[23:34:06.997808] [157] HEARTBEAT
[23:34:07.002136] [158] SYS_STATUS
[23:34:07.124746] [159] BATTERY_STATUS
[23:34:07.126686] [160] EXTENDED_SYS_STATE
[23:34:07.158762] [161] ATTITUDE_TARGET
[23:34:07.163620] [162] VFR_HUD
[23:34:07.166618] [163] SYSTEM_TIME
[23:34:07.326708] [216] RADIO
[23:34:07.329753] [216] RADIO_STATUS
[23:34:07.797795] [164] VFR_HUD
[23:34:08.027882] [165] HEARTBEAT
[23:34:08.371828] [217] RADIO
[23:34:08.374906] [217] RADIO_STATUS
[23:34:08.597957] [166] VFR_HUD
[23:34:09.066878] [167] HEARTBEAT
[23:34:09.074923] [168] ATTITUDE_TARGET
[23:34:09.290183] [218] RADIO
[23:34:09.290618] [218] RADIO_STATUS
[23:34:09.407105] [169] VFR_HUD
[23:34:10.207324] [171] VFR_HUD
[23:34:10.317006] [219] RADIO
[23:34:10.320149] [219] RADIO_STATUS
[23:34:11.030081] [172] HEARTBEAT
[23:34:11.036061] [173] SYS_STATUS
[23:34:11.356090] [220] RADIO
[23:34:11.359062] [220] RADIO_STATUS
[23:34:12.052154] [177] VFR_HUD
[23:34:12.055133] [178] HEARTBEAT
[23:34:12.386167] [221] RADIO
[23:34:12.388155] [221] RADIO_STATUS
[23:34:12.631141] [179] VFR_HUD
[23:34:13.100219] [180] HEARTBEAT
[23:34:13.108303] [181] ATTITUDE_TARGET
[23:34:13.305242] [222] RADIO
[23:34:13.308269] [222] RADIO_STATUS
[23:34:14.001328] [183] HEARTBEAT
[23:34:14.241342] [184] VFR_HUD
[23:34:14.357344] [223] RADIO
[23:34:14.360395] [223] RADIO_STATUS
[23:34:15.043435] [185] HEARTBEAT
[23:34:15.054706] [186] SYS_STATUS
[23:34:15.170617] [187] BATTERY_STATUS
[23:34:15.282499] [188] ATTITUDE_TARGET
[23:34:15.287630] [189] VFR_HUD
[23:34:15.375468] [224] RADIO
[23:34:15.378586] [224] RADIO_STATUS
[23:34:15.846588] [190] VFR_HUD
[23:34:16.071554] [191] HEARTBEAT
[23:34:16.415540] [225] RADIO
[23:34:16.418739] [225] RADIO_STATUS
[23:34:16.645617] [192] VFR_HUD
[23:34:17.005672] [193] HEARTBEAT
[23:34:17.012680] [194] ATTITUDE_TARGET
[23:34:17.334699] [226] RADIO
[23:34:17.337709] [226] RADIO_STATUS
[23:34:17.455751] [195] VFR_HUD
[23:34:18.256026] [197] VFR_HUD
[23:34:18.364843] [227] RADIO
[23:34:18.367813] [227] RADIO_STATUS
[23:34:19.405056] [228] RADIO
[23:34:19.407002] [228] RADIO_STATUS
[23:34:19.865076] [203] VFR_HUD
[23:34:19.981071] [204] HEARTBEAT
[23:34:20.434055] [229] RADIO
[23:34:20.437208] [229] RADIO_STATUS
[23:34:20.675101] [205] VFR_HUD
[23:34:21.024170] [206] HEARTBEAT
[23:34:21.032097] [207] ATTITUDE_TARGET
[23:34:21.354157] [230] RADIO
[23:34:21.357076] [230] RADIO_STATUS
[23:34:21.404150] [208] VFR_HUD
[23:34:22.050245] [209] HEARTBEAT
[23:34:22.289268] [210] VFR_HUD
[23:34:22.405215] [231] RADIO
[23:34:22.408241] [231] RADIO_STATUS
[23:34:23.092311] [211] HEARTBEAT
[23:34:23.098260] [212] SYS_STATUS
[23:34:23.213493] [213] BATTERY_STATUS
[23:34:23.331398] [214] ATTITUDE_TARGET
[23:34:23.336288] [215] VFR_HUD
[23:34:23.373779] [232] RADIO
[23:34:23.373926] [232] RADIO_STATUS
[23:34:23.899373] [216] VFR_HUD
[23:34:24.011349] [217] HEARTBEAT
[23:34:24.343450] [233] RADIO
[23:34:24.346467] [233] RADIO_STATUS
[23:34:24.584480] [218] VFR_HUD
[23:34:25.053572] [219] HEARTBEAT
[23:34:25.061548] [220] ATTITUDE_TARGET
[23:34:25.384544] [221] VFR_HUD
[23:34:25.411568] [234] RADIO
[23:34:25.414500] [234] RADIO_STATUS
[23:34:26.193633] [223] VFR_HUD
[23:34:26.412575] [235] RADIO
[23:34:26.415586] [235] RADIO_STATUS
[23:34:27.001609] [224] HEARTBEAT
[23:34:27.007769] [225] SYS_STATUS
[23:34:27.452656] [236] RADIO
[23:34:27.455624] [236] RADIO_STATUS
[23:34:27.803735] [231] VFR_HUD
[23:34:28.033805] [232] HEARTBEAT
[23:34:28.482819] [237] RADIO
[23:34:28.485834] [237] RADIO_STATUS
[23:34:28.603865] [233] VFR_HUD
[23:34:29.072901] [234] HEARTBEAT
[23:34:29.079897] [235] ATTITUDE_TARGET
[23:34:29.402875] [238] RADIO
[23:34:29.404843] [238] RADIO_STATUS
[23:34:29.979007] [237] HEARTBEAT
[23:34:30.212993] [238] VFR_HUD
[23:34:30.447003] [239] RADIO
[23:34:30.449947] [239] RADIO_STATUS
[23:34:31.036262] [239] HEARTBEAT
[23:34:31.042033] [240] SYS_STATUS
[23:34:31.082183] [241] BATTERY_STATUS
[23:34:31.090128] [242] ATTITUDE_TARGET
[23:34:31.095099] [243] VFR_HUD
[23:34:31.472139] [240] RADIO
[23:34:31.475046] [240] RADIO_STATUS
[23:34:32.048217] [245] HEARTBEAT
[23:34:32.392326] [241] RADIO
[23:34:32.395234] [241] RADIO_STATUS
[23:34:32.638287] [246] VFR_HUD
[23:34:33.432300] [249] VFR_HUD
[23:34:33.465274] [242] RADIO
[23:34:33.468236] [242] RADIO_STATUS
[23:34:34.242476] [251] VFR_HUD
[23:34:34.462429] [243] RADIO
[23:34:34.465378] [243] RADIO_STATUS
[23:34:35.050456] [252] HEARTBEAT
[23:34:35.057389] [253] SYS_STATUS
[23:34:35.177988] [254] BATTERY_STATUS
[23:34:35.408535] [255] ATTITUDE_TARGET
[23:34:35.412563] [0] VFR_HUD
[23:34:35.506591] [244] RADIO
[23:34:35.509583] [244] RADIO_STATUS
[23:34:35.851520] [1] VFR_HUD
[23:34:36.084224] [2] HEARTBEAT
[23:34:36.534703] [245] RADIO
[23:34:36.537605] [245] RADIO_STATUS
[23:34:36.651542] [3] VFR_HUD
[23:34:37.011727] [4] HEARTBEAT
[23:34:37.018755] [5] ATTITUDE_TARGET
[23:34:37.450745] [246] RADIO
[23:34:37.453695] [246] RADIO_STATUS
[23:34:38.027794] [7] HEARTBEAT
[23:34:38.261750] [8] VFR_HUD
[23:34:38.490770] [247] RADIO
[23:34:38.494009] [247] RADIO_STATUS
[23:34:39.083476] [9] HEARTBEAT
[23:34:39.085946] [10] SYS_STATUS
[23:34:39.204928] [11] BATTERY_STATUS
[23:34:39.213855] [12] ATTITUDE_TARGET
[23:34:39.242938] [13] VFR_HUD
[23:34:39.520956] [248] RADIO
[23:34:39.523966] [248] RADIO_STATUS
[23:34:39.986971] [15] HEARTBEAT
[23:34:40.566157] [249] RADIO
[23:34:40.568994] [249] RADIO_STATUS
[23:34:40.686999] [16] VFR_HUD
[23:34:41.155151] [17] HEARTBEAT
[23:34:41.163025] [18] ATTITUDE_TARGET
[23:34:41.481301] [19] VFR_HUD
[23:34:41.508040] [250] RADIO
[23:34:41.511040] [250] RADIO_STATUS
[23:34:42.057269] [20] HEARTBEAT
[23:34:42.510192] [251] RADIO
[23:34:42.513164] [251] RADIO_STATUS
[23:34:42.976287] [22] HEARTBEAT
[23:34:42.996247] [23] SYS_STATUS
[23:34:43.040319] [24] BATTERY_STATUS
[23:34:43.047245] [25] ATTITUDE_TARGET
[23:34:43.052247] [26] VFR_HUD
[23:34:43.550346] [252] RADIO
[23:34:43.553383] [252] RADIO_STATUS
[23:34:44.016393] [27] VFR_HUD
[23:34:44.019734] [28] HEARTBEAT
[23:34:44.580634] [253] RADIO
[23:34:44.583439] [253] RADIO_STATUS
[23:34:44.701612] [29] VFR_HUD
[23:34:45.060630] [30] HEARTBEAT
[23:34:45.068607] [31] ATTITUDE_TARGET
[23:34:45.390534] [32] VFR_HUD
[23:34:45.500527] [254] RADIO
[23:34:45.503555] [254] RADIO_STATUS
[23:34:46.076682] [33] HEARTBEAT
[23:34:46.200777] [34] VFR_HUD
[23:34:46.539707] [255] RADIO
[23:34:46.542574] [255] RADIO_STATUS
[23:34:47.007762] [35] HEARTBEAT
[23:34:47.014767] [36] SYS_STATUS
[23:34:47.132866] [37] BATTERY_STATUS
[23:34:47.133693] [38] EXTENDED_SYS_STATE
[23:34:47.253763] [39] ATTITUDE_TARGET
[23:34:47.258833] [40] VFR_HUD
[23:34:47.261824] [41] SYSTEM_TIME
[23:34:47.569935] [0] RADIO
[23:34:47.572693] [0] RADIO_STATUS
[23:34:48.035851] [43] HEARTBEAT
[23:34:48.489830] [1] RADIO
[23:34:48.492792] [1] RADIO_STATUS
[23:34:48.609833] [44] VFR_HUD
[23:34:49.198883] [45] HEARTBEAT
[23:34:49.207084] [46] ATTITUDE_TARGET
[23:34:49.424922] [47] VFR_HUD
[23:34:49.540972] [2] RADIO
[23:34:49.544062] [2] RADIO_STATUS
[23:34:49.985080] [48] HEARTBEAT
[23:34:50.559030] [3] RADIO
[23:34:50.562334] [3] RADIO_STATUS
[23:34:51.042146] [50] HEARTBEAT
[23:34:51.049262] [51] SYS_STATUS
[23:34:51.088180] [52] BATTERY_STATUS
[23:34:51.096054] [53] ATTITUDE_TARGET
[23:34:51.101062] [54] VFR_HUD
[23:34:51.602129] [4] RADIO
[23:34:51.605143] [4] RADIO_STATUS
[23:34:52.065449] [55] VFR_HUD
[23:34:52.068200] [56] HEARTBEAT
[23:34:52.629582] [5] RADIO
[23:34:52.631186] [5] RADIO_STATUS
[23:34:52.749224] [57] VFR_HUD
[23:34:52.975308] [58] HEARTBEAT
[23:34:52.997294] [59] ATTITUDE_TARGET
[23:34:53.439345] [60] VFR_HUD
[23:34:53.548259] [6] RADIO
[23:34:53.552535] [6] RADIO_STATUS
[23:34:54.020423] [61] HEARTBEAT
[23:34:54.249400] [62] VFR_HUD
[23:34:54.588357] [7] RADIO
[23:34:54.591375] [7] RADIO_STATUS
[23:34:55.056438] [63] HEARTBEAT
[23:34:55.063425] [64] SYS_STATUS
[23:34:55.178429] [65] BATTERY_STATUS
[23:34:55.295705] [66] ATTITUDE_TARGET
[23:34:55.300474] [67] VFR_HUD
[23:34:55.618508] [8] RADIO
[23:34:55.621563] [8] RADIO_STATUS
[23:34:55.858729] [68] VFR_HUD
[23:34:56.088547] [69] HEARTBEAT
[23:34:56.536597] [9] RADIO
[23:34:56.539552] [9] RADIO_STATUS
[23:34:56.575546] [70] VFR_HUD
[23:34:57.044582] [71] HEARTBEAT
[23:34:57.053871] [72] ATTITUDE_TARGET
[23:34:57.466689] [73] VFR_HUD
[23:34:57.581685] [10] RADIO
[23:34:57.584659] [10] RADIO_STATUS
[23:34:58.032751] [74] HEARTBEAT
[23:34:58.605938] [11] RADIO
[23:34:58.608736] [11] RADIO_STATUS
[23:34:59.088839] [76] HEARTBEAT
[23:34:59.095818] [77] SYS_STATUS
[23:34:59.137344] [78] BATTERY_STATUS
[23:34:59.142787] [79] ATTITUDE_TARGET
[23:34:59.147775] [80] VFR_HUD
[23:34:59.650944] [12] RADIO
[23:34:59.653872] [12] RADIO_STATUS
[23:35:00.002108] [81] VFR_HUD
[23:35:00.005000] [82] HEARTBEAT
[23:35:00.675125] [13] RADIO
[23:35:00.677961] [13] RADIO_STATUS
[23:35:00.714154] [83] VFR_HUD
[23:35:01.035026] [84] HEARTBEAT
[23:35:01.043060] [85] ATTITUDE_TARGET
[23:35:01.486191] [86] VFR_HUD
[23:35:01.595072] [14] RADIO
[23:35:01.598064] [14] RADIO_STATUS
[23:35:02.061255] [87] HEARTBEAT
[23:35:02.176121] [88] VFR_HUD
[23:35:02.640281] [15] RADIO
[23:35:02.643214] [15] RADIO_STATUS
[23:35:02.993380] [89] HEARTBEAT
[23:35:03.000248] [90] SYS_STATUS
[23:35:03.119281] [91] BATTERY_STATUS
[23:35:03.126367] [92] ATTITUDE_TARGET
[23:35:03.157208] [93] VFR_HUD
[23:35:03.560328] [16] RADIO
[23:35:03.563275] [16] RADIO_STATUS
[23:35:03.785538] [94] VFR_HUD
[23:35:04.584367] [17] RADIO
[23:35:04.587518] [17] RADIO_STATUS
[23:35:04.705574] [96] VFR_HUD
[23:35:05.395463] [99] VFR_HUD
[23:35:05.629436] [18] RADIO
[23:35:05.632417] [18] RADIO_STATUS
[23:35:05.970421] [100] HEARTBEAT
[23:35:06.654581] [19] RADIO
[23:35:06.657598] [19] RADIO_STATUS
[23:35:07.012639] [102] HEARTBEAT
[23:35:07.019619] [103] SYS_STATUS
[23:35:07.137579] [104] BATTERY_STATUS
[23:35:07.139513] [105] EXTENDED_SYS_STATE
[23:35:07.258593] [106] ATTITUDE_TARGET
[23:35:07.263525] [107] VFR_HUD
[23:35:07.267537] [108] SYSTEM_TIME
[23:35:07.574680] [20] RADIO
[23:35:07.577548] [20] RADIO_STATUS
[23:35:07.820660] [109] VFR_HUD
[23:35:08.040668] [110] HEARTBEAT
[23:35:08.723706] [21] RADIO
[23:35:08.726735] [21] RADIO_STATUS
[23:35:09.083912] [112] HEARTBEAT
[23:35:09.091756] [113] ATTITUDE_TARGET
[23:35:09.429817] [114] VFR_HUD
[23:35:09.643789] [22] RADIO
[23:35:09.649754] [22] RADIO_STATUS
[23:35:09.989861] [115] HEARTBEAT
[23:35:10.224985] [116] VFR_HUD
[23:35:10.684182] [23] RADIO
[23:35:10.686949] [23] RADIO_STATUS
[23:35:11.041957] [117] HEARTBEAT
[23:35:11.048197] [118] SYS_STATUS
[23:35:11.167643] [119] BATTERY_STATUS
[23:35:11.174984] [120] ATTITUDE_TARGET
[23:35:11.205923] [121] VFR_HUD
[23:35:11.603201] [24] RADIO
[23:35:11.606022] [24] RADIO_STATUS
[23:35:11.834045] [122] VFR_HUD
[23:35:12.633223] [25] RADIO
[23:35:12.636144] [25] RADIO_STATUS
[23:35:12.755033] [124] VFR_HUD
[23:35:12.993384] [125] HEARTBEAT
[23:35:13.001124] [126] ATTITUDE_TARGET
[23:35:13.444320] [127] VFR_HUD
[23:35:13.673211] [26] RADIO
[23:35:13.676221] [26] RADIO_STATUS
[23:35:14.024334] [128] HEARTBEAT
[23:35:14.703380] [27] RADIO
[23:35:14.706351] [27] RADIO_STATUS
[23:35:15.061575] [130] HEARTBEAT
[23:35:15.067543] [131] SYS_STATUS
[23:35:15.182385] [132] BATTERY_STATUS
[23:35:15.300437] [133] ATTITUDE_TARGET
[23:35:15.305436] [134] VFR_HUD
[23:35:15.622650] [28] RADIO
[23:35:15.625416] [28] RADIO_STATUS
[23:35:15.863782] [135] VFR_HUD
[23:35:15.973524] [136] HEARTBEAT
[23:35:16.771603] [29] RADIO
[23:35:16.774575] [29] RADIO_STATUS
[23:35:17.027040] [138] HEARTBEAT
[23:35:17.034763] [139] ATTITUDE_TARGET
[23:35:17.477644] [140] VFR_HUD
[23:35:17.691725] [30] RADIO
[23:35:17.694682] [30] RADIO_STATUS
[23:35:18.037735] [141] HEARTBEAT
[23:35:18.272710] [142] VFR_HUD
[23:35:18.616752] [31] RADIO
[23:35:18.619670] [31] RADIO_STATUS
[23:35:19.651807] [32] RADIO
[23:35:19.654765] [32] RADIO_STATUS
[23:35:20.012886] [148] VFR_HUD
[23:35:20.016053] [149] HEARTBEAT
[23:35:20.576996] [150] VFR_HUD
[23:35:20.681077] [33] RADIO
[23:35:20.683934] [33] RADIO_STATUS
[23:35:21.041034] [151] HEARTBEAT
[23:35:21.047956] [152] ATTITUDE_TARGET
[23:35:21.381036] [153] VFR_HUD
[23:35:21.720278] [34] RADIO
[23:35:21.723044] [34] RADIO_STATUS
[23:35:22.072244] [154] HEARTBEAT
[23:35:22.181064] [155] VFR_HUD
[23:35:22.750137] [35] RADIO
[23:35:22.753075] [35] RADIO_STATUS
[23:35:22.999096] [156] HEARTBEAT
[23:35:23.005143] [157] SYS_STATUS
[23:35:23.124175] [158] BATTERY_STATUS
[23:35:23.132139] [159] ATTITUDE_TARGET
[23:35:23.162212] [160] VFR_HUD
[23:35:23.670191] [36] RADIO
[23:35:23.673219] [36] RADIO_STATUS
[23:35:23.791186] [161] VFR_HUD
[23:35:24.016228] [162] HEARTBEAT
[23:35:24.820330] [37] RADIO
[23:35:24.823272] [37] RADIO_STATUS
[23:35:25.069426] [164] HEARTBEAT
[23:35:25.077317] [165] ATTITUDE_TARGET
[23:35:25.400478] [166] VFR_HUD
[23:35:25.739454] [38] RADIO
[23:35:25.742404] [38] RADIO_STATUS
[23:35:25.976578] [167] HEARTBEAT
[23:35:26.215585] [168] VFR_HUD
[23:35:26.784559] [39] RADIO
[23:35:26.787776] [39] RADIO_STATUS
[23:35:27.147836] [171] BATTERY_STATUS
[23:35:27.149676] [172] EXTENDED_SYS_STATE
[23:35:27.181723] [173] ATTITUDE_TARGET
[23:35:27.186724] [174] VFR_HUD
[23:35:27.189628] [175] SYSTEM_TIME
[23:35:27.705948] [40] RADIO
[23:35:27.707595] [40] RADIO_STATUS
[23:35:27.825631] [176] VFR_HUD
[23:35:28.619671] [178] VFR_HUD
[23:35:28.728650] [41] RADIO
[23:35:28.731746] [41] RADIO_STATUS
[23:35:28.964695] [179] HEARTBEAT
[23:35:29.088021] [180] ATTITUDE_TARGET
[23:35:29.429783] [181] VFR_HUD
[23:35:29.773768] [42] RADIO
[23:35:29.776778] [42] RADIO_STATUS
[23:35:29.994814] [182] HEARTBEAT
[23:35:30.229931] [183] VFR_HUD
[23:35:30.798817] [43] RADIO
[23:35:30.801867] [43] RADIO_STATUS
[23:35:31.047110] [184] HEARTBEAT
[23:35:31.054524] [185] SYS_STATUS
[23:35:31.172132] [186] BATTERY_STATUS
[23:35:31.180323] [187] ATTITUDE_TARGET
[23:35:31.209930] [188] VFR_HUD
[23:35:31.717972] [44] RADIO
[23:35:31.721001] [44] RADIO_STATUS
[23:35:31.838994] [189] VFR_HUD
[23:35:32.064132] [190] HEARTBEAT
[23:35:32.660196] [191] VFR_HUD
[23:35:32.867208] [45] RADIO
[23:35:32.870288] [45] RADIO_STATUS
[23:35:32.997179] [192] HEARTBEAT
[23:35:33.005337] [193] ATTITUDE_TARGET
[23:35:33.448215] [194] VFR_HUD
[23:35:33.787296] [46] RADIO
[23:35:33.790197] [46] RADIO_STATUS
[23:35:34.023341] [195] HEARTBEAT
[23:35:34.260692] [196] VFR_HUD
[23:35:34.707319] [47] RADIO
[23:35:34.710296] [47] RADIO_STATUS
[23:35:35.186413] [199] BATTERY_STATUS
[23:35:35.304363] [200] ATTITUDE_TARGET
[23:35:35.309528] [201] VFR_HUD
[23:35:35.746492] [48] RADIO
[23:35:35.749455] [48] RADIO_STATUS
[23:35:35.872493] [202] VFR_HUD
[23:35:35.984480] [203] HEARTBEAT
[23:35:36.667526] [204] VFR_HUD
[23:35:36.776640] [49] RADIO
[23:35:36.779647] [49] RADIO_STATUS
[23:35:37.031746] [205] HEARTBEAT
[23:35:37.039611] [206] ATTITUDE_TARGET
[23:35:37.481628] [207] VFR_HUD
[23:35:37.815623] [50] RADIO
[23:35:37.818584] [50] RADIO_STATUS
[23:35:38.042927] [208] HEARTBEAT
[23:35:38.276660] [209] VFR_HUD
[23:35:38.845752] [51] RADIO
[23:35:38.848827] [51] RADIO_STATUS
[23:35:39.094145] [210] HEARTBEAT
[23:35:39.101056] [211] SYS_STATUS
[23:35:39.218896] [212] BATTERY_STATUS
[23:35:39.227123] [213] ATTITUDE_TARGET
[23:35:39.257872] [214] VFR_HUD
[23:35:39.765819] [52] RADIO
[23:35:39.768957] [52] RADIO_STATUS
[23:35:39.886846] [215] VFR_HUD
[23:35:40.006894] [216] HEARTBEAT
[23:35:40.575898] [217] VFR_HUD
[23:35:40.915116] [53] RADIO
[23:35:40.918056] [53] RADIO_STATUS
[23:35:41.045062] [218] HEARTBEAT
[23:35:41.053045] [219] ATTITUDE_TARGET
[23:35:41.385998] [220] VFR_HUD
[23:35:41.835249] [54] RADIO
[23:35:41.838244] [54] RADIO_STATUS
[23:35:42.076059] [221] HEARTBEAT
[23:35:42.185172] [222] VFR_HUD
[23:35:42.755340] [55] RADIO
[23:35:42.758411] [55] RADIO_STATUS
[23:35:43.795414] [56] RADIO
[23:35:43.798150] [56] RADIO_STATUS
[23:35:44.031302] [228] VFR_HUD
[23:35:44.034366] [229] HEARTBEAT
[23:35:44.610342] [230] VFR_HUD
[23:35:44.824276] [57] RADIO
[23:35:44.827291] [57] RADIO_STATUS
[23:35:45.080275] [231] HEARTBEAT
[23:35:45.087323] [232] ATTITUDE_TARGET
[23:35:45.864314] [58] RADIO
[23:35:45.867397] [58] RADIO_STATUS
[23:35:45.981418] [234] HEARTBEAT
[23:35:46.220392] [235] VFR_HUD
[23:35:46.789537] [59] RADIO
[23:35:46.792603] [59] RADIO_STATUS
[23:35:47.025945] [236] HEARTBEAT
[23:35:47.029490] [237] SYS_STATUS
[23:35:47.152714] [238] BATTERY_STATUS
[23:35:47.153580] [239] EXTENDED_SYS_STATE
[23:35:47.186747] [240] ATTITUDE_TARGET
[23:35:47.190473] [241] VFR_HUD
[23:35:47.194564] [242] SYSTEM_TIME
[23:35:47.814607] [60] RADIO
[23:35:47.817520] [60] RADIO_STATUS
[23:35:47.934609] [243] VFR_HUD
[23:35:48.050774] [244] HEARTBEAT
[23:35:48.624614] [245] VFR_HUD
[23:35:48.964646] [61] RADIO
[23:35:48.966572] [61] RADIO_STATUS
[23:35:49.093849] [246] HEARTBEAT
[23:35:49.101666] [247] ATTITUDE_TARGET
[23:35:49.434656] [248] VFR_HUD
[23:35:49.885415] [62] RADIO
[23:35:49.886656] [62] RADIO_STATUS
[23:35:50.233778] [250] VFR_HUD
[23:35:50.802851] [63] RADIO
[23:35:50.805969] [63] RADIO_STATUS
[23:35:51.844360] [0] VFR_HUD
[23:35:51.875924] [64] RADIO
[23:35:51.879059] [64] RADIO_STATUS
[23:35:52.070139] [1] HEARTBEAT
[23:35:52.654023] [2] VFR_HUD
[23:35:52.872978] [65] RADIO
[23:35:52.876025] [65] RADIO_STATUS
[23:35:53.003057] [3] HEARTBEAT
[23:35:53.011102] [4] ATTITUDE_TARGET
[23:35:53.918088] [66] RADIO
[23:35:53.921149] [66] RADIO_STATUS
[23:35:54.029123] [6] HEARTBEAT
[23:35:54.269094] [7] VFR_HUD
[23:35:54.838228] [67] RADIO
[23:35:54.844051] [67] RADIO_STATUS
[23:35:55.071251] [8] HEARTBEAT
[23:35:55.077272] [9] SYS_STATUS
[23:35:55.192242] [10] BATTERY_STATUS
[23:35:55.310319] [11] ATTITUDE_TARGET
[23:35:55.315279] [12] VFR_HUD
[23:35:55.862349] [68] RADIO
[23:35:55.865326] [68] RADIO_STATUS
[23:35:55.901302] [13] VFR_HUD
[23:35:55.979409] [14] HEARTBEAT
[23:35:56.673429] [15] VFR_HUD
[23:35:57.012532] [69] RADIO
[23:35:57.015373] [69] RADIO_STATUS
[23:35:57.142390] [16] HEARTBEAT
[23:35:57.150376] [17] ATTITUDE_TARGET
[23:35:57.488448] [18] VFR_HUD
[23:35:57.932533] [70] RADIO
[23:35:57.935450] [70] RADIO_STATUS
[23:35:58.172547] [20] VFR_HUD
[23:35:58.851644] [71] RADIO
[23:35:58.854575] [71] RADIO_STATUS
[23:35:58.974177] [21] HEARTBEAT
[23:35:58.993891] [22] SYS_STATUS
[23:35:59.036637] [23] BATTERY_STATUS
[23:35:59.044680] [24] ATTITUDE_TARGET
[23:35:59.049612] [25] VFR_HUD
[23:35:59.898704] [72] RADIO
[23:35:59.901777] [72] RADIO_STATUS
[23:36:00.024747] [26] VFR_HUD
[23:36:00.027883] [27] HEARTBEAT
[23:36:00.583767] [28] VFR_HUD
[23:36:00.923846] [73] RADIO
[23:36:00.926798] [73] RADIO_STATUS
[23:36:01.055328] [29] HEARTBEAT
[23:36:01.060857] [30] ATTITUDE_TARGET
[23:36:01.398908] [31] VFR_HUD
[23:36:01.965827] [32] HEARTBEAT
[23:36:01.990897] [74] RADIO
[23:36:01.993873] [74] RADIO_STATUS
[23:36:02.193927] [33] VFR_HUD
[23:36:02.882937] [75] RADIO
[23:36:02.885970] [75] RADIO_STATUS
[23:36:03.015983] [34] HEARTBEAT
[23:36:03.023027] [35] SYS_STATUS
[23:36:03.063019] [36] BATTERY_STATUS
[23:36:03.071269] [37] ATTITUDE_TARGET
[23:36:03.074981] [38] VFR_HUD
[23:36:03.913219] [76] RADIO
[23:36:03.915996] [76] RADIO_STATUS
[23:36:03.992173] [39] VFR_HUD
[23:36:03.995135] [40] HEARTBEAT
[23:36:04.619116] [41] VFR_HUD
[23:36:05.062530] [77] RADIO
[23:36:05.065289] [77] RADIO_STATUS
[23:36:05.110165] [42] HEARTBEAT
[23:36:05.118159] [43] ATTITUDE_TARGET
[23:36:05.413172] [44] VFR_HUD
[23:36:05.872191] [78] RADIO
[23:36:05.875149] [78] RADIO_STATUS
[23:36:05.993400] [45] HEARTBEAT
[23:36:06.223252] [46] VFR_HUD
[23:36:06.902332] [79] RADIO
[23:36:06.905323] [79] RADIO_STATUS
[23:36:07.030529] [47] HEARTBEAT
[23:36:07.037393] [48] SYS_STATUS
[23:36:07.160409] [49] BATTERY_STATUS
[23:36:07.161526] [50] EXTENDED_SYS_STATE
[23:36:07.222416] [51] ATTITUDE_TARGET
[23:36:07.227597] [52] VFR_HUD
[23:36:07.230464] [53] SYSTEM_TIME
[23:36:07.832461] [54] VFR_HUD
[23:36:07.941453] [80] RADIO
[23:36:07.944425] [80] RADIO_STATUS
[23:36:08.063479] [55] HEARTBEAT
[23:36:08.632640] [56] VFR_HUD
[23:36:08.971695] [81] RADIO
[23:36:08.974575] [81] RADIO_STATUS
[23:36:09.101664] [57] HEARTBEAT
[23:36:09.109544] [58] ATTITUDE_TARGET
[23:36:10.007619] [60] HEARTBEAT
[23:36:10.241665] [61] VFR_HUD
[23:36:10.933155] [82] RADIO
[23:36:10.933590] [82] RADIO_STATUS
[23:36:11.059700] [62] HEARTBEAT
[23:36:11.065726] [63] SYS_STATUS
[23:36:11.184672] [64] BATTERY_STATUS
[23:36:11.192720] [65] ATTITUDE_TARGET
[23:36:11.222693] [66] VFR_HUD
[23:36:11.960765] [83] RADIO
[23:36:11.963744] [83] RADIO_STATUS
[23:36:12.077855] [68] HEARTBEAT
[23:36:12.666966] [69] VFR_HUD
[23:36:13.110919] [84] RADIO
[23:36:13.113774] [84] RADIO_STATUS
[23:36:13.157998] [70] HEARTBEAT
[23:36:13.165864] [71] ATTITUDE_TARGET
[23:36:13.461014] [72] VFR_HUD
[23:36:13.925953] [85] RADIO
[23:36:13.929119] [85] RADIO_STATUS
[23:36:14.277097] [74] VFR_HUD
[23:36:14.950724] [86] RADIO
[23:36:14.953064] [86] RADIO_STATUS
[23:36:15.078251] [75] HEARTBEAT
[23:36:15.085130] [76] SYS_STATUS
[23:36:15.886304] [80] VFR_HUD
[23:36:15.998134] [81] HEARTBEAT
[23:36:16.023244] [87] RADIO
[23:36:16.026248] [87] RADIO_STATUS
[23:36:16.681256] [82] VFR_HUD
[23:36:17.020249] [88] RADIO
[23:36:17.023198] [88] RADIO_STATUS
[23:36:17.150282] [83] HEARTBEAT
[23:36:17.157291] [84] ATTITUDE_TARGET
[23:36:17.370225] [85] VFR_HUD
[23:36:17.939289] [89] RADIO
[23:36:17.942394] [89] RADIO_STATUS
[23:36:18.057976] [86] HEARTBEAT
[23:36:18.180400] [87] VFR_HUD
[23:36:18.988432] [88] HEARTBEAT
[23:36:18.995013] [89] SYS_STATUS
[23:36:19.007542] [90] RADIO
[23:36:19.010582] [90] RADIO_STATUS
[23:36:19.109560] [90] BATTERY_STATUS
[23:36:19.226505] [91] ATTITUDE_TARGET
[23:36:19.231454] [92] VFR_HUD
[23:36:19.795589] [93] VFR_HUD
[23:36:20.008616] [91] RADIO
[23:36:20.013915] [91] RADIO_STATUS
[23:36:20.124576] [94] HEARTBEAT
[23:36:20.588593] [95] VFR_HUD
[23:36:21.158764] [92] RADIO
[23:36:21.161673] [92] RADIO_STATUS
[23:36:21.287707] [96] HEARTBEAT
[23:36:21.295690] [97] ATTITUDE_TARGET
[23:36:21.403742] [98] VFR_HUD
[23:36:21.963760] [99] HEARTBEAT
[23:36:21.995805] [93] RADIO
[23:36:21.998752] [93] RADIO_STATUS
[23:36:22.997881] [94] RADIO
[23:36:23.000885] [94] RADIO_STATUS
[23:36:23.057856] [101] HEARTBEAT
[23:36:23.063937] [102] SYS_STATUS
[23:36:23.071826] [103] BATTERY_STATUS
[23:36:23.084947] [104] ATTITUDE_TARGET
[23:36:23.089041] [105] VFR_HUD
[23:36:23.808039] [106] VFR_HUD
[23:36:24.034010] [107] HEARTBEAT
[23:36:24.064946] [95] RADIO
[23:36:24.067911] [95] RADIO_STATUS
[23:36:24.618025] [108] VFR_HUD
[23:36:25.067231] [96] RADIO
[23:36:25.070005] [96] RADIO_STATUS
[23:36:25.115138] [109] HEARTBEAT
[23:36:25.123111] [110] ATTITUDE_TARGET
[23:36:25.418261] [111] VFR_HUD
[23:36:25.987148] [97] RADIO
[23:36:25.990150] [97] RADIO_STATUS
[23:36:26.021158] [112] HEARTBEAT
[23:36:26.228177] [113] VFR_HUD
[23:36:27.038187] [114] HEARTBEAT
[23:36:27.041285] [115] SYS_STATUS
[23:36:27.054277] [98] RADIO
[23:36:27.057224] [98] RADIO_STATUS
[23:36:27.159297] [116] BATTERY_STATUS
[23:36:27.161217] [117] EXTENDED_SYS_STATE
[23:36:27.280321] [118] ATTITUDE_TARGET
[23:36:27.285493] [119] VFR_HUD
[23:36:27.289270] [120] SYSTEM_TIME
[23:36:27.837377] [121] VFR_HUD
[23:36:28.055411] [99] RADIO
[23:36:28.058566] [99] RADIO_STATUS
[23:36:28.089434] [122] HEARTBEAT
[23:36:28.636475] [123] VFR_HUD
[23:36:29.205534] [100] RADIO
[23:36:29.208462] [100] RADIO_STATUS
[23:36:29.446608] [126] VFR_HUD
[23:36:30.011671] [127] HEARTBEAT
[23:36:30.125839] [101] RADIO
[23:36:30.128648] [101] RADIO_STATUS
[23:36:31.045021] [102] RADIO
[23:36:31.047749] [102] RADIO_STATUS
[23:36:31.104781] [129] HEARTBEAT
[23:36:31.112079] [130] SYS_STATUS
[23:36:31.118751] [131] BATTERY_STATUS
[23:36:31.131876] [132] ATTITUDE_TARGET
[23:36:31.135761] [133] VFR_HUD
[23:36:31.857506] [134] VFR_HUD
[23:36:31.970866] [135] HEARTBEAT
[23:36:32.085059] [103] RADIO
[23:36:32.088102] [103] RADIO_STATUS
[23:36:32.670923] [136] VFR_HUD
[23:36:33.015067] [137] HEARTBEAT
[23:36:33.023016] [138] ATTITUDE_TARGET
[23:36:33.114908] [104] RADIO
[23:36:33.118027] [104] RADIO_STATUS
[23:36:33.464996] [139] VFR_HUD
[23:36:34.035071] [105] RADIO
[23:36:34.038014] [105] RADIO_STATUS
[23:36:34.069207] [140] HEARTBEAT
[23:36:34.275016] [141] VFR_HUD
[23:36:35.083138] [142] HEARTBEAT
[23:36:35.089126] [143] SYS_STATUS
[23:36:35.184182] [106] RADIO
[23:36:35.187035] [106] RADIO_STATUS
[23:36:35.256809] [144] BATTERY_STATUS
[23:36:35.262416] [145] ATTITUDE_TARGET
[23:36:35.267096] [146] VFR_HUD
[23:36:36.104205] [107] RADIO
[23:36:36.111938] [107] RADIO_STATUS
[23:36:36.148249] [147] VFR_HUD
[23:36:36.151195] [148] HEARTBEAT
[23:36:36.577857] [149] VFR_HUD
[23:36:37.254311] [108] RADIO
[23:36:37.257295] [108] RADIO_STATUS
[23:36:37.381852] [152] VFR_HUD
[23:36:38.060403] [153] HEARTBEAT
[23:36:38.174391] [109] RADIO
[23:36:38.176450] [109] RADIO_STATUS
[23:36:38.223344] [154] VFR_HUD
[23:36:38.991460] [155] HEARTBEAT
[23:36:38.998514] [156] SYS_STATUS
[23:36:39.092399] [110] RADIO
[23:36:39.095389] [110] RADIO_STATUS
[23:36:39.133441] [157] BATTERY_STATUS
[23:36:39.160485] [158] ATTITUDE_TARGET
[23:36:39.165542] [159] VFR_HUD
[23:36:39.798588] [160] VFR_HUD
[23:36:40.020379] [161] HEARTBEAT
[23:36:40.132587] [111] RADIO
[23:36:40.135536] [111] RADIO_STATUS
[23:36:41.062760] [163] HEARTBEAT
[23:36:41.070588] [164] ATTITUDE_TARGET
[23:36:41.082803] [112] RADIO
[23:36:41.082941] [112] RADIO_STATUS
[23:36:41.407742] [165] VFR_HUD
[23:36:41.969575] [166] HEARTBEAT
[23:36:42.081784] [113] RADIO
[23:36:42.084722] [113] RADIO_STATUS
[23:36:42.202749] [167] VFR_HUD
[23:36:43.020953] [168] HEARTBEAT
[23:36:43.026871] [169] SYS_STATUS
[23:36:43.145900] [170] BATTERY_STATUS
[23:36:43.153869] [171] ATTITUDE_TARGET
[23:36:43.183870] [172] VFR_HUD
[23:36:43.206090] [114] RADIO
[23:36:43.208887] [114] RADIO_STATUS
[23:36:43.813001] [173] VFR_HUD
[23:36:44.152069] [115] RADIO
[23:36:44.155053] [115] RADIO_STATUS
[23:36:44.623046] [175] VFR_HUD
[23:36:44.963056] [176] HEARTBEAT
[23:36:44.986034] [177] ATTITUDE_TARGET
[23:36:45.302070] [116] RADIO
[23:36:45.305081] [116] RADIO_STATUS
[23:36:45.422106] [178] VFR_HUD
[23:36:46.003170] [179] HEARTBEAT
[23:36:46.117145] [117] RADIO
[23:36:46.120338] [117] RADIO_STATUS
[23:36:46.233934] [180] VFR_HUD
[23:36:47.040956] [181] HEARTBEAT
[23:36:47.046340] [182] SYS_STATUS
[23:36:47.141288] [118] RADIO
[23:36:47.144474] [118] RADIO_STATUS
[23:36:47.181888] [183] BATTERY_STATUS
[23:36:47.213378] [184] EXTENDED_SYS_STATE
[23:36:47.220241] [185] ATTITUDE_TARGET
[23:36:47.225296] [186] VFR_HUD
[23:36:47.228187] [187] SYSTEM_TIME
[23:36:48.082376] [188] VFR_HUD
[23:36:48.085338] [189] HEARTBEAT
[23:36:48.290387] [119] RADIO
[23:36:48.293364] [119] RADIO_STATUS
[23:36:49.005490] [191] HEARTBEAT
[23:36:49.013487] [192] ATTITUDE_TARGET
[23:36:49.105413] [120] RADIO
[23:36:49.108359] [120] RADIO_STATUS
[23:36:49.456422] [193] VFR_HUD
[23:36:50.016417] [194] HEARTBEAT
[23:36:50.130453] [121] RADIO
[23:36:50.132438] [121] RADIO_STATUS
[23:36:50.250467] [195] VFR_HUD
[23:36:51.074208] [196] HEARTBEAT
[23:36:51.079587] [197] SYS_STATUS
[23:36:51.119567] [198] BATTERY_STATUS
[23:36:51.127590] [199] ATTITUDE_TARGET
[23:36:51.132634] [200] VFR_HUD
[23:36:51.174649] [122] RADIO
[23:36:51.177574] [122] RADIO_STATUS
[23:36:52.199666] [123] RADIO
[23:36:52.202933] [123] RADIO_STATUS
[23:36:52.675823] [203] VFR_HUD
[23:36:53.019816] [204] HEARTBEAT
[23:36:53.026856] [205] ATTITUDE_TARGET
[23:36:53.119778] [124] RADIO
[23:36:53.125929] [124] RADIO_STATUS
[23:36:53.469871] [206] VFR_HUD
[23:36:54.051041] [207] HEARTBEAT
[23:36:54.163861] [125] RADIO
[23:36:54.166960] [125] RADIO_STATUS
[23:36:54.965116] [209] HEARTBEAT
[23:36:54.985054] [210] SYS_STATUS
[23:36:55.029057] [211] BATTERY_STATUS
[23:36:55.035995] [212] ATTITUDE_TARGET
[23:36:55.041053] [213] VFR_HUD
[23:36:55.188963] [126] RADIO
[23:36:55.192019] [126] RADIO_STATUS
[23:36:55.769139] [214] VFR_HUD
[23:36:55.995602] [215] HEARTBEAT
[23:36:56.234096] [127] RADIO
[23:36:56.237075] [127] RADIO_STATUS
[23:36:56.584151] [216] VFR_HUD
[23:36:57.048186] [217] HEARTBEAT
[23:36:57.056530] [218] ATTITUDE_TARGET
[23:36:57.258567] [128] RADIO
[23:36:57.261229] [128] RADIO_STATUS
[23:36:57.379250] [219] VFR_HUD
[23:36:58.064324] [220] HEARTBEAT
[23:36:58.178349] [129] RADIO
[23:36:58.181302] [129] RADIO_STATUS
[23:36:58.217194] [221] VFR_HUD
[23:36:59.122587] [224] BATTERY_STATUS
[23:36:59.235440] [225] ATTITUDE_TARGET
[23:36:59.240451] [226] VFR_HUD
[23:36:59.245366] [130] RADIO
[23:36:59.248528] [130] RADIO_STATUS
[23:36:59.803445] [227] VFR_HUD
[23:37:00.247482] [131] RADIO
[23:37:00.250439] [131] RADIO_STATUS
[23:37:00.598634] [229] VFR_HUD
[23:37:01.067634] [230] HEARTBEAT
[23:37:01.075606] [231] ATTITUDE_TARGET
[23:37:01.167585] [132] RADIO
[23:37:01.170809] [132] RADIO_STATUS
[23:37:01.408103] [232] VFR_HUD
[23:37:01.973779] [233] HEARTBEAT
[23:37:02.207715] [234] VFR_HUD
[23:37:02.234663] [133] RADIO
[23:37:02.237642] [133] RADIO_STATUS
[23:37:03.024779] [235] HEARTBEAT
[23:37:03.031849] [236] SYS_STATUS
[23:37:03.150919] [237] BATTERY_STATUS
[23:37:03.158803] [238] ATTITUDE_TARGET
[23:37:03.188796] [239] VFR_HUD
[23:37:03.210791] [134] RADIO
[23:37:03.213823] [134] RADIO_STATUS
[23:37:03.816891] [240] VFR_HUD
[23:37:04.042943] [241] HEARTBEAT
[23:37:04.276970] [135] RADIO
[23:37:04.279843] [135] RADIO_STATUS
[23:37:04.963262] [243] HEARTBEAT
[23:37:04.990995] [244] ATTITUDE_TARGET
[23:37:05.197792] [136] RADIO
[23:37:05.198992] [136] RADIO_STATUS
[23:37:05.426979] [245] VFR_HUD
[23:37:06.003278] [246] HEARTBEAT
[23:37:06.226094] [137] RADIO
[23:37:06.229064] [137] RADIO_STATUS
[23:37:06.265243] [247] VFR_HUD
[23:37:07.169419] [250] BATTERY_STATUS
[23:37:07.170196] [251] EXTENDED_SYS_STATE
[23:37:07.290196] [252] ATTITUDE_TARGET
[23:37:07.295177] [253] VFR_HUD
[23:37:07.298182] [254] SYSTEM_TIME
[23:37:07.328237] [138] RADIO
[23:37:07.331368] [138] RADIO_STATUS
[23:37:07.852272] [255] VFR_HUD
[23:37:07.963351] [0] HEARTBEAT
[23:37:08.295305] [139] RADIO
[23:37:08.298293] [139] RADIO_STATUS
[23:37:08.646616] [1] VFR_HUD
[23:37:09.010908] [2] HEARTBEAT
[23:37:09.018595] [3] ATTITUDE_TARGET
[23:37:09.215425] [140] RADIO
[23:37:09.218378] [140] RADIO_STATUS
[23:37:09.462174] [4] VFR_HUD
[23:37:10.021545] [5] HEARTBEAT
[23:37:10.256575] [6] VFR_HUD
[23:37:10.283571] [141] RADIO
[23:37:10.286546] [141] RADIO_STATUS
[23:37:11.078622] [7] HEARTBEAT
[23:37:11.085591] [8] SYS_STATUS
[23:37:11.124601] [9] BATTERY_STATUS
[23:37:11.132590] [10] ATTITUDE_TARGET
[23:37:11.137571] [11] VFR_HUD
[23:37:11.285629] [142] RADIO
[23:37:11.288541] [142] RADIO_STATUS
[23:37:11.996772] [12] VFR_HUD
[23:37:11.999674] [13] HEARTBEAT
[23:37:12.325675] [143] RADIO
[23:37:12.328633] [143] RADIO_STATUS
[23:37:12.675774] [14] VFR_HUD
[23:37:13.024806] [15] HEARTBEAT
[23:37:13.032781] [16] ATTITUDE_TARGET
[23:37:13.252055] [144] RADIO
[23:37:13.252825] [144] RADIO_STATUS
[23:37:13.475845] [17] VFR_HUD
[23:37:14.055946] [18] HEARTBEAT
[23:37:14.274947] [145] RADIO
[23:37:14.277910] [145] RADIO_STATUS
[23:37:14.314916] [19] VFR_HUD
[23:37:15.320088] [146] RADIO
[23:37:15.323070] [146] RADIO_STATUS
[23:37:16.011514] [25] VFR_HUD
[23:37:16.014141] [26] HEARTBEAT
[23:37:16.344169] [147] RADIO
[23:37:16.347158] [147] RADIO_STATUS
[23:37:16.590198] [27] VFR_HUD
[23:37:17.059273] [28] HEARTBEAT
[23:37:17.067289] [29] ATTITUDE_TARGET
[23:37:17.264239] [148] RADIO
[23:37:17.267453] [148] RADIO_STATUS
[23:37:17.960638] [31] HEARTBEAT
[23:37:18.200323] [32] VFR_HUD
[23:37:18.321320] [149] RADIO
[23:37:18.323325] [149] RADIO_STATUS
[23:37:19.002448] [33] HEARTBEAT
[23:37:19.008438] [34] SYS_STATUS
[23:37:19.128420] [35] BATTERY_STATUS
[23:37:19.241500] [36] ATTITUDE_TARGET
[23:37:19.246440] [37] VFR_HUD
[23:37:19.280486] [150] RADIO
[23:37:19.283459] [150] RADIO_STATUS
[23:37:19.804500] [38] VFR_HUD
[23:37:20.030557] [39] HEARTBEAT
[23:37:20.253614] [151] RADIO
[23:37:20.256545] [151] RADIO_STATUS
[23:37:20.604592] [40] VFR_HUD
[23:37:21.073585] [41] HEARTBEAT
[23:37:21.081608] [42] ATTITUDE_TARGET
[23:37:21.298595] [152] RADIO
[23:37:21.301649] [152] RADIO_STATUS
[23:37:21.414683] [43] VFR_HUD
[23:37:22.213854] [45] VFR_HUD
[23:37:22.323741] [153] RADIO
[23:37:22.326711] [153] RADIO_STATUS
[23:37:23.033317] [46] HEARTBEAT
[23:37:23.037926] [47] SYS_STATUS
[23:37:23.367833] [154] RADIO
[23:37:23.370973] [154] RADIO_STATUS
[23:37:23.822917] [51] VFR_HUD
[23:37:24.047929] [52] HEARTBEAT
[23:37:24.391996] [155] RADIO
[23:37:24.395091] [155] RADIO_STATUS
[23:37:24.631941] [53] VFR_HUD
[23:37:24.968103] [54] HEARTBEAT
[23:37:24.989985] [55] ATTITUDE_TARGET
[23:37:25.311051] [156] RADIO
[23:37:25.313999] [156] RADIO_STATUS
[23:37:26.007124] [57] HEARTBEAT
[23:37:26.247144] [58] VFR_HUD
[23:37:26.362100] [157] RADIO
[23:37:26.365139] [157] RADIO_STATUS
[23:37:27.049207] [59] HEARTBEAT
[23:37:27.056192] [60] SYS_STATUS
[23:37:27.174233] [61] BATTERY_STATUS
[23:37:27.175111] [62] EXTENDED_SYS_STATE
[23:37:27.295239] [63] ATTITUDE_TARGET
[23:37:27.300266] [64] VFR_HUD
[23:37:27.303109] [65] SYSTEM_TIME
[23:37:27.333282] [158] RADIO
[23:37:27.336217] [158] RADIO_STATUS
[23:37:27.857263] [66] VFR_HUD
[23:37:27.969271] [67] HEARTBEAT
[23:37:28.301305] [159] RADIO
[23:37:28.304266] [159] RADIO_STATUS
[23:37:28.651418] [68] VFR_HUD
[23:37:29.010447] [69] HEARTBEAT
[23:37:29.018471] [70] ATTITUDE_TARGET
[23:37:29.341386] [160] RADIO
[23:37:29.344361] [160] RADIO_STATUS
[23:37:29.466557] [71] VFR_HUD
[23:37:30.261465] [73] VFR_HUD
[23:37:30.370467] [161] RADIO
[23:37:30.373466] [161] RADIO_STATUS
[23:37:31.078637] [74] HEARTBEAT
[23:37:31.085711] [75] SYS_STATUS
[23:37:31.410586] [162] RADIO
[23:37:31.413534] [162] RADIO_STATUS
[23:37:31.870635] [79] VFR_HUD
[23:37:31.991623] [80] HEARTBEAT
[23:37:32.440671] [163] RADIO
[23:37:32.442697] [163] RADIO_STATUS
[23:37:32.565726] [81] VFR_HUD
[23:37:33.029758] [82] HEARTBEAT
[23:37:33.037882] [83] ATTITUDE_TARGET
[23:37:33.359812] [164] RADIO
[23:37:33.362759] [164] RADIO_STATUS
[23:37:33.409899] [84] VFR_HUD
[23:37:34.060886] [85] HEARTBEAT
[23:37:34.174807] [86] VFR_HUD
[23:37:34.398890] [165] RADIO
[23:37:34.402117] [165] RADIO_STATUS
[23:37:34.991996] [87] HEARTBEAT
[23:37:34.998956] [88] SYS_STATUS
[23:37:35.038958] [89] BATTERY_STATUS
[23:37:35.045962] [90] ATTITUDE_TARGET
[23:37:35.050902] [91] VFR_HUD
[23:37:35.428931] [166] RADIO
[23:37:35.431941] [166] RADIO_STATUS
[23:37:36.005045] [93] HEARTBEAT
[23:37:36.468064] [167] RADIO
[23:37:36.471175] [167] RADIO_STATUS
[23:37:36.595937] [94] VFR_HUD
[23:37:37.063132] [95] HEARTBEAT
[23:37:37.071080] [96] ATTITUDE_TARGET
[23:37:37.389108] [97] VFR_HUD
[23:37:37.416259] [168] RADIO
[23:37:37.419141] [168] RADIO_STATUS
[23:37:37.979216] [98] HEARTBEAT
[23:37:38.198378] [99] VFR_HUD
[23:37:38.417248] [169] RADIO
[23:37:38.420216] [169] RADIO_STATUS
[23:37:39.005675] [100] HEARTBEAT
[23:37:39.012723] [101] SYS_STATUS
[23:37:39.457324] [170] RADIO
[23:37:39.460348] [170] RADIO_STATUS
[23:37:39.808372] [105] VFR_HUD
[23:37:40.038531] [106] HEARTBEAT
[23:37:40.487490] [171] RADIO
[23:37:40.490534] [171] RADIO_STATUS
[23:37:40.607385] [107] VFR_HUD
[23:37:41.077579] [108] HEARTBEAT
[23:37:41.084468] [109] ATTITUDE_TARGET
[23:37:41.406481] [172] RADIO
[23:37:41.409515] [172] RADIO_STATUS
[23:37:41.982682] [111] HEARTBEAT
[23:37:42.216665] [112] VFR_HUD
[23:37:42.446626] [173] RADIO
[23:37:42.449600] [173] RADIO_STATUS
[23:37:43.034663] [113] HEARTBEAT
[23:37:43.041613] [114] SYS_STATUS
[23:37:43.159697] [115] BATTERY_STATUS
[23:37:43.167643] [116] ATTITUDE_TARGET
[23:37:43.197638] [117] VFR_HUD
[23:37:43.476678] [174] RADIO
[23:37:43.478767] [174] RADIO_STATUS
[23:37:44.051736] [119] HEARTBEAT
[23:37:44.515806] [175] RADIO
[23:37:44.518761] [175] RADIO_STATUS
[23:37:44.641763] [120] VFR_HUD
[23:37:45.110084] [121] HEARTBEAT
[23:37:45.117849] [122] ATTITUDE_TARGET
[23:37:45.436840] [123] VFR_HUD
[23:37:45.469868] [176] RADIO
[23:37:45.471853] [176] RADIO_STATUS
[23:37:46.251006] [125] VFR_HUD
[23:37:46.465029] [177] RADIO
[23:37:46.469587] [177] RADIO_STATUS
[23:37:47.053049] [126] HEARTBEAT
[23:37:47.060120] [127] SYS_STATUS
[23:37:47.217044] [130] ATTITUDE_TARGET
[23:37:47.222006] [131] VFR_HUD
[23:37:47.224957] [132] SYSTEM_TIME
[23:37:47.510022] [178] RADIO
[23:37:47.512982] [178] RADIO_STATUS
[23:37:47.861068] [133] VFR_HUD
[23:37:47.972130] [134] HEARTBEAT
[23:37:48.535154] [179] RADIO
[23:37:48.538092] [179] RADIO_STATUS
[23:37:48.655132] [135] VFR_HUD
[23:37:49.014221] [136] HEARTBEAT
[23:37:49.022158] [137] ATTITUDE_TARGET
[23:37:49.454276] [180] RADIO
[23:37:49.457214] [180] RADIO_STATUS
[23:37:50.031343] [139] HEARTBEAT
[23:37:50.265304] [140] VFR_HUD
[23:37:50.499349] [181] RADIO
[23:37:50.502359] [181] RADIO_STATUS
[23:37:51.082488] [141] HEARTBEAT
[23:37:51.089431] [142] SYS_STATUS
[23:37:51.208471] [143] BATTERY_STATUS
[23:37:51.215434] [144] ATTITUDE_TARGET
[23:37:51.246434] [145] VFR_HUD
