[22:29:49.535346] [146] RADIO
[22:29:49.538257] [146] RADIO_STATUS
[22:29:49.651330] [98] VFR_HUD
[22:29:50.216322] [99] HEARTBEAT
[22:29:50.451341] [100] VFR_HUD
[22:29:50.560427] [147] RADIO
[22:29:50.563293] [147] RADIO_STATUS
[22:29:51.268492] [101] HEARTBEAT
[22:29:51.274442] [102] SYS_STATUS
[22:29:51.393459] [103] BATTERY_STATUS
[22:29:51.401472] [104] ATTITUDE_TARGET
[22:29:51.431418] [105] VFR_HUD
[22:29:51.599465] [148] RADIO
[22:29:51.602409] [148] RADIO_STATUS
[22:29:52.060553] [106] VFR_HUD
[22:29:52.181598] [107] HEARTBEAT
[22:29:52.525569] [149] RADIO
[22:29:52.527554] [149] RADIO_STATUS
[22:29:52.870606] [108] VFR_HUD
[22:29:53.219663] [109] HEARTBEAT
[22:29:53.227687] [110] ATTITUDE_TARGET
[22:29:53.549761] [150] RADIO
[22:29:53.552603] [150] RADIO_STATUS
[22:29:53.588794] [111] VFR_HUD
[22:29:54.245778] [112] HEARTBEAT
[22:29:54.360764] [113] VFR_HUD
[22:29:54.597883] [151] RADIO
[22:29:54.600780] [151] RADIO_STATUS
[22:29:55.182948] [114] HEARTBEAT
[22:29:55.189934] [115] SYS_STATUS
[22:29:55.228935] [116] BATTERY_STATUS
[22:29:55.237026] [117] ATTITUDE_TARGET
[22:29:55.241974] [118] VFR_HUD
[22:29:55.508998] [152] RADIO
[22:29:55.511914] [152] RADIO_STATUS
[22:29:56.205125] [119] VFR_HUD
[22:29:56.208076] [120] HEARTBEAT
[22:29:56.539080] [153] RADIO
[22:29:56.542083] [153] RADIO_STATUS
[22:29:56.779124] [121] VFR_HUD
[22:29:57.254139] [122] HEARTBEAT
[22:29:57.262203] [123] ATTITUDE_TARGET
[22:29:57.579110] [124] VFR_HUD
[22:29:57.613120] [154] RADIO
[22:29:57.615171] [154] RADIO_STATUS
[22:29:58.160232] [125] HEARTBEAT
[22:29:58.389369] [126] VFR_HUD
[22:29:58.608248] [155] RADIO
[22:29:58.611354] [155] RADIO_STATUS
[22:29:59.196343] [127] HEARTBEAT
[22:29:59.203391] [128] SYS_STATUS
[22:29:59.323323] [129] BATTERY_STATUS
[22:29:59.435423] [130] ATTITUDE_TARGET
[22:29:59.440347] [131] VFR_HUD
[22:29:59.528361] [156] RADIO
[22:29:59.531345] [156] RADIO_STATUS
[22:29:59.999534] [132] VFR_HUD
[22:30:00.229912] [133] HEARTBEAT
[22:30:00.568440] [157] RADIO
[22:30:00.571459] [157] RADIO_STATUS
[22:30:00.798459] [134] VFR_HUD
[22:30:01.268630] [135] HEARTBEAT
[22:30:01.275628] [136] ATTITUDE_TARGET
[22:30:01.597544] [158] RADIO
[22:30:01.600471] [158] RADIO_STATUS
[22:30:01.718497] [137] VFR_HUD
[22:30:02.174611] [138] HEARTBEAT
[22:30:02.408673] [139] VFR_HUD
[22:30:02.637881] [159] RADIO
[22:30:02.640705] [159] RADIO_STATUS
[22:30:03.230940] [140] HEARTBEAT
[22:30:03.237880] [141] SYS_STATUS
[22:30:03.276788] [142] BATTERY_STATUS
[22:30:03.284720] [143] ATTITUDE_TARGET
[22:30:03.289946] [144] VFR_HUD
[22:30:03.556810] [160] RADIO
[22:30:03.559743] [160] RADIO_STATUS
[22:30:04.253856] [145] VFR_HUD
[22:30:04.256987] [146] HEARTBEAT
[22:30:04.586968] [161] RADIO
[22:30:04.589836] [161] RADIO_STATUS
[22:30:04.833052] [147] VFR_HUD
[22:30:05.176993] [148] HEARTBEAT
[22:30:05.184956] [149] ATTITUDE_TARGET
[22:30:05.627010] [150] VFR_HUD
[22:30:05.655112] [162] RADIO
[22:30:05.658130] [162] RADIO_STATUS
[22:30:06.203259] [151] HEARTBEAT
[22:30:06.442350] [152] VFR_HUD
[22:30:06.558120] [163] RADIO
[22:30:06.561084] [163] RADIO_STATUS
[22:30:07.244208] [153] HEARTBEAT
[22:30:07.251215] [154] SYS_STATUS
[22:30:07.374182] [155] BATTERY_STATUS
[22:30:07.376171] [156] EXTENDED_SYS_STATE
[22:30:07.408216] [157] ATTITUDE_TARGET
[22:30:07.413341] [158] VFR_HUD
[22:30:07.416233] [159] SYSTEM_TIME
[22:30:07.576280] [164] RADIO
[22:30:07.579209] [164] RADIO_STATUS
[22:30:08.047193] [160] VFR_HUD
[22:30:08.152335] [161] HEARTBEAT
[22:30:08.616407] [165] RADIO
[22:30:08.618302] [165] RADIO_STATUS
[22:30:08.846419] [162] VFR_HUD
[22:30:09.205446] [163] HEARTBEAT
[22:30:09.213359] [164] ATTITUDE_TARGET
[22:30:09.645435] [166] RADIO
[22:30:09.648455] [166] RADIO_STATUS
[22:30:09.766479] [165] VFR_HUD
[22:30:10.221574] [166] HEARTBEAT
[22:30:10.455510] [167] VFR_HUD
[22:30:10.685535] [167] RADIO
[22:30:10.687570] [167] RADIO_STATUS
[22:30:11.273618] [168] HEARTBEAT
[22:30:11.279665] [169] SYS_STATUS
[22:30:11.398662] [170] BATTERY_STATUS
[22:30:11.406629] [171] ATTITUDE_TARGET
[22:30:11.436667] [172] VFR_HUD
[22:30:11.604659] [168] RADIO
[22:30:11.607583] [168] RADIO_STATUS
[22:30:11.960683] [173] VFR_HUD
[22:30:12.180790] [174] HEARTBEAT
[22:30:12.634849] [169] RADIO
[22:30:12.637872] [169] RADIO_STATUS
[22:30:12.875768] [175] VFR_HUD
[22:30:13.224919] [176] HEARTBEAT
[22:30:13.232842] [177] ATTITUDE_TARGET
[22:30:13.570939] [178] VFR_HUD
[22:30:13.690816] [170] RADIO
[22:30:13.693995] [170] RADIO_STATUS
[22:30:14.250858] [179] HEARTBEAT
[22:30:14.364915] [180] VFR_HUD
[22:30:14.599003] [171] RADIO
[22:30:14.601913] [171] RADIO_STATUS
[22:30:15.186982] [181] HEARTBEAT
[22:30:15.194406] [182] SYS_STATUS
[22:30:15.234115] [183] BATTERY_STATUS
[22:30:15.241978] [184] ATTITUDE_TARGET
[22:30:15.245953] [185] VFR_HUD
[22:30:15.623958] [172] RADIO
[22:30:15.626991] [172] RADIO_STATUS
[22:30:15.974048] [186] VFR_HUD
[22:30:16.200156] [187] HEARTBEAT
[22:30:16.668102] [173] RADIO
[22:30:16.671175] [173] RADIO_STATUS
[22:30:16.784195] [188] VFR_HUD
[22:30:17.253175] [189] HEARTBEAT
[22:30:17.261181] [190] ATTITUDE_TARGET
[22:30:17.584203] [191] VFR_HUD
[22:30:17.616172] [174] RADIO
[22:30:17.619188] [174] RADIO_STATUS
[22:30:18.164301] [192] HEARTBEAT
[22:30:18.393251] [193] VFR_HUD
[22:30:18.613387] [175] RADIO
[22:30:18.616327] [175] RADIO_STATUS
[22:30:19.201537] [194] HEARTBEAT
[22:30:19.208386] [195] SYS_STATUS
[22:30:19.322403] [196] BATTERY_STATUS
[22:30:19.440437] [197] ATTITUDE_TARGET
[22:30:19.445397] [198] VFR_HUD
[22:30:19.658423] [176] RADIO
[22:30:19.661375] [176] RADIO_STATUS
[22:30:20.003518] [199] VFR_HUD
[22:30:20.234566] [200] HEARTBEAT
[22:30:20.682605] [177] RADIO
[22:30:20.685579] [177] RADIO_STATUS
[22:30:20.803596] [201] VFR_HUD
[22:30:21.167777] [202] HEARTBEAT
[22:30:21.175614] [203] ATTITUDE_TARGET
[22:30:21.618699] [204] VFR_HUD
[22:30:21.738822] [178] RADIO
[22:30:21.741674] [178] RADIO_STATUS
[22:30:22.178868] [205] HEARTBEAT
[22:30:22.412858] [206] VFR_HUD
[22:30:22.641831] [179] RADIO
[22:30:22.644753] [179] RADIO_STATUS
[22:30:23.234961] [207] HEARTBEAT
[22:30:23.241945] [208] SYS_STATUS
[22:30:23.281915] [209] BATTERY_STATUS
[22:30:23.289920] [210] ATTITUDE_TARGET
[22:30:23.293983] [211] VFR_HUD
[22:30:23.671917] [180] RADIO
[22:30:23.674925] [180] RADIO_STATUS
[22:30:24.022958] [212] VFR_HUD
[22:30:24.248103] [213] HEARTBEAT
[22:30:24.717067] [181] RADIO
[22:30:24.719941] [181] RADIO_STATUS
[22:30:24.837016] [214] VFR_HUD
[22:30:25.181027] [215] HEARTBEAT
[22:30:25.189071] [216] ATTITUDE_TARGET
[22:30:25.632098] [217] VFR_HUD
[22:30:25.659093] [182] RADIO
[22:30:25.662064] [182] RADIO_STATUS
[22:30:26.213207] [218] HEARTBEAT
[22:30:26.442258] [219] VFR_HUD
[22:30:26.661256] [183] RADIO
[22:30:26.664208] [183] RADIO_STATUS
[22:30:27.249339] [220] HEARTBEAT
[22:30:27.256401] [221] SYS_STATUS
[22:30:27.379317] [222] BATTERY_STATUS
[22:30:27.380245] [223] EXTENDED_SYS_STATE
[22:30:27.412441] [224] ATTITUDE_TARGET
[22:30:27.417287] [225] VFR_HUD
[22:30:27.421248] [226] SYSTEM_TIME
[22:30:27.701379] [184] RADIO
[22:30:27.704369] [184] RADIO_STATUS
[22:30:28.051459] [227] VFR_HUD
[22:30:28.157502] [228] HEARTBEAT
[22:30:28.730640] [185] RADIO
[22:30:28.733489] [185] RADIO_STATUS
[22:30:28.769450] [229] VFR_HUD
[22:30:29.210567] [230] HEARTBEAT
[22:30:29.218570] [231] ATTITUDE_TARGET
[22:30:29.661544] [232] VFR_HUD
[22:30:29.770610] [186] RADIO
[22:30:29.773592] [186] RADIO_STATUS
[22:30:30.226673] [233] HEARTBEAT
[22:30:30.460693] [234] VFR_HUD
[22:30:30.690733] [187] RADIO
[22:30:30.693835] [187] RADIO_STATUS
[22:30:31.146776] [235] HEARTBEAT
[22:30:31.166904] [236] SYS_STATUS
[22:30:31.279774] [237] BATTERY_STATUS
[22:30:31.397753] [238] ATTITUDE_TARGET
[22:30:31.402779] [239] VFR_HUD
[22:30:31.719784] [188] RADIO
[22:30:31.722797] [188] RADIO_STATUS
[22:30:31.965822] [240] VFR_HUD
[22:30:32.185820] [241] HEARTBEAT
[22:30:32.760936] [242] VFR_HUD
[22:30:32.789092] [189] RADIO
[22:30:32.790916] [189] RADIO_STATUS
[22:30:33.229985] [243] HEARTBEAT
[22:30:33.238134] [244] ATTITUDE_TARGET
[22:30:33.575037] [245] VFR_HUD
[22:30:33.691053] [190] RADIO
[22:30:33.693999] [190] RADIO_STATUS
[22:30:34.255207] [246] HEARTBEAT
[22:30:34.370121] [247] VFR_HUD
[22:30:34.709119] [191] RADIO
[22:30:34.712245] [191] RADIO_STATUS
[22:30:35.187276] [248] HEARTBEAT
[22:30:35.194412] [249] SYS_STATUS
[22:30:35.312277] [250] BATTERY_STATUS
[22:30:35.320546] [251] ATTITUDE_TARGET
[22:30:35.350475] [252] VFR_HUD
[22:30:35.750084] [192] RADIO
[22:30:35.752262] [192] RADIO_STATUS
[22:30:35.979364] [253] VFR_HUD
[22:30:36.205307] [254] HEARTBEAT
[22:30:36.778495] [193] RADIO
[22:30:36.781256] [193] RADIO_STATUS
[22:30:36.899381] [255] VFR_HUD
[22:30:37.258524] [0] HEARTBEAT
[22:30:37.266429] [1] ATTITUDE_TARGET
[22:30:37.588466] [2] VFR_HUD
[22:30:37.818482] [194] RADIO
[22:30:37.821598] [194] RADIO_STATUS
[22:30:38.169545] [3] HEARTBEAT
[22:30:38.398555] [4] VFR_HUD
[22:30:38.847545] [195] RADIO
[22:30:38.850496] [195] RADIO_STATUS
[22:30:39.327679] [7] BATTERY_STATUS
[22:30:39.445622] [8] ATTITUDE_TARGET
[22:30:39.449604] [9] VFR_HUD
[22:30:39.767683] [196] RADIO
[22:30:39.770683] [196] RADIO_STATUS
[22:30:40.008679] [10] VFR_HUD
[22:30:40.808815] [12] VFR_HUD
[22:30:40.835832] [197] RADIO
[22:30:40.838776] [197] RADIO_STATUS
[22:30:41.172929] [13] HEARTBEAT
[22:30:41.180798] [14] ATTITUDE_TARGET
[22:30:41.623840] [15] VFR_HUD
[22:30:41.743847] [198] RADIO
[22:30:41.746860] [198] RADIO_STATUS
[22:30:42.757974] [199] RADIO
[22:30:42.760978] [199] RADIO_STATUS
[22:30:43.908106] [200] RADIO
[22:30:43.911055] [200] RADIO_STATUS
[22:30:44.159193] [23] VFR_HUD
[22:30:44.162084] [24] HEARTBEAT
[22:30:44.827211] [201] RADIO
[22:30:44.830266] [201] RADIO_STATUS
[22:30:44.866140] [25] VFR_HUD
[22:30:45.187228] [26] HEARTBEAT
[22:30:45.194197] [27] ATTITUDE_TARGET
[22:30:45.746255] [202] RADIO
[22:30:45.749279] [202] RADIO_STATUS
[22:30:46.218315] [29] HEARTBEAT
[22:30:46.447339] [30] VFR_HUD
[22:30:46.896468] [203] RADIO
[22:30:46.899356] [203] RADIO_STATUS
[22:30:47.384510] [33] BATTERY_STATUS
[22:30:47.386575] [34] EXTENDED_SYS_STATE
[22:30:47.418434] [35] ATTITUDE_TARGET
[22:30:47.423456] [36] VFR_HUD
[22:30:47.426400] [37] SYSTEM_TIME
[22:30:47.816483] [204] RADIO
[22:30:47.819427] [204] RADIO_STATUS
[22:30:47.931346] JAMMING_START
[22:30:48.057497] [38] VFR_HUD
[22:30:48.752585] [40] VFR_HUD
[22:30:48.872587] [205] RADIO
[22:30:48.875534] [205] RADIO_STATUS
[22:30:49.216637] [41] HEARTBEAT
[22:30:49.224622] [42] ATTITUDE_TARGET
[22:30:49.667660] [43] VFR_HUD
[22:30:49.781871] [206] RADIO
[22:30:49.784717] [206] RADIO_STATUS
[22:30:50.362754] [45] VFR_HUD
[22:30:50.806916] [207] RADIO
[22:30:50.808875] [207] RADIO_STATUS
[22:30:51.164903] [46] HEARTBEAT
[22:30:51.171843] [47] SYS_STATUS
[22:30:51.955971] [208] RADIO
[22:30:51.958929] [208] RADIO_STATUS
[22:30:51.995044] [51] VFR_HUD
[22:30:52.192031] [52] HEARTBEAT
[22:30:52.875946] [209] RADIO
[22:30:52.878949] [209] RADIO_STATUS
[22:30:53.236065] [54] HEARTBEAT
[22:30:53.245390] [55] ATTITUDE_TARGET
[22:30:53.796151] [210] RADIO
[22:30:53.799101] [210] RADIO_STATUS
[22:30:54.262177] [57] HEARTBEAT
[22:30:54.377132] [58] VFR_HUD
[22:30:54.946228] [211] RADIO
[22:30:54.949145] [211] RADIO_STATUS
[22:30:55.865325] [212] RADIO
[22:30:55.868291] [212] RADIO_STATUS
[22:30:56.796473] [66] VFR_HUD
[22:30:56.905925] [213] RADIO
[22:30:56.908509] [213] RADIO_STATUS
[22:30:57.266502] [67] HEARTBEAT
[22:30:57.273458] [68] ATTITUDE_TARGET
[22:30:57.825538] [214] RADIO
[22:30:57.828605] [214] RADIO_STATUS
[22:30:58.406646] [71] VFR_HUD
[22:30:58.855735] [215] RADIO
[22:30:58.858763] [215] RADIO_STATUS
[22:30:59.213775] [72] HEARTBEAT
[22:30:59.220819] [73] SYS_STATUS
[22:30:59.894964] [216] RADIO
[22:30:59.897835] [216] RADIO_STATUS
[22:31:00.020941] [77] VFR_HUD
[22:31:00.241901] [78] HEARTBEAT
[22:31:00.924980] [217] RADIO
[22:31:00.928034] [217] RADIO_STATUS
[22:31:01.181139] [80] HEARTBEAT
[22:31:01.188205] [81] ATTITUDE_TARGET
[22:31:01.845108] [218] RADIO
[22:31:01.848119] [218] RADIO_STATUS
[22:31:02.426255] [84] VFR_HUD
[22:31:02.995338] [219] RADIO
[22:31:02.998237] [219] RADIO_STATUS
[22:31:03.243303] [85] HEARTBEAT
[22:31:03.250298] [86] SYS_STATUS
[22:31:03.914292] [220] RADIO
[22:31:03.917285] [220] RADIO_STATUS
[22:31:04.157765] [91] HEARTBEAT
[22:31:04.845485] [92] VFR_HUD
[22:31:04.954475] [221] RADIO
[22:31:04.957529] [221] RADIO_STATUS
[22:31:05.314529] [93] HEARTBEAT
[22:31:05.321549] [94] ATTITUDE_TARGET
[22:31:05.874540] [222] RADIO
[22:31:05.877499] [222] RADIO_STATUS
[22:31:06.455704] [97] VFR_HUD
[22:31:06.904658] [223] RADIO
[22:31:06.907637] [223] RADIO_STATUS
[22:31:07.145731] [98] HEARTBEAT
[22:31:07.278692] [99] SYS_STATUS
[22:31:07.285719] [100] BATTERY_STATUS
[22:31:07.287938] [101] EXTENDED_SYS_STATE
[22:31:07.311826] [102] ATTITUDE_TARGET
[22:31:07.316692] [103] VFR_HUD
[22:31:07.319637] [104] SYSTEM_TIME
[22:31:08.054820] [224] RADIO
[22:31:08.057856] [224] RADIO_STATUS
[22:31:08.180880] [105] VFR_HUD
[22:31:08.183827] [106] HEARTBEAT
[22:31:08.760885] [107] VFR_HUD
[22:31:08.974916] [225] RADIO
[22:31:08.976897] [225] RADIO_STATUS
[22:31:09.230284] [108] HEARTBEAT
[22:31:09.237916] [109] ATTITUDE_TARGET
[22:31:09.555099] [110] VFR_HUD
[22:31:09.895047] [226] RADIO
[22:31:09.896989] [226] RADIO_STATUS
[22:31:10.370189] [112] VFR_HUD
[22:31:11.044160] [227] RADIO
[22:31:11.047135] [227] RADIO_STATUS
[22:31:11.964266] [228] RADIO
[22:31:11.967232] [228] RADIO_STATUS
[22:31:12.200317] [119] HEARTBEAT
[22:31:12.775334] [120] VFR_HUD
[22:31:13.004375] [229] RADIO
[22:31:13.007324] [229] RADIO_STATUS
[22:31:13.368466] [121] HEARTBEAT
[22:31:13.376463] [122] ATTITUDE_TARGET
[22:31:13.929504] [230] RADIO
[22:31:13.932456] [230] RADIO_STATUS
[22:31:14.150589] [124] HEARTBEAT
[22:31:14.953637] [231] RADIO
[22:31:14.956650] [231] RADIO_STATUS
[22:31:15.205903] [126] HEARTBEAT
[22:31:15.208754] [127] SYS_STATUS
[22:31:15.327698] [128] BATTERY_STATUS
[22:31:15.335808] [129] ATTITUDE_TARGET
[22:31:15.365748] [130] VFR_HUD
[22:31:16.103716] [232] RADIO
[22:31:16.106670] [232] RADIO_STATUS
[22:31:16.219792] [132] HEARTBEAT
[22:31:16.803832] [133] VFR_HUD
[22:31:17.023122] [233] RADIO
[22:31:17.025785] [233] RADIO_STATUS
[22:31:17.274151] [134] HEARTBEAT
[22:31:17.280811] [135] ATTITUDE_TARGET
[22:31:17.603092] [136] VFR_HUD
[22:31:17.942886] [234] RADIO
[22:31:17.945881] [234] RADIO_STATUS
[22:31:18.418056] [138] VFR_HUD
[22:31:19.093048] [235] RADIO
[22:31:19.096064] [235] RADIO_STATUS
[22:31:20.012283] [236] RADIO
[22:31:20.015177] [236] RADIO_STATUS
[22:31:20.248447] [145] HEARTBEAT
[22:31:20.823270] [146] VFR_HUD
[22:31:21.057226] [237] RADIO
[22:31:21.062813] [237] RADIO_STATUS
[22:31:21.972367] [238] RADIO
[22:31:21.975327] [238] RADIO_STATUS
[22:31:22.198393] [150] HEARTBEAT
[22:31:23.002499] [239] RADIO
[22:31:23.005447] [239] RADIO_STATUS
[22:31:23.250542] [152] HEARTBEAT
[22:31:23.256544] [153] SYS_STATUS
[22:31:23.375514] [154] BATTERY_STATUS
[22:31:23.383476] [155] ATTITUDE_TARGET
[22:31:23.413969] [156] VFR_HUD
[22:31:24.151619] [240] RADIO
[22:31:24.154534] [240] RADIO_STATUS
[22:31:24.185661] [158] HEARTBEAT
[22:31:24.852743] [159] VFR_HUD
[22:31:25.070752] [241] RADIO
[22:31:25.073702] [241] RADIO_STATUS
[22:31:25.320809] [160] HEARTBEAT
[22:31:25.328962] [161] ATTITUDE_TARGET
[22:31:25.651822] [162] VFR_HUD
[22:31:25.990850] [242] RADIO
[22:31:25.994002] [242] RADIO_STATUS
[22:31:26.227827] [163] HEARTBEAT
[22:31:26.461859] [164] VFR_HUD
[22:31:27.140843] [243] RADIO
[22:31:27.143845] [243] RADIO_STATUS
[22:31:27.204951] [165] HEARTBEAT
[22:31:27.210953] [166] SYS_STATUS
[22:31:27.218876] [167] BATTERY_STATUS
[22:31:27.220790] [168] EXTENDED_SYS_STATE
[22:31:27.236969] [169] ATTITUDE_TARGET
[22:31:27.241915] [170] VFR_HUD
[22:31:27.245996] [171] SYSTEM_TIME
[22:31:28.061063] [244] RADIO
[22:31:28.064002] [244] RADIO_STATUS
[22:31:28.767067] [174] VFR_HUD
[22:31:29.101056] [245] RADIO
[22:31:29.104046] [245] RADIO_STATUS
[22:31:30.021127] [246] RADIO
[22:31:30.024094] [246] RADIO_STATUS
[22:31:30.247230] [178] HEARTBEAT
[22:31:31.051400] [247] RADIO
[22:31:31.054221] [247] RADIO_STATUS
[22:31:31.179230] [180] HEARTBEAT
[22:31:31.186254] [181] SYS_STATUS
[22:31:31.305228] [182] BATTERY_STATUS
[22:31:31.418332] [183] ATTITUDE_TARGET
[22:31:31.423207] [184] VFR_HUD
[22:31:32.090285] [248] RADIO
[22:31:32.093403] [248] RADIO_STATUS
[22:31:32.212430] [186] HEARTBEAT
[22:31:33.120454] [249] RADIO
[22:31:33.123407] [249] RADIO_STATUS
[22:31:33.374547] [188] HEARTBEAT
[22:31:33.382554] [189] ATTITUDE_TARGET
[22:31:33.591600] [190] VFR_HUD
[22:31:34.041864] [250] RADIO
[22:31:34.043780] [250] RADIO_STATUS
[22:31:35.190708] [251] RADIO
[22:31:35.193696] [251] RADIO_STATUS
[22:31:35.249786] [193] HEARTBEAT
[22:31:35.256701] [194] SYS_STATUS
[22:31:35.264746] [195] BATTERY_STATUS
[22:31:35.276799] [196] ATTITUDE_TARGET
[22:31:35.281762] [197] VFR_HUD
[22:31:36.000893] [198] VFR_HUD
[22:31:36.032929] [252] RADIO
[22:31:36.037953] [252] RADIO_STATUS
[22:31:36.237860] [199] HEARTBEAT
[22:31:36.815800] [200] VFR_HUD
[22:31:37.029878] [253] RADIO
[22:31:37.032922] [253] RADIO_STATUS
[22:31:37.145976] [201] HEARTBEAT
[22:31:37.169876] [202] ATTITUDE_TARGET
[22:31:38.179965] [254] RADIO
[22:31:38.182989] [254] RADIO_STATUS
[22:31:38.296054] [204] HEARTBEAT
[22:31:39.100150] [255] RADIO
[22:31:39.103123] [255] RADIO_STATUS
[22:31:39.228240] [206] HEARTBEAT
[22:31:39.235211] [207] SYS_STATUS
[22:31:39.355220] [208] BATTERY_STATUS
[22:31:39.467202] [209] ATTITUDE_TARGET
[22:31:39.472141] [210] VFR_HUD
[22:31:40.249194] [0] RADIO
[22:31:40.252133] [0] RADIO_STATUS
[22:31:41.169265] [1] RADIO
[22:31:41.172265] [1] RADIO_STATUS
[22:31:41.424547] [214] HEARTBEAT
[22:31:41.431337] [215] ATTITUDE_TARGET
[22:31:41.640332] [216] VFR_HUD
[22:31:42.089510] [2] RADIO
[22:31:42.097323] [2] RADIO_STATUS
[22:31:43.239562] [3] RADIO
[22:31:43.242520] [3] RADIO_STATUS
[22:31:44.049685] [224] VFR_HUD
[22:31:44.082041] [4] RADIO
[22:31:44.084716] [4] RADIO_STATUS
[22:31:44.859800] [226] VFR_HUD
[22:31:45.078783] [5] RADIO
[22:31:45.081714] [5] RADIO_STATUS
[22:31:45.208717] [227] HEARTBEAT
[22:31:45.216709] [228] ATTITUDE_TARGET
[22:31:45.554798] [229] VFR_HUD
[22:31:46.123798] [6] RADIO
[22:31:46.126773] [6] RADIO_STATUS
[22:31:46.235013] [230] HEARTBEAT
[22:31:46.349960] [231] VFR_HUD
[22:31:47.149013] [7] RADIO
[22:31:47.151919] [7] RADIO_STATUS
[22:31:47.212019] [232] HEARTBEAT
[22:31:47.219027] [233] SYS_STATUS
[22:31:47.226981] [234] BATTERY_STATUS
[22:31:47.228908] [235] EXTENDED_SYS_STATE
[22:31:47.244934] [236] ATTITUDE_TARGET
[22:31:47.250022] [237] VFR_HUD
[22:31:47.254052] [238] SYSTEM_TIME
[22:31:48.299101] [8] RADIO
[22:31:48.302286] [8] RADIO_STATUS
[22:31:49.218216] [9] RADIO
[22:31:49.221182] [9] RADIO_STATUS
[22:31:49.569369] [244] VFR_HUD
[22:31:50.138270] [10] RADIO
[22:31:50.141264] [10] RADIO_STATUS
[22:31:50.172403] [245] HEARTBEAT
[22:31:51.288354] [11] RADIO
[22:31:51.291363] [11] RADIO_STATUS
[22:31:51.328413] [249] BATTERY_STATUS
[22:31:51.356424] [250] ATTITUDE_TARGET
[22:31:51.361911] [251] VFR_HUD
[22:31:51.988544] [252] VFR_HUD
[22:31:52.098497] [12] RADIO
[22:31:52.101500] [12] RADIO_STATUS
[22:31:53.128596] [13] RADIO
[22:31:53.130591] [13] RADIO_STATUS
[22:31:53.175630] [255] HEARTBEAT
[22:31:53.183656] [0] ATTITUDE_TARGET
[22:31:53.598648] [1] VFR_HUD
[22:31:54.164780] [2] HEARTBEAT
[22:31:54.277731] [14] RADIO
[22:31:54.280871] [14] RADIO_STATUS
[22:31:54.398759] [3] VFR_HUD
[22:31:55.197841] [15] RADIO
[22:31:55.200869] [15] RADIO_STATUS
[22:31:55.256833] [4] HEARTBEAT
[22:31:55.263907] [5] SYS_STATUS
[22:31:55.271878] [6] BATTERY_STATUS
[22:31:55.283903] [7] ATTITUDE_TARGET
[22:31:55.288808] [8] VFR_HUD
[22:31:56.117966] [16] RADIO
[22:31:56.120893] [16] RADIO_STATUS
[22:31:57.267221] [17] RADIO
[22:31:57.270226] [17] RADIO_STATUS
[22:31:57.618177] [14] VFR_HUD
[22:31:58.187154] [18] RADIO
[22:31:58.190173] [18] RADIO_STATUS
[22:31:58.221206] [15] HEARTBEAT
[22:31:59.337352] [19] RADIO
[22:31:59.340279] [19] RADIO_STATUS
[22:31:59.407333] [19] BATTERY_STATUS
[22:31:59.415277] [20] ATTITUDE_TARGET
[22:31:59.420359] [21] VFR_HUD
[22:32:00.155646] [22] VFR_HUD
[22:32:00.158446] [23] HEARTBEAT
[22:32:00.166596] [20] RADIO
[22:32:00.170118] [20] RADIO_STATUS
[22:32:01.178452] [21] RADIO
[22:32:01.181410] [21] RADIO_STATUS
[22:32:01.308549] [25] HEARTBEAT
[22:32:01.316491] [26] ATTITUDE_TARGET
[22:32:01.649541] [27] VFR_HUD
[22:32:02.214663] [28] HEARTBEAT
[22:32:02.328615] [22] RADIO
[22:32:02.331719] [22] RADIO_STATUS
[22:32:02.366592] [29] VFR_HUD
[22:32:03.248692] [23] RADIO
[22:32:03.250708] [23] RADIO_STATUS
[22:32:04.167870] [24] RADIO
[22:32:04.170981] [24] RADIO_STATUS
[22:32:04.418857] [35] VFR_HUD
[22:32:04.421882] [36] HEARTBEAT
[22:32:04.748930] [37] VFR_HUD
[22:32:05.317983] [25] RADIO
[22:32:05.321006] [25] RADIO_STATUS
[22:32:05.564103] [40] VFR_HUD
[22:32:06.238187] [26] RADIO
[22:32:06.241084] [26] RADIO_STATUS
[22:32:07.389377] [27] RADIO
[22:32:07.390147] [27] RADIO_STATUS
[22:32:07.968252] [50] VFR_HUD
[22:32:08.193380] [51] HEARTBEAT
[22:32:08.225310] [28] RADIO
[22:32:08.228303] [28] RADIO_STATUS
[22:32:09.227365] [29] RADIO
[22:32:09.230341] [29] RADIO_STATUS
[22:32:09.357463] [53] HEARTBEAT
[22:32:09.365364] [54] ATTITUDE_TARGET
[22:32:10.158562] [56] HEARTBEAT
[22:32:10.272514] [30] RADIO
[22:32:10.275425] [30] RADIO_STATUS
[22:32:10.387642] [57] VFR_HUD
[22:32:11.296620] [31] RADIO
[22:32:11.299545] [31] RADIO_STATUS
[22:32:11.337635] [60] BATTERY_STATUS
[22:32:11.364615] [61] ATTITUDE_TARGET
[22:32:11.369782] [62] VFR_HUD
[22:32:11.997627] [63] VFR_HUD
[22:32:12.216723] [32] RADIO
[22:32:12.219680] [32] RADIO_STATUS
[22:32:12.797741] [65] VFR_HUD
[22:32:13.148819] [66] HEARTBEAT
[22:32:13.366821] [33] RADIO
[22:32:13.369848] [33] RADIO_STATUS
[22:32:13.613017] [68] VFR_HUD
[22:32:14.286860] [34] RADIO
[22:32:14.289889] [34] RADIO_STATUS
[22:32:15.437040] [35] RADIO
[22:32:15.441791] [35] RADIO_STATUS
[22:32:16.143162] [76] VFR_HUD
[22:32:16.254301] [77] HEARTBEAT
[22:32:16.285093] [36] RADIO
[22:32:16.288120] [36] RADIO_STATUS
[22:32:17.177276] [79] HEARTBEAT
[22:32:17.185218] [80] ATTITUDE_TARGET
[22:32:17.277242] [37] RADIO
[22:32:17.280248] [37] RADIO_STATUS
[22:32:17.639287] [81] VFR_HUD
[22:32:18.207376] [82] HEARTBEAT
[22:32:18.321370] [38] RADIO
[22:32:18.324537] [38] RADIO_STATUS
[22:32:18.436356] [83] VFR_HUD
[22:32:19.345422] [39] RADIO
[22:32:19.348434] [39] RADIO_STATUS
[22:32:19.415521] [86] BATTERY_STATUS
[22:32:19.423481] [87] ATTITUDE_TARGET
[22:32:19.428578] [88] VFR_HUD
[22:32:20.265613] [40] RADIO
[22:32:20.268481] [40] RADIO_STATUS
[22:32:20.846586] [91] VFR_HUD
[22:32:21.205815] [92] HEARTBEAT
[22:32:21.213689] [93] ATTITUDE_TARGET
[22:32:21.415760] [41] RADIO
[22:32:21.418609] [41] RADIO_STATUS
[22:32:21.656620] [94] VFR_HUD
[22:32:22.337634] [42] RADIO
[22:32:22.338941] [42] RADIO_STATUS
[22:32:22.374762] [96] VFR_HUD
[22:32:23.260855] [43] RADIO
[22:32:23.263757] [43] RADIO_STATUS
[22:32:23.961917] [102] VFR_HUD
[22:32:24.181993] [103] HEARTBEAT
[22:32:24.295046] [44] RADIO
[22:32:24.297858] [44] RADIO_STATUS
[22:32:25.225075] [105] HEARTBEAT
[22:32:25.233001] [106] ATTITUDE_TARGET
[22:32:25.325110] [45] RADIO
[22:32:25.327938] [45] RADIO_STATUS
[22:32:26.251198] [108] HEARTBEAT
[22:32:26.366132] [109] VFR_HUD
[22:32:26.393326] [46] RADIO
[22:32:26.396234] [46] RADIO_STATUS
[22:32:27.183224] [110] HEARTBEAT
[22:32:27.190321] [111] SYS_STATUS
[22:32:27.394416] [47] RADIO
[22:32:27.397283] [47] RADIO_STATUS
[22:32:28.314383] [48] RADIO
[22:32:28.317311] [48] RADIO_STATUS
[22:32:28.784490] [119] VFR_HUD
[22:32:29.254483] [120] HEARTBEAT
[22:32:29.262517] [121] ATTITUDE_TARGET
[22:32:29.464474] [49] RADIO
[22:32:29.467440] [49] RADIO_STATUS
[22:32:30.384793] [50] RADIO
[22:32:30.387622] [50] RADIO_STATUS
[22:32:30.422638] [124] VFR_HUD
[22:32:31.202708] [125] HEARTBEAT
[22:32:31.208716] [126] SYS_STATUS
[22:32:31.303649] [51] RADIO
[22:32:31.306631] [51] RADIO_STATUS
[22:32:32.009733] [130] VFR_HUD
[22:32:32.239810] [131] HEARTBEAT
[22:32:32.349432] [52] RADIO
[22:32:32.349628] [52] RADIO_STATUS
[22:32:33.169005] [133] HEARTBEAT
[22:32:33.176874] [134] ATTITUDE_TARGET
[22:32:33.373967] [53] RADIO
[22:32:33.377010] [53] RADIO_STATUS
[22:32:34.414074] [137] VFR_HUD
[22:32:34.441065] [54] RADIO
[22:32:34.444029] [54] RADIO_STATUS
[22:32:35.443127] [55] RADIO
[22:32:35.446202] [55] RADIO_STATUS
[22:32:36.155338] [143] VFR_HUD
[22:32:36.158234] [144] HEARTBEAT
[22:32:36.363190] [56] RADIO
[22:32:36.366137] [56] RADIO_STATUS
[22:32:36.834405] [145] VFR_HUD
[22:32:37.303399] [146] HEARTBEAT
[22:32:37.310325] [147] ATTITUDE_TARGET
[22:32:37.513383] [57] RADIO
[22:32:37.516269] [57] RADIO_STATUS
[22:32:38.433436] [58] RADIO
[22:32:38.436360] [58] RADIO_STATUS
[22:32:39.251524] [151] HEARTBEAT
[22:32:39.258512] [152] SYS_STATUS
[22:32:39.586540] [59] RADIO
[22:32:39.589511] [59] RADIO_STATUS
[22:32:40.054617] [156] VFR_HUD
[22:32:40.159584] [157] HEARTBEAT
[22:32:40.400254] [60] RADIO
[22:32:40.401515] [60] RADIO_STATUS
[22:32:41.218792] [159] HEARTBEAT
[22:32:41.226674] [160] ATTITUDE_TARGET
[22:32:41.423662] [61] RADIO
[22:32:41.426727] [61] RADIO_STATUS
[22:32:41.543700] [161] VFR_HUD
[22:32:42.359822] [163] VFR_HUD
[22:32:42.479839] [62] RADIO
[22:32:42.482776] [62] RADIO_STATUS
[22:32:43.492902] [63] RADIO
[22:32:43.495855] [63] RADIO_STATUS
[22:32:44.190181] [170] HEARTBEAT
[22:32:44.412962] [64] RADIO
[22:32:44.417649] [64] RADIO_STATUS
[22:32:44.764052] [171] VFR_HUD
[22:32:45.358155] [172] HEARTBEAT
[22:32:45.365079] [173] ATTITUDE_TARGET
[22:32:45.563160] [65] RADIO
[22:32:45.566195] [65] RADIO_STATUS
[22:32:46.139196] [175] HEARTBEAT
[22:32:46.400380] [66] RADIO
[22:32:46.403174] [66] RADIO_STATUS
[22:32:47.190377] [177] HEARTBEAT
[22:32:47.197336] [178] SYS_STATUS
[22:32:47.319358] [179] BATTERY_STATUS
[22:32:47.325072] [180] EXTENDED_SYS_STATE
[22:32:47.328355] [181] ATTITUDE_TARGET
[22:32:47.333334] [182] VFR_HUD
[22:32:47.337269] [183] SYSTEM_TIME
[22:32:47.402278] [67] RADIO
[22:32:47.405344] [67] RADIO_STATUS
[22:32:48.208652] [185] HEARTBEAT
[22:32:48.442449] [68] RADIO
[22:32:48.445448] [68] RADIO_STATUS
[22:32:48.793873] [186] VFR_HUD
[22:32:49.262572] [187] HEARTBEAT
[22:32:49.270518] [188] ATTITUDE_TARGET
[22:32:49.472532] [69] RADIO
[22:32:49.475536] [69] RADIO_STATUS
[22:32:49.593558] [189] VFR_HUD
[22:32:50.408658] [191] VFR_HUD
[22:32:50.523872] [70] RADIO
[22:32:50.526657] [70] RADIO_STATUS
[22:32:51.542751] [71] RADIO
[22:32:51.545731] [71] RADIO_STATUS
[22:32:51.596798] [195] ATTITUDE_TARGET
[22:32:51.601924] [196] VFR_HUD
[22:32:52.238972] [198] HEARTBEAT
[22:32:52.462884] [72] RADIO
[22:32:52.464843] [72] RADIO_STATUS
[22:32:52.812969] [199] VFR_HUD
[22:32:53.612167] [73] RADIO
[22:32:53.615039] [73] RADIO_STATUS
[22:32:54.189217] [203] HEARTBEAT
[22:32:54.423225] [204] VFR_HUD
[22:32:54.532218] [74] RADIO
[22:32:54.535244] [74] RADIO_STATUS
[22:32:55.244987] [205] HEARTBEAT
[22:32:55.247354] [206] SYS_STATUS
[22:32:55.365263] [207] BATTERY_STATUS
[22:32:55.373281] [208] ATTITUDE_TARGET
[22:32:55.403270] [209] VFR_HUD
[22:32:55.431223] [75] RADIO
[22:32:55.434184] [75] RADIO_STATUS
[22:32:56.153350] [211] HEARTBEAT
[22:32:56.491394] [76] RADIO
[22:32:56.494288] [76] RADIO_STATUS
[22:32:56.842423] [212] VFR_HUD
[22:32:57.311645] [213] HEARTBEAT
[22:32:57.319468] [214] ATTITUDE_TARGET
[22:32:57.521408] [77] RADIO
[22:32:57.524394] [77] RADIO_STATUS
[22:32:57.560427] [215] VFR_HUD
[22:32:58.452566] [217] VFR_HUD
[22:32:58.561617] [78] RADIO
[22:32:58.564560] [78] RADIO_STATUS
[22:32:59.155658] [218] HEARTBEAT
[22:32:59.162653] [219] SYS_STATUS
[22:32:59.201864] [220] BATTERY_STATUS
[22:32:59.209644] [221] ATTITUDE_TARGET
[22:32:59.214636] [222] VFR_HUD
[22:32:59.593948] [79] RADIO
[22:32:59.596621] [79] RADIO_STATUS
[22:32:59.949631] [223] VFR_HUD
[22:33:00.513807] [80] RADIO
[22:33:00.516745] [80] RADIO_STATUS
[22:33:00.759885] [225] VFR_HUD
[22:33:01.663938] [81] RADIO
[22:33:01.665960] [81] RADIO_STATUS
[22:33:02.240012] [229] HEARTBEAT
[22:33:02.584022] [82] RADIO
[22:33:02.585957] [82] RADIO_STATUS
[22:33:03.172207] [231] HEARTBEAT
[22:33:03.179164] [232] SYS_STATUS
[22:33:03.298126] [233] BATTERY_STATUS
[22:33:03.411111] [234] ATTITUDE_TARGET
[22:33:03.416055] [235] VFR_HUD
[22:33:03.503207] [83] RADIO
[22:33:03.506087] [83] RADIO_STATUS
[22:33:04.205270] [237] HEARTBEAT
[22:33:04.548202] [84] RADIO
[22:33:04.551204] [84] RADIO_STATUS
[22:33:05.368397] [239] HEARTBEAT
[22:33:05.375299] [240] ATTITUDE_TARGET
[22:33:05.573308] [85] RADIO
[22:33:05.576309] [85] RADIO_STATUS
[22:33:05.695899] [241] VFR_HUD
[22:33:06.493923] [86] RADIO
[22:33:06.496497] [86] RADIO_STATUS
[22:33:07.206626] [244] HEARTBEAT
[22:33:07.213538] [245] SYS_STATUS
[22:33:07.247571] [246] BATTERY_STATUS
[22:33:07.249441] [247] EXTENDED_SYS_STATE
[22:33:07.257547] [248] ATTITUDE_TARGET
[22:33:07.261461] [249] VFR_HUD
[22:33:07.265521] [250] SYSTEM_TIME
[22:33:07.642534] [87] RADIO
[22:33:07.645581] [87] RADIO_STATUS
[22:33:07.993805] [251] VFR_HUD
[22:33:08.562662] [88] RADIO
[22:33:08.565607] [88] RADIO_STATUS
[22:33:08.808759] [253] VFR_HUD
[22:33:09.138810] [254] HEARTBEAT
[22:33:09.161775] [255] ATTITUDE_TARGET
[22:33:09.715704] [89] RADIO
[22:33:09.718863] [89] RADIO_STATUS
[22:33:10.178920] [1] HEARTBEAT
[22:33:10.632966] [90] RADIO
[22:33:10.635819] [90] RADIO_STATUS
[22:33:11.220919] [3] HEARTBEAT
[22:33:11.227882] [4] SYS_STATUS
[22:33:11.346954] [5] BATTERY_STATUS
[22:33:11.459966] [6] ATTITUDE_TARGET
[22:33:11.464883] [7] VFR_HUD
[22:33:11.551938] [91] RADIO
[22:33:11.554909] [91] RADIO_STATUS
[22:33:12.249073] [9] HEARTBEAT
[22:33:12.598003] [92] RADIO
[22:33:12.599953] [92] RADIO_STATUS
[22:33:13.622201] [93] RADIO
[22:33:13.625156] [93] RADIO_STATUS
[22:33:13.743196] [13] VFR_HUD
[22:33:14.433294] [15] VFR_HUD
[22:33:14.541247] [94] RADIO
[22:33:14.544225] [94] RADIO_STATUS
[22:33:15.249326] [16] HEARTBEAT
[22:33:15.256338] [17] SYS_STATUS
[22:33:15.691358] [95] RADIO
[22:33:15.694433] [95] RADIO_STATUS
[22:33:16.042505] [21] VFR_HUD
[22:33:16.611725] [96] RADIO
[22:33:16.614684] [96] RADIO_STATUS
[22:33:16.852663] [23] VFR_HUD
[22:33:17.201605] [24] HEARTBEAT
[22:33:17.209566] [25] ATTITUDE_TARGET
[22:33:17.547868] [26] VFR_HUD
[22:33:17.760634] [97] RADIO
[22:33:17.763622] [97] RADIO_STATUS
[22:33:18.227754] [27] HEARTBEAT
[22:33:18.681876] [98] RADIO
[22:33:18.685526] [98] RADIO_STATUS
[22:33:19.164837] [29] HEARTBEAT
[22:33:19.171828] [30] SYS_STATUS
[22:33:19.210871] [31] BATTERY_STATUS
[22:33:19.220901] [32] ATTITUDE_TARGET
[22:33:19.223894] [33] VFR_HUD
[22:33:19.600938] [99] RADIO
[22:33:19.603901] [99] RADIO_STATUS
[22:33:20.640918] [100] RADIO
[22:33:20.643932] [100] RADIO_STATUS
[22:33:21.561185] [39] VFR_HUD
[22:33:21.670092] [101] RADIO
[22:33:21.673177] [101] RADIO_STATUS
[22:33:22.141144] [40] HEARTBEAT
[22:33:22.589316] [102] RADIO
[22:33:22.592082] [102] RADIO_STATUS
[22:33:23.299233] [44] BATTERY_STATUS
[22:33:23.629387] [103] RADIO
[22:33:23.632157] [103] RADIO_STATUS
[22:33:23.980276] [47] VFR_HUD
[22:33:24.664978] [104] RADIO
[22:33:24.665286] [104] RADIO_STATUS
[22:33:25.249420] [50] HEARTBEAT
[22:33:25.257372] [51] ATTITUDE_TARGET
[22:33:25.597311] [52] VFR_HUD
[22:33:25.809451] [105] RADIO
[22:33:25.812447] [105] RADIO_STATUS
[22:33:26.165421] [53] HEARTBEAT
[22:33:26.395491] [54] VFR_HUD
[22:33:26.729523] [106] RADIO
[22:33:26.732686] [106] RADIO_STATUS
[22:33:27.212649] [55] HEARTBEAT
[22:33:27.219525] [56] SYS_STATUS
[22:33:27.253570] [57] BATTERY_STATUS
[22:33:27.255592] [58] EXTENDED_SYS_STATE
[22:33:27.265306] [59] ATTITUDE_TARGET
[22:33:27.268495] [60] VFR_HUD
[22:33:27.271478] [61] SYSTEM_TIME
[22:33:27.649589] [107] RADIO
[22:33:27.651605] [107] RADIO_STATUS
[22:33:28.688670] [108] RADIO
[22:33:28.691668] [108] RADIO_STATUS
[22:33:29.610068] [67] VFR_HUD
[22:33:29.641859] [109] RADIO
[22:33:29.644872] [109] RADIO_STATUS
[22:33:30.189948] [68] HEARTBEAT
[22:33:30.419879] [69] VFR_HUD
[22:33:30.637973] [110] RADIO
[22:33:30.640899] [110] RADIO_STATUS
[22:33:31.353017] [72] BATTERY_STATUS
[22:33:31.788015] [111] RADIO
[22:33:31.791161] [111] RADIO_STATUS
[22:33:32.029107] [75] VFR_HUD
[22:33:32.139077] [76] HEARTBEAT
[22:33:32.707139] [112] RADIO
[22:33:32.710050] [112] RADIO_STATUS
[22:33:33.188406] [78] HEARTBEAT
[22:33:33.195241] [79] ATTITUDE_TARGET
[22:33:33.638325] [80] VFR_HUD
[22:33:33.857378] [113] RADIO
[22:33:33.860209] [113] RADIO_STATUS
[22:33:34.204738] [81] HEARTBEAT
[22:33:34.438312] [82] VFR_HUD
[22:33:34.777457] [114] RADIO
[22:33:34.780325] [114] RADIO_STATUS
[22:33:35.255393] [83] HEARTBEAT
[22:33:35.262433] [84] SYS_STATUS
[22:33:35.380452] [85] BATTERY_STATUS
[22:33:35.388563] [86] ATTITUDE_TARGET
[22:33:35.418364] [87] VFR_HUD
[22:33:35.697429] [115] RADIO
[22:33:35.699394] [115] RADIO_STATUS
[22:33:36.742671] [90] VFR_HUD
[22:33:36.771100] [116] RADIO
[22:33:36.772856] [116] RADIO_STATUS
[22:33:37.552783] [93] VFR_HUD
[22:33:37.673759] [117] RADIO
[22:33:37.676752] [117] RADIO_STATUS
[22:33:38.232849] [94] HEARTBEAT
[22:33:38.686829] [118] RADIO
[22:33:38.689808] [118] RADIO_STATUS
[22:33:39.732011] [119] RADIO
[22:33:39.735013] [119] RADIO_STATUS
[22:33:39.956995] [101] VFR_HUD
[22:33:40.182929] [102] HEARTBEAT
[22:33:40.756151] [120] RADIO
[22:33:40.758996] [120] RADIO_STATUS
[22:33:41.236064] [104] HEARTBEAT
[22:33:41.244036] [105] ATTITUDE_TARGET
[22:33:41.676235] [121] RADIO
[22:33:41.679082] [121] RADIO_STATUS
[22:33:42.148418] [107] HEARTBEAT
[22:33:42.377192] [108] VFR_HUD
[22:33:42.826675] [122] RADIO
[22:33:42.829942] [122] RADIO_STATUS
[22:33:43.184460] [109] HEARTBEAT
[22:33:43.191276] [110] SYS_STATUS
[22:33:43.306351] [111] BATTERY_STATUS
[22:33:43.423314] [112] ATTITUDE_TARGET
[22:33:43.428306] [113] VFR_HUD
[22:33:43.746397] [123] RADIO
[22:33:43.749277] [123] RADIO_STATUS
[22:33:43.992383] [114] VFR_HUD
[22:33:44.786457] [116] VFR_HUD
[22:33:44.819481] [124] RADIO
[22:33:44.821482] [124] RADIO_STATUS
[22:33:45.137542] [117] HEARTBEAT
[22:33:45.602557] [119] VFR_HUD
[22:33:45.717555] [125] RADIO
[22:33:45.720526] [125] RADIO_STATUS
[22:33:46.735715] [126] RADIO
[22:33:46.738693] [126] RADIO_STATUS
[22:33:47.775831] [127] RADIO
[22:33:47.778877] [127] RADIO_STATUS
[22:33:48.006927] [129] VFR_HUD
[22:33:48.232023] [130] HEARTBEAT
[22:33:48.805950] [128] RADIO
[22:33:48.808989] [128] RADIO_STATUS
[22:33:49.166094] [132] HEARTBEAT
[22:33:49.173061] [133] ATTITUDE_TARGET
[22:33:49.726124] [129] RADIO
[22:33:49.729111] [129] RADIO_STATUS
[22:33:50.197680] [135] HEARTBEAT
[22:33:50.426470] [136] VFR_HUD
[22:33:50.875273] [130] RADIO
[22:33:50.878228] [130] RADIO_STATUS
[22:33:51.360270] [139] BATTERY_STATUS
[22:33:51.472247] [140] ATTITUDE_TARGET
[22:33:51.477209] [141] VFR_HUD
[22:33:51.797820] [131] RADIO
[22:33:51.798277] [131] RADIO_STATUS
[22:33:52.036336] [142] VFR_HUD
[22:33:52.835394] [144] VFR_HUD
[22:33:52.862446] [132] RADIO
[22:33:52.865368] [132] RADIO_STATUS
[22:33:53.200446] [145] HEARTBEAT
[22:33:53.208572] [146] ATTITUDE_TARGET
[22:33:53.645566] [147] VFR_HUD
[22:33:53.754614] [133] RADIO
[22:33:53.757426] [133] RADIO_STATUS
[22:33:54.340662] [149] VFR_HUD
[22:33:54.788610] [134] RADIO
[22:33:54.791740] [134] RADIO_STATUS
[22:33:55.824847] [135] RADIO
[22:33:55.827692] [135] RADIO_STATUS
[22:33:56.180761] [155] VFR_HUD
[22:33:56.183714] [156] HEARTBEAT
[22:33:56.854784] [136] RADIO
[22:33:56.857776] [136] RADIO_STATUS
[22:33:57.215292] [158] HEARTBEAT
[22:33:57.222889] [159] ATTITUDE_TARGET
[22:33:57.775083] [137] RADIO
[22:33:57.777985] [137] RADIO_STATUS
[22:33:58.241074] [161] HEARTBEAT
[22:33:58.356054] [162] VFR_HUD
[22:33:58.815039] [138] RADIO
[22:33:58.817965] [138] RADIO_STATUS
[22:33:59.844172] [139] RADIO
[22:33:59.847210] [139] RADIO_STATUS
[22:34:00.775458] [170] VFR_HUD
[22:34:00.884388] [140] RADIO
[22:34:00.887320] [140] RADIO_STATUS
[22:34:01.244474] [171] HEARTBEAT
[22:34:01.252319] [172] ATTITUDE_TARGET
[22:34:01.810387] [141] RADIO
[22:34:01.813572] [141] RADIO_STATUS
[22:34:02.390505] [175] VFR_HUD
[22:34:02.834549] [142] RADIO
[22:34:02.837489] [142] RADIO_STATUS
[22:34:03.192559] [176] HEARTBEAT
[22:34:03.199595] [177] SYS_STATUS
[22:34:03.879687] [143] RADIO
[22:34:03.882662] [143] RADIO_STATUS
[22:34:04.000683] [181] VFR_HUD
[22:34:04.220698] [182] HEARTBEAT
[22:34:04.904860] [144] RADIO
[22:34:04.907780] [144] RADIO_STATUS
[22:34:05.140911] [184] HEARTBEAT
[22:34:05.163781] [185] ATTITUDE_TARGET
[22:34:05.824926] [145] RADIO
[22:34:05.827810] [145] RADIO_STATUS
[22:34:06.974013] [146] RADIO
[22:34:06.976914] [146] RADIO_STATUS
[22:34:07.894040] [147] RADIO
[22:34:07.897062] [147] RADIO_STATUS
[22:34:08.814219] [148] RADIO
[22:34:08.817192] [148] RADIO_STATUS
[22:34:08.935176] [198] VFR_HUD
[22:34:09.294295] [199] HEARTBEAT
[22:34:09.301278] [200] ATTITUDE_TARGET
[22:34:09.859317] [149] RADIO
[22:34:09.862381] [149] RADIO_STATUS
[22:34:10.435307] [203] VFR_HUD
[22:34:10.884315] [150] RADIO
[22:34:10.887309] [150] RADIO_STATUS
[22:34:11.242375] [204] HEARTBEAT
[22:34:11.249570] [205] SYS_STATUS
[22:34:12.034437] [151] RADIO
[22:34:12.037468] [151] RADIO_STATUS
[22:34:12.160517] [209] VFR_HUD
[22:34:12.163464] [210] HEARTBEAT
[22:34:12.953614] [152] RADIO
[22:34:12.956595] [152] RADIO_STATUS
[22:34:13.208709] [212] HEARTBEAT
[22:34:13.216764] [213] ATTITUDE_TARGET
[22:34:13.873826] [153] RADIO
[22:34:13.876724] [153] RADIO_STATUS
[22:34:14.349804] [216] VFR_HUD
[22:34:15.023870] [154] RADIO
[22:34:15.026806] [154] RADIO_STATUS
[22:34:15.943986] [155] RADIO
[22:34:15.947041] [155] RADIO_STATUS
[22:34:16.195159] [222] VFR_HUD
[22:34:16.198034] [223] HEARTBEAT
[22:34:16.754127] [224] VFR_HUD
[22:34:16.863227] [156] RADIO
[22:34:16.866137] [156] RADIO_STATUS
[22:34:17.348434] [225] HEARTBEAT
[22:34:17.356315] [226] ATTITUDE_TARGET
[22:34:17.903270] [157] RADIO
[22:34:17.906194] [157] RADIO_STATUS
[22:34:18.933351] [158] RADIO
[22:34:18.936295] [158] RADIO_STATUS
[22:34:19.181337] [230] HEARTBEAT
[22:34:19.188496] [231] SYS_STATUS
[22:34:19.307314] [232] BATTERY_STATUS
[22:34:19.314348] [233] ATTITUDE_TARGET
[22:34:19.345381] [234] VFR_HUD
[22:34:20.083438] [159] RADIO
[22:34:20.086384] [159] RADIO_STATUS
[22:34:20.199472] [236] HEARTBEAT
[22:34:20.789610] [237] VFR_HUD
[22:34:21.003602] [160] RADIO
[22:34:21.006521] [160] RADIO_STATUS
[22:34:21.253622] [238] HEARTBEAT
[22:34:21.261539] [239] ATTITUDE_TARGET
[22:34:21.584545] [240] VFR_HUD
[22:34:21.923620] [161] RADIO
[22:34:21.926662] [161] RADIO_STATUS
[22:34:22.399930] [242] VFR_HUD
[22:34:23.073951] [162] RADIO
[22:34:23.076774] [162] RADIO_STATUS
[22:34:23.669909] [246] ATTITUDE_TARGET
[22:34:23.675050] [247] VFR_HUD
[22:34:23.992821] [163] RADIO
[22:34:23.995852] [163] RADIO_STATUS
[22:34:24.229954] [249] HEARTBEAT
[22:34:24.804097] [250] VFR_HUD
[22:34:24.914089] [164] RADIO
[22:34:24.915950] [164] RADIO_STATUS
[22:34:25.953131] [165] RADIO
[22:34:25.956175] [165] RADIO_STATUS
[22:34:26.179267] [254] HEARTBEAT
[22:34:26.983284] [166] RADIO
[22:34:26.986229] [166] RADIO_STATUS
[22:34:27.231367] [0] HEARTBEAT
[22:34:27.238357] [1] SYS_STATUS
[22:34:27.359328] [2] BATTERY_STATUS
[22:34:27.361236] [3] EXTENDED_SYS_STATE
[22:34:27.369304] [4] ATTITUDE_TARGET
[22:34:27.374291] [5] VFR_HUD
[22:34:27.377222] [6] SYSTEM_TIME
[22:34:28.133351] [167] RADIO
[22:34:28.136374] [167] RADIO_STATUS
[22:34:28.167430] [8] HEARTBEAT
[22:34:28.834539] [9] VFR_HUD
[22:34:29.053422] [168] RADIO
[22:34:29.056515] [168] RADIO_STATUS
[22:34:29.302485] [10] HEARTBEAT
[22:34:29.310542] [11] ATTITUDE_TARGET
[22:34:29.634505] [12] VFR_HUD
[22:34:29.973621] [169] RADIO
[22:34:29.976583] [169] RADIO_STATUS
[22:34:30.443671] [14] VFR_HUD
[22:34:31.123666] [170] RADIO
[22:34:31.126676] [170] RADIO_STATUS
[22:34:31.182753] [15] HEARTBEAT
[22:34:31.189757] [16] SYS_STATUS
[22:34:31.197743] [17] BATTERY_STATUS
[22:34:31.209734] [18] ATTITUDE_TARGET
[22:34:31.214660] [19] VFR_HUD
[22:34:31.938865] [20] VFR_HUD
[22:34:31.966249] [171] RADIO
[22:34:31.968872] [171] RADIO_STATUS
[22:34:32.748934] [22] VFR_HUD
[22:34:32.962818] [172] RADIO
[22:34:32.965830] [172] RADIO_STATUS
[22:34:34.008096] [173] RADIO
[22:34:34.011065] [173] RADIO_STATUS
[22:34:34.229102] [26] HEARTBEAT
[22:34:35.032289] [174] RADIO
[22:34:35.035185] [174] RADIO_STATUS
[22:34:35.161271] [28] HEARTBEAT
[22:34:35.167219] [29] SYS_STATUS
[22:34:35.287466] [30] BATTERY_STATUS
[22:34:35.399229] [31] ATTITUDE_TARGET
[22:34:35.404201] [32] VFR_HUD
[22:34:35.952339] [175] RADIO
[22:34:35.955432] [175] RADIO_STATUS
[22:34:36.193487] [34] HEARTBEAT
[22:34:37.102405] [176] RADIO
[22:34:37.106073] [176] RADIO_STATUS
[22:34:37.572485] [38] VFR_HUD
[22:34:38.022571] [177] RADIO
[22:34:38.025542] [177] RADIO_STATUS
[22:34:39.171708] [178] RADIO
[22:34:39.174595] [178] RADIO_STATUS
[22:34:39.231727] [41] HEARTBEAT
[22:34:39.238688] [42] SYS_STATUS
[22:34:39.246876] [43] BATTERY_STATUS
[22:34:39.258683] [44] ATTITUDE_TARGET
[22:34:39.263800] [45] VFR_HUD
[22:34:39.982784] [46] VFR_HUD
[22:34:40.014938] [179] RADIO
[22:34:40.017827] [179] RADIO_STATUS
[22:34:40.797812] [48] VFR_HUD
[22:34:41.012024] [180] RADIO
[22:34:41.014869] [180] RADIO_STATUS
[22:34:42.057046] [181] RADIO
[22:34:42.059947] [181] RADIO_STATUS
[22:34:42.168036] [52] HEARTBEAT
[22:34:43.081147] [182] RADIO
[22:34:43.084108] [182] RADIO_STATUS
[22:34:43.209819] [54] HEARTBEAT
[22:34:43.216056] [55] SYS_STATUS
[22:34:43.336121] [56] BATTERY_STATUS
[22:34:43.448204] [57] ATTITUDE_TARGET
[22:34:43.453199] [58] VFR_HUD
[22:34:44.001182] [183] RADIO
[22:34:44.004366] [183] RADIO_STATUS
[22:34:45.151288] [184] RADIO
[22:34:45.154212] [184] RADIO_STATUS
[22:34:45.405601] [62] HEARTBEAT
[22:34:45.413275] [63] ATTITUDE_TARGET
[22:34:45.621274] [64] VFR_HUD
[22:34:46.071683] [185] RADIO
[22:34:46.074339] [185] RADIO_STATUS
[22:34:47.221499] [186] RADIO
[22:34:47.224451] [186] RADIO_STATUS
[22:34:48.031662] [74] VFR_HUD
[22:34:48.059869] [187] RADIO
[22:34:48.061531] [187] RADIO_STATUS
[22:34:48.841598] [76] VFR_HUD
[22:34:49.060756] [188] RADIO
[22:34:49.063643] [188] RADIO_STATUS
[22:34:49.190689] [77] HEARTBEAT
[22:34:49.198640] [78] ATTITUDE_TARGET
[22:34:50.100711] [189] RADIO
[22:34:50.103633] [189] RADIO_STATUS
[22:34:50.216776] [80] HEARTBEAT
[22:34:51.131155] [190] RADIO
[22:34:51.133801] [190] RADIO_STATUS
[22:34:51.191950] [82] HEARTBEAT
[22:34:51.197881] [83] SYS_STATUS
[22:34:51.205022] [84] BATTERY_STATUS
[22:34:51.217886] [85] ATTITUDE_TARGET
[22:34:51.222093] [86] VFR_HUD
[22:34:52.050965] [191] RADIO
[22:34:52.055247] [191] RADIO_STATUS
[22:34:53.201081] [192] RADIO
[22:34:53.204124] [192] RADIO_STATUS
[22:34:53.450180] [90] HEARTBEAT
[22:34:53.458360] [91] ATTITUDE_TARGET
[22:34:53.551114] [92] VFR_HUD
[22:34:54.120185] [193] RADIO
[22:34:54.123300] [193] RADIO_STATUS
[22:34:54.154355] [93] HEARTBEAT
[22:34:55.270400] [194] RADIO
[22:34:55.273318] [194] RADIO_STATUS
[22:34:55.311379] [97] BATTERY_STATUS
[22:34:55.338761] [98] ATTITUDE_TARGET
[22:34:55.343346] [99] VFR_HUD
[22:34:55.971483] [100] VFR_HUD
[22:34:56.080464] [195] RADIO
[22:34:56.083415] [195] RADIO_STATUS
[22:34:57.110550] [196] RADIO
[22:34:57.113529] [196] RADIO_STATUS
[22:34:57.157550] [103] HEARTBEAT
[22:34:57.165562] [104] ATTITUDE_TARGET
[22:34:57.586645] [105] VFR_HUD
[22:34:58.146636] [106] HEARTBEAT
[22:34:58.260587] [197] RADIO
[22:34:58.262629] [197] RADIO_STATUS
[22:34:58.380637] [107] VFR_HUD
[22:34:59.179708] [198] RADIO
[22:34:59.182622] [198] RADIO_STATUS
[22:34:59.239709] [108] HEARTBEAT
[22:34:59.246763] [109] SYS_STATUS
[22:34:59.253712] [110] BATTERY_STATUS
[22:34:59.266678] [111] ATTITUDE_TARGET
[22:34:59.270654] [112] VFR_HUD
[22:35:00.099742] [199] RADIO
[22:35:00.102744] [199] RADIO_STATUS
[22:35:01.250115] [200] RADIO
[22:35:01.252875] [200] RADIO_STATUS
[22:35:01.601043] [118] VFR_HUD
[22:35:02.170394] [201] RADIO
[22:35:02.173873] [201] RADIO_STATUS
[22:35:02.204028] [119] HEARTBEAT
[22:35:03.090074] [202] RADIO
[22:35:03.093104] [202] RADIO_STATUS
[22:35:03.345168] [123] BATTERY_STATUS
[22:35:04.020267] [126] VFR_HUD
[22:35:04.131185] [127] HEARTBEAT
[22:35:04.157265] [203] RADIO
[22:35:04.160238] [203] RADIO_STATUS
[22:35:05.159324] [204] RADIO
[22:35:05.162220] [204] RADIO_STATUS
[22:35:05.289326] [129] HEARTBEAT
[22:35:05.297411] [130] ATTITUDE_TARGET
[22:35:05.630310] [131] VFR_HUD
[22:35:06.196366] [132] HEARTBEAT
[22:35:06.227352] [205] RADIO
[22:35:06.233752] [205] RADIO_STATUS
[22:35:06.433925] [133] VFR_HUD
[22:35:07.229767] [206] RADIO
[22:35:07.232452] [206] RADIO_STATUS
[22:35:07.357526] [134] HEARTBEAT
[22:35:07.364475] [135] SYS_STATUS
[22:35:07.487487] [136] BATTERY_STATUS
[22:35:07.489412] [137] EXTENDED_SYS_STATE
[22:35:07.521494] [138] ATTITUDE_TARGET
[22:35:07.526511] [139] VFR_HUD
[22:35:07.529477] [140] SYSTEM_TIME
[22:35:08.149739] [207] RADIO
[22:35:08.152535] [207] RADIO_STATUS
[22:35:09.298741] [208] RADIO
[22:35:09.301752] [208] RADIO_STATUS
[22:35:09.539779] [146] VFR_HUD
[22:35:10.218857] [209] RADIO
[22:35:10.221829] [209] RADIO_STATUS
[22:35:11.138968] [210] RADIO
[22:35:11.141946] [210] RADIO_STATUS
[22:35:11.394024] [151] BATTERY_STATUS
[22:35:11.950095] [154] VFR_HUD
[22:35:12.175107] [155] HEARTBEAT
[22:35:12.206989] [211] RADIO
[22:35:12.209118] [211] RADIO_STATUS
[22:35:13.208332] [212] RADIO
[22:35:13.213590] [212] RADIO_STATUS
[22:35:13.338240] [157] HEARTBEAT
[22:35:13.346295] [158] ATTITUDE_TARGET
[22:35:14.128234] [213] RADIO
[22:35:14.131199] [213] RADIO_STATUS
[22:35:14.162278] [160] HEARTBEAT
[22:35:14.369289] [161] VFR_HUD
[22:35:15.278347] [214] RADIO
[22:35:15.281294] [214] RADIO_STATUS
[22:35:15.319381] [164] BATTERY_STATUS
[22:35:15.346443] [165] ATTITUDE_TARGET
[22:35:15.351491] [166] VFR_HUD
[22:35:15.984389] [167] VFR_HUD
[22:35:16.198421] [215] RADIO
[22:35:16.201394] [215] RADIO_STATUS
[22:35:16.779542] [169] VFR_HUD
[22:35:17.348489] [216] RADIO
[22:35:17.351483] [216] RADIO_STATUS
[22:35:17.594572] [172] VFR_HUD
[22:35:18.154753] [173] HEARTBEAT
[22:35:18.268581] [217] RADIO
[22:35:18.271505] [217] RADIO_STATUS
[22:35:19.188703] [218] RADIO
[22:35:19.191729] [218] RADIO_STATUS
[22:35:19.998894] [180] VFR_HUD
[22:35:20.224878] [181] HEARTBEAT
[22:35:20.337866] [219] RADIO
[22:35:20.340866] [219] RADIO_STATUS
[22:35:21.158064] [183] HEARTBEAT
[22:35:21.165939] [184] ATTITUDE_TARGET
[22:35:21.257969] [220] RADIO
[22:35:21.261054] [220] RADIO_STATUS
[22:35:22.177988] [221] RADIO
[22:35:22.180961] [221] RADIO_STATUS
[22:35:22.212149] [186] HEARTBEAT
[22:35:22.419096] [187] VFR_HUD
[22:35:23.328188] [222] RADIO
[22:35:23.331228] [222] RADIO_STATUS
[22:35:23.398392] [190] BATTERY_STATUS
[22:35:23.405956] [191] ATTITUDE_TARGET
[22:35:23.410315] [192] VFR_HUD
[22:35:24.248287] [223] RADIO
[22:35:24.251298] [223] RADIO_STATUS
[22:35:24.829586] [195] VFR_HUD
[22:35:25.173378] [224] RADIO
[22:35:25.176357] [224] RADIO_STATUS
[22:35:25.216458] [196] HEARTBEAT
[22:35:25.223478] [197] ATTITUDE_TARGET
[22:35:25.639405] [198] VFR_HUD
[22:35:26.318469] [225] RADIO
[22:35:26.321469] [225] RADIO_STATUS
[22:35:26.356528] [200] VFR_HUD
[22:35:27.129707] [201] HEARTBEAT
[22:35:27.149646] [202] SYS_STATUS
[22:35:27.187563] [203] BATTERY_STATUS
[22:35:27.189518] [204] EXTENDED_SYS_STATE
[22:35:27.197571] [205] ATTITUDE_TARGET
[22:35:27.202664] [206] VFR_HUD
[22:35:27.205674] [207] SYSTEM_TIME
[22:35:27.238599] [226] RADIO
[22:35:27.241516] [226] RADIO_STATUS
[22:35:27.944660] [208] VFR_HUD
[22:35:28.164624] [209] HEARTBEAT
[22:35:28.278653] [227] RADIO
[22:35:28.281658] [227] RADIO_STATUS
[22:35:29.208841] [211] HEARTBEAT
[22:35:29.215786] [212] ATTITUDE_TARGET
[22:35:29.225785] [228] RADIO
[22:35:29.228812] [228] RADIO_STATUS
[22:35:30.227851] [229] RADIO
[22:35:30.230891] [229] RADIO_STATUS
[22:35:30.352943] [214] HEARTBEAT
[22:35:30.357878] [215] VFR_HUD
[22:35:31.378035] [230] RADIO
[22:35:31.381080] [230] RADIO_STATUS
[22:35:32.298172] [231] RADIO
[22:35:32.301119] [231] RADIO_STATUS
[22:35:32.769128] [223] VFR_HUD
[22:35:33.218283] [232] RADIO
[22:35:33.221271] [232] RADIO_STATUS
[22:35:34.263301] [233] RADIO
[22:35:34.266234] [233] RADIO_STATUS
[22:35:34.384450] [228] VFR_HUD
[22:35:35.186395] [229] HEARTBEAT
[22:35:35.192969] [230] SYS_STATUS
[22:35:35.287380] [234] RADIO
[22:35:35.290410] [234] RADIO_STATUS
[22:35:35.993534] [234] VFR_HUD
[22:35:36.214557] [235] HEARTBEAT
[22:35:36.333488] [235] RADIO
[22:35:36.336466] [235] RADIO_STATUS
[22:35:37.153660] [237] HEARTBEAT
[22:35:37.160609] [238] ATTITUDE_TARGET
[22:35:37.247582] [236] RADIO
[22:35:37.250759] [236] RADIO_STATUS
[22:35:38.277788] [237] RADIO
[22:35:38.280639] [237] RADIO_STATUS
[22:35:38.398792] [241] VFR_HUD
[22:35:39.427791] [238] RADIO
[22:35:39.430693] [238] RADIO_STATUS
[22:35:40.347821] [239] RADIO
[22:35:40.349797] [239] RADIO_STATUS
[22:35:40.817995] [249] VFR_HUD
[22:35:41.266941] [240] RADIO
[22:35:41.269958] [240] RADIO_STATUS
[22:35:42.417331] [241] RADIO
[22:35:42.420013] [241] RADIO_STATUS
[22:35:43.235249] [255] HEARTBEAT
[22:35:43.242121] [0] SYS_STATUS
[22:35:43.337118] [242] RADIO
[22:35:43.340163] [242] RADIO_STATUS
[22:35:44.037291] [4] VFR_HUD
[22:35:44.143243] [5] HEARTBEAT
[22:35:44.256333] [243] RADIO
[22:35:44.259223] [243] RADIO_STATUS
[22:35:45.202548] [7] HEARTBEAT
[22:35:45.209581] [8] ATTITUDE_TARGET
[22:35:45.296357] [244] RADIO
[22:35:45.299403] [244] RADIO_STATUS
[22:35:46.326463] [245] RADIO
[22:35:46.329671] [245] RADIO_STATUS
[22:35:46.365573] [11] VFR_HUD
[22:35:47.476616] [246] RADIO
[22:35:47.479754] [246] RADIO_STATUS
[22:35:48.177723] [20] HEARTBEAT
[22:35:48.396680] [247] RADIO
[22:35:48.399656] [247] RADIO_STATUS
[22:35:48.747734] [21] VFR_HUD
[22:35:49.316906] [248] RADIO
[22:35:49.321031] [248] RADIO_STATUS
[22:35:49.363806] [22] HEARTBEAT
[22:35:49.371901] [23] ATTITUDE_TARGET
[22:35:50.467049] [249] RADIO
[22:35:50.469953] [249] RADIO_STATUS
[22:35:51.175144] [27] HEARTBEAT
[22:35:51.181254] [28] SYS_STATUS
[22:35:51.300227] [29] BATTERY_STATUS
[22:35:51.308155] [30] ATTITUDE_TARGET
[22:35:51.338041] [31] VFR_HUD
[22:35:51.366232] [250] RADIO
[22:35:51.368167] [250] RADIO_STATUS
[22:35:52.193288] [33] HEARTBEAT
[22:35:52.306296] [251] RADIO
[22:35:52.309172] [251] RADIO_STATUS
[22:35:52.782278] [34] VFR_HUD
[22:35:53.246286] [35] HEARTBEAT
[22:35:53.254284] [36] ATTITUDE_TARGET
[22:35:53.374282] [252] RADIO
[22:35:53.377250] [252] RADIO_STATUS
[22:35:53.577282] [37] VFR_HUD
[22:35:54.375379] [253] RADIO
[22:35:54.378401] [253] RADIO_STATUS
[22:35:54.414509] [39] VFR_HUD
[22:35:55.525558] [254] RADIO
[22:35:55.528548] [254] RADIO_STATUS
[22:35:55.580698] [43] ATTITUDE_TARGET
[22:35:55.584569] [44] VFR_HUD
[22:35:56.221699] [46] HEARTBEAT
[22:35:56.445693] [255] RADIO
[22:35:56.448706] [255] RADIO_STATUS
[22:35:56.796762] [47] VFR_HUD
[22:35:57.365721] [0] RADIO
[22:35:57.368714] [0] RADIO_STATUS
[22:35:58.171958] [51] HEARTBEAT
[22:35:58.516125] [1] RADIO
[22:35:58.518947] [1] RADIO_STATUS
[22:35:59.224129] [53] HEARTBEAT
[22:35:59.230258] [54] SYS_STATUS
[22:35:59.349038] [55] BATTERY_STATUS
[22:35:59.356977] [56] ATTITUDE_TARGET
[22:35:59.387052] [57] VFR_HUD
[22:35:59.416432] [2] RADIO
[22:35:59.417086] [2] RADIO_STATUS
[22:36:00.137212] [59] HEARTBEAT
[22:36:00.355082] [3] RADIO
[22:36:00.358031] [3] RADIO_STATUS
[22:36:00.826247] [60] VFR_HUD
[22:36:01.294247] [61] HEARTBEAT
[22:36:01.302280] [62] ATTITUDE_TARGET
[22:36:01.400272] [4] RADIO
[22:36:01.403234] [4] RADIO_STATUS
[22:36:01.626356] [63] VFR_HUD
[22:36:02.425370] [5] RADIO
[22:36:02.428252] [5] RADIO_STATUS
[22:36:02.545357] [65] VFR_HUD
[22:36:03.574385] [6] RADIO
[22:36:03.577416] [6] RADIO_STATUS
[22:36:04.493515] [7] RADIO
[22:36:04.496613] [7] RADIO_STATUS
[22:36:04.734710] [73] VFR_HUD
[22:36:05.413664] [8] RADIO
[22:36:05.416592] [8] RADIO_STATUS
[22:36:06.219778] [77] HEARTBEAT
[22:36:06.563773] [9] RADIO
[22:36:06.566777] [9] RADIO_STATUS
[22:36:07.152996] [79] HEARTBEAT
[22:36:07.159002] [80] SYS_STATUS
[22:36:07.281856] [81] BATTERY_STATUS
[22:36:07.283804] [82] EXTENDED_SYS_STATE
[22:36:07.315894] [83] ATTITUDE_TARGET
[22:36:07.320875] [84] VFR_HUD
[22:36:07.323867] [85] SYSTEM_TIME
[22:36:07.483894] [10] RADIO
[22:36:07.486889] [10] RADIO_STATUS
[22:36:08.184980] [87] HEARTBEAT
[22:36:08.404092] [11] RADIO
[22:36:08.407041] [11] RADIO_STATUS
[22:36:09.348192] [89] HEARTBEAT
[22:36:09.356127] [90] ATTITUDE_TARGET
[22:36:09.444078] [12] RADIO
[22:36:09.447055] [12] RADIO_STATUS
[22:36:09.564148] [91] VFR_HUD
[22:36:10.473275] [13] RADIO
[22:36:10.476193] [13] RADIO_STATUS
[22:36:11.187290] [94] HEARTBEAT
[22:36:11.193909] [95] SYS_STATUS
[22:36:11.233295] [96] BATTERY_STATUS
[22:36:11.241293] [97] ATTITUDE_TARGET
[22:36:11.246390] [98] VFR_HUD
[22:36:11.625364] [14] RADIO
[22:36:11.628310] [14] RADIO_STATUS
[22:36:12.336422] [99] VFR_HUD
[22:36:12.339466] [100] HEARTBEAT
[22:36:12.544425] [15] RADIO
[22:36:12.547459] [15] RADIO_STATUS
[22:36:12.790687] [101] VFR_HUD
[22:36:13.464569] [16] RADIO
[22:36:13.467512] [16] RADIO_STATUS
[22:36:14.160743] [105] HEARTBEAT
[22:36:14.614808] [17] RADIO
[22:36:14.617719] [17] RADIO_STATUS
[22:36:15.202928] [107] HEARTBEAT
[22:36:15.209803] [108] SYS_STATUS
[22:36:15.328870] [109] BATTERY_STATUS
[22:36:15.441898] [110] ATTITUDE_TARGET
[22:36:15.446771] [111] VFR_HUD
[22:36:15.451861] [18] RADIO
[22:36:15.454894] [18] RADIO_STATUS
[22:36:16.229925] [113] HEARTBEAT
[22:36:16.454022] [19] RADIO
[22:36:16.456945] [19] RADIO_STATUS
[22:36:17.494303] [20] RADIO
[22:36:17.497040] [20] RADIO_STATUS
[22:36:17.614188] [117] VFR_HUD
[22:36:18.524199] [21] RADIO
[22:36:18.527073] [21] RADIO_STATUS
[22:36:19.232346] [120] HEARTBEAT
[22:36:19.238309] [121] SYS_STATUS
[22:36:19.443340] [22] RADIO
[22:36:19.446300] [22] RADIO_STATUS
[22:36:20.024309] [125] VFR_HUD
[22:36:20.593356] [23] RADIO
[22:36:20.596329] [23] RADIO_STATUS
[22:36:20.834410] [127] VFR_HUD
[22:36:21.183526] [128] HEARTBEAT
[22:36:21.191476] [129] ATTITUDE_TARGET
[22:36:21.513533] [24] RADIO
[22:36:21.516415] [24] RADIO_STATUS
[22:36:21.552518] [130] VFR_HUD
[22:36:22.209621] [131] HEARTBEAT
[22:36:22.663650] [25] RADIO
[22:36:22.666524] [25] RADIO_STATUS
[22:36:23.135765] [133] HEARTBEAT
[22:36:23.264633] [134] SYS_STATUS
[22:36:23.272679] [135] BATTERY_STATUS
[22:36:23.381961] [136] ATTITUDE_TARGET
[22:36:23.386749] [137] VFR_HUD
[22:36:23.479650] [26] RADIO
[22:36:23.481628] [26] RADIO_STATUS
[22:36:24.503805] [27] RADIO
[22:36:24.506731] [27] RADIO_STATUS
[22:36:25.544011] [143] VFR_HUD
[22:36:25.571611] [28] RADIO
[22:36:25.574089] [28] RADIO_STATUS
[22:36:26.573077] [29] RADIO
[22:36:26.576438] [29] RADIO_STATUS
[22:36:27.286200] [148] BATTERY_STATUS
[22:36:27.288148] [149] EXTENDED_SYS_STATE
[22:36:27.493150] [30] RADIO
[22:36:27.496102] [30] RADIO_STATUS
[22:36:27.964188] [153] VFR_HUD
[22:36:28.643271] [31] RADIO
[22:36:28.646538] [31] RADIO_STATUS
[22:36:29.233354] [156] HEARTBEAT
[22:36:29.241416] [157] ATTITUDE_TARGET
[22:36:29.563508] [32] RADIO
[22:36:29.566429] [32] RADIO_STATUS
[22:36:29.602388] [158] VFR_HUD
[22:36:30.139421] [159] HEARTBEAT
[22:36:30.374435] [160] VFR_HUD
[22:36:30.483457] [33] RADIO
[22:36:30.486385] [33] RADIO_STATUS
[22:36:31.196560] [161] HEARTBEAT
[22:36:31.203632] [162] SYS_STATUS
[22:36:31.243565] [163] BATTERY_STATUS
[22:36:31.250518] [164] ATTITUDE_TARGET
[22:36:31.255636] [165] VFR_HUD
[22:36:31.528583] [34] RADIO
[22:36:31.531556] [34] RADIO_STATUS
[22:36:32.344688] [166] VFR_HUD
[22:36:32.347665] [167] HEARTBEAT
[22:36:32.553789] [35] RADIO
[22:36:32.555628] [35] RADIO_STATUS
[22:36:33.593884] [171] VFR_HUD
[22:36:33.625865] [36] RADIO
[22:36:33.628867] [36] RADIO_STATUS
[22:36:34.174910] [172] HEARTBEAT
[22:36:34.622938] [37] RADIO
[22:36:34.625912] [37] RADIO_STATUS
[22:36:35.338105] [176] BATTERY_STATUS
[22:36:35.543069] [38] RADIO
[22:36:35.545946] [38] RADIO_STATUS
[22:36:36.014070] [179] VFR_HUD
[22:36:36.693988] [39] RADIO
[22:36:36.696151] [39] RADIO_STATUS
[22:36:37.173461] [182] HEARTBEAT
[22:36:37.181223] [183] ATTITUDE_TARGET
[22:36:37.613450] [40] RADIO
[22:36:37.620874] [40] RADIO_STATUS
[22:36:38.189432] [185] HEARTBEAT
[22:36:38.423407] [186] VFR_HUD
[22:36:38.532405] [41] RADIO
[22:36:38.535367] [41] RADIO_STATUS
[22:36:39.241469] [187] HEARTBEAT
[22:36:39.247619] [188] SYS_STATUS
[22:36:39.366529] [189] BATTERY_STATUS
[22:36:39.374564] [190] ATTITUDE_TARGET
[22:36:39.404476] [191] VFR_HUD
[22:36:39.572480] [42] RADIO
[22:36:39.575436] [42] RADIO_STATUS
[22:36:40.602638] [43] RADIO
[22:36:40.605632] [43] RADIO_STATUS
[22:36:41.643836] [197] VFR_HUD
[22:36:41.752062] [44] RADIO
[22:36:41.754810] [44] RADIO_STATUS
[22:36:42.217926] [198] HEARTBEAT
[22:36:42.671872] [45] RADIO
[22:36:42.675097] [45] RADIO_STATUS
[22:36:43.592047] [46] RADIO
[22:36:43.595213] [46] RADIO_STATUS
[22:36:43.954124] [205] VFR_HUD
[22:36:44.168203] [206] HEARTBEAT
[22:36:44.742040] [47] RADIO
[22:36:44.745894] [47] RADIO_STATUS
[22:36:45.222122] [208] HEARTBEAT
[22:36:45.230154] [209] ATTITUDE_TARGET
[22:36:45.662176] [48] RADIO
[22:36:45.665258] [48] RADIO_STATUS
[22:36:46.133283] [211] HEARTBEAT
[22:36:46.362360] [212] VFR_HUD
[22:36:46.582260] [49] RADIO
[22:36:46.585244] [49] RADIO_STATUS
[22:36:47.294600] [215] BATTERY_STATUS
[22:36:47.296430] [216] EXTENDED_SYS_STATE
[22:36:47.416369] [217] ATTITUDE_TARGET
[22:36:47.420385] [218] VFR_HUD
[22:36:47.424432] [219] SYSTEM_TIME
[22:36:47.622370] [50] RADIO
[22:36:47.625357] [50] RADIO_STATUS
[22:36:47.978441] [220] VFR_HUD
[22:36:48.652460] [51] RADIO
[22:36:48.655469] [51] RADIO_STATUS
[22:36:48.772582] [222] VFR_HUD
[22:36:49.123701] [223] HEARTBEAT
[22:36:49.159575] [224] ATTITUDE_TARGET
[22:36:49.577860] [52] RADIO
[22:36:49.580590] [52] RADIO_STATUS
[22:36:49.610724] [225] VFR_HUD
[22:36:50.722821] [53] RADIO
[22:36:50.724714] [53] RADIO_STATUS
[22:36:51.641908] [54] RADIO
[22:36:51.644896] [54] RADIO_STATUS
[22:36:51.992988] [233] VFR_HUD
[22:36:52.219069] [234] HEARTBEAT
[22:36:52.792046] [55] RADIO
[22:36:52.794984] [55] RADIO_STATUS
[22:36:53.153081] [236] HEARTBEAT
[22:36:53.160014] [237] ATTITUDE_TARGET
[22:36:53.713277] [56] RADIO
[22:36:53.715184] [56] RADIO_STATUS
[22:36:54.184204] [239] HEARTBEAT
[22:36:54.413974] [240] VFR_HUD
[22:36:54.632155] [57] RADIO
[22:36:54.635127] [57] RADIO_STATUS
[22:36:55.347299] [243] BATTERY_STATUS
[22:36:55.459392] [244] ATTITUDE_TARGET
[22:36:55.464304] [245] VFR_HUD
[22:36:55.677285] [58] RADIO
[22:36:55.680224] [58] RADIO_STATUS
[22:36:56.023314] [246] VFR_HUD
[22:36:56.702384] [59] RADIO
[22:36:56.705338] [59] RADIO_STATUS
[22:36:56.823358] [248] VFR_HUD
[22:36:57.209522] [249] HEARTBEAT
[22:36:57.217409] [250] ATTITUDE_TARGET
[22:36:57.622515] [60] RADIO
[22:36:57.625455] [60] RADIO_STATUS
[22:36:57.742431] [251] VFR_HUD
[22:36:58.771563] [61] RADIO
[22:36:58.774566] [61] RADIO_STATUS
[22:36:59.691816] [62] RADIO
[22:36:59.694671] [62] RADIO_STATUS
[22:36:59.932798] [3] VFR_HUD
[22:37:00.157896] [4] HEARTBEAT
[22:37:00.841887] [63] RADIO
[22:37:00.844820] [63] RADIO_STATUS
[22:37:01.201940] [6] HEARTBEAT
[22:37:01.209975] [7] ATTITUDE_TARGET
[22:37:01.761938] [64] RADIO
[22:37:01.765008] [64] RADIO_STATUS
[22:37:02.228037] [9] HEARTBEAT
[22:37:02.353977] [10] VFR_HUD
[22:37:02.682037] [65] RADIO
[22:37:02.685072] [65] RADIO_STATUS
[22:37:03.722158] [66] RADIO
[22:37:03.725170] [66] RADIO_STATUS
[22:37:04.642266] [67] RADIO
[22:37:04.645269] [67] RADIO_STATUS
[22:37:04.763323] [18] VFR_HUD
[22:37:05.232274] [19] HEARTBEAT
[22:37:05.241882] [20] ATTITUDE_TARGET
[22:37:05.672273] [68] RADIO
[22:37:05.675272] [68] RADIO_STATUS
[22:37:06.378733] [23] VFR_HUD
[22:37:06.822456] [69] RADIO
[22:37:06.825407] [69] RADIO_STATUS
[22:37:07.180440] [24] HEARTBEAT
[22:37:07.186500] [25] SYS_STATUS
[22:37:07.741469] [70] RADIO
[22:37:07.744498] [70] RADIO_STATUS
[22:37:07.987514] [31] VFR_HUD
[22:37:08.217533] [32] HEARTBEAT
[22:37:08.661570] [71] RADIO
[22:37:08.664659] [71] RADIO_STATUS
[22:37:09.133769] [34] HEARTBEAT
