[22:52:36.313220] [45] VFR_HUD
[22:52:36.544193] [46] HEARTBEAT
[22:52:36.652064] [39] RADIO
[22:52:36.655048] [39] RADIO_STATUS
[22:52:37.113208] [47] VFR_HUD
[22:52:37.477244] [48] HEARTBEAT
[22:52:37.484240] [49] ATTITUDE_TARGET
[22:52:37.681245] [40] RADIO
[22:52:37.684216] [40] RADIO_STATUS
[22:52:37.927307] [50] VFR_HUD
[22:52:38.487403] [51] HEARTBEAT
[22:52:38.721934] [52] VFR_HUD
[22:52:38.748392] [41] RADIO
[22:52:38.751369] [41] RADIO_STATUS
[22:52:39.543568] [53] HEARTBEAT
[22:52:39.550540] [54] SYS_STATUS
[22:52:39.590702] [55] BATTERY_STATUS
[22:52:39.597615] [56] ATTITUDE_TARGET
[22:52:39.602518] [57] VFR_HUD
[22:52:39.643575] [42] RADIO
[22:52:39.646558] [42] RADIO_STATUS
[22:52:40.460114] [58] VFR_HUD
[22:52:40.460287] [59] HEARTBEAT
[22:52:40.669777] [43] RADIO
[22:52:40.672710] [43] RADIO_STATUS
[22:52:41.145783] [60] VFR_HUD
[22:52:41.489858] [61] HEARTBEAT
[22:52:41.497895] [62] ATTITUDE_TARGET
[22:52:41.710029] [44] RADIO
[22:52:41.711991] [44] RADIO_STATUS
[22:52:41.939956] [63] VFR_HUD
[22:52:42.521150] [64] HEARTBEAT
[22:52:42.739028] [45] RADIO
[22:52:42.741988] [45] RADIO_STATUS
[22:52:42.860113] [65] VFR_HUD
[22:52:43.557257] [66] HEARTBEAT
[22:52:43.564250] [67] SYS_STATUS
[22:52:43.659298] [46] RADIO
[22:52:43.662212] [46] RADIO_STATUS
[22:52:43.728249] [68] BATTERY_STATUS
[22:52:43.736352] [69] ATTITUDE_TARGET
[22:52:43.741373] [70] VFR_HUD
[22:52:44.475454] [71] VFR_HUD
[22:52:44.478337] [72] HEARTBEAT
[22:52:44.698348] [47] RADIO
[22:52:44.701325] [47] RADIO_STATUS
[22:52:45.159443] [73] VFR_HUD
[22:52:45.517651] [74] HEARTBEAT
[22:52:45.525614] [75] ATTITUDE_TARGET
[22:52:45.728576] [48] RADIO
[22:52:45.730472] [48] RADIO_STATUS
[22:52:45.848592] [76] VFR_HUD
[22:52:46.533790] [77] HEARTBEAT
[22:52:46.663830] [78] VFR_HUD
[22:52:46.778731] [49] RADIO
[22:52:46.781837] [49] RADIO_STATUS
[22:52:47.465933] [79] HEARTBEAT
[22:52:47.473259] [80] SYS_STATUS
[22:52:47.586808] [81] BATTERY_STATUS
[22:52:47.704850] [82] ATTITUDE_TARGET
[22:52:47.709839] [83] VFR_HUD
[22:52:47.714894] [50] RADIO
[22:52:47.717784] [50] RADIO_STATUS
[22:52:48.272933] [84] VFR_HUD
[22:52:48.493312] [85] HEARTBEAT
[22:52:48.717063] [51] RADIO
[22:52:48.719922] [51] RADIO_STATUS
[22:52:49.067053] [86] VFR_HUD
[22:52:49.536063] [87] HEARTBEAT
[22:52:49.544180] [88] ATTITUDE_TARGET
[22:52:49.756153] [52] RADIO
[22:52:49.759086] [52] RADIO_STATUS
[22:52:49.882111] [89] VFR_HUD
[22:52:50.442213] [90] HEARTBEAT
[22:52:50.676425] [91] VFR_HUD
[22:52:50.709348] [53] RADIO
[22:52:50.712230] [53] RADIO_STATUS
[22:52:51.493507] [92] HEARTBEAT
[22:52:51.500386] [93] SYS_STATUS
[22:52:51.622412] [94] BATTERY_STATUS
[22:52:51.624368] [95] EXTENDED_SYS_STATE
[22:52:51.631371] [96] ATTITUDE_TARGET
[22:52:51.636371] [97] VFR_HUD
[22:52:51.640480] [98] SYSTEM_TIME
[22:52:51.705434] [54] RADIO
[22:52:51.708390] [54] RADIO_STATUS
[22:52:52.286660] [99] VFR_HUD
[22:52:52.511768] [100] HEARTBEAT
[22:52:52.750619] [55] RADIO
[22:52:52.753610] [55] RADIO_STATUS
[22:52:53.095722] [101] VFR_HUD
[22:52:53.564816] [102] HEARTBEAT
[22:52:53.572887] [103] ATTITUDE_TARGET
[22:52:53.774837] [56] RADIO
[22:52:53.777851] [56] RADIO_STATUS
[22:52:53.895777] [104] VFR_HUD
[22:52:54.475957] [105] HEARTBEAT
[22:52:54.704961] [106] VFR_HUD
[22:52:54.819930] [57] RADIO
[22:52:54.822929] [57] RADIO_STATUS
[22:52:55.512052] [107] HEARTBEAT
[22:52:55.519065] [108] SYS_STATUS
[22:52:55.634081] [109] BATTERY_STATUS
[22:52:55.751079] [110] ATTITUDE_TARGET
[22:52:55.756088] [111] VFR_HUD
[22:52:55.790103] [58] RADIO
[22:52:55.793094] [58] RADIO_STATUS
[22:52:56.319186] [112] VFR_HUD
[22:52:56.540234] [113] HEARTBEAT
[22:52:56.763335] [59] RADIO
[22:52:56.766285] [59] RADIO_STATUS
[22:52:57.114295] [114] VFR_HUD
[22:52:57.478463] [115] HEARTBEAT
[22:52:57.486493] [116] ATTITUDE_TARGET
[22:52:57.808447] [60] RADIO
[22:52:57.811495] [60] RADIO_STATUS
[22:52:57.928418] [117] VFR_HUD
[22:52:58.488613] [118] HEARTBEAT
[22:52:58.723636] [119] VFR_HUD
[22:52:58.755547] [61] RADIO
[22:52:58.758533] [61] RADIO_STATUS
[22:52:59.545843] [120] HEARTBEAT
[22:52:59.552864] [121] SYS_STATUS
[22:52:59.591745] [122] BATTERY_STATUS
[22:52:59.599844] [123] ATTITUDE_TARGET
[22:52:59.604668] [124] VFR_HUD
[22:52:59.751849] [62] RADIO
[22:52:59.756317] [62] RADIO_STATUS
[22:53:00.462826] [125] VFR_HUD
[22:53:00.465908] [126] HEARTBEAT
[22:53:00.796863] [63] RADIO
[22:53:00.799860] [63] RADIO_STATUS
[22:53:01.141905] [127] VFR_HUD
[22:53:01.490964] [128] HEARTBEAT
[22:53:01.498971] [129] ATTITUDE_TARGET
[22:53:01.821028] [64] RADIO
[22:53:01.823996] [64] RADIO_STATUS
[22:53:01.941995] [130] VFR_HUD
[22:53:02.522136] [131] HEARTBEAT
[22:53:02.751128] [132] VFR_HUD
[22:53:02.866167] [65] RADIO
[22:53:02.869111] [65] RADIO_STATUS
[22:53:03.437196] [133] HEARTBEAT
[22:53:03.456226] [134] SYS_STATUS
[22:53:03.500246] [135] BATTERY_STATUS
[22:53:03.508193] [136] ATTITUDE_TARGET
[22:53:03.512224] [137] VFR_HUD
[22:53:03.890266] [66] RADIO
[22:53:03.893331] [66] RADIO_STATUS
[22:53:04.476500] [138] VFR_HUD
[22:53:04.479460] [139] HEARTBEAT
[22:53:04.809461] [67] RADIO
[22:53:04.812394] [67] RADIO_STATUS
[22:53:05.055524] [140] VFR_HUD
[22:53:05.524607] [141] HEARTBEAT
[22:53:05.532562] [142] ATTITUDE_TARGET
[22:53:05.854627] [143] VFR_HUD
[22:53:05.881604] [68] RADIO
[22:53:05.884602] [68] RADIO_STATUS
[22:53:06.534725] [144] HEARTBEAT
[22:53:06.664716] [145] VFR_HUD
[22:53:06.779707] [69] RADIO
[22:53:06.782729] [69] RADIO_STATUS
[22:53:07.466862] [146] HEARTBEAT
[22:53:07.472891] [147] SYS_STATUS
[22:53:07.593030] [148] BATTERY_STATUS
[22:53:07.704868] [149] ATTITUDE_TARGET
[22:53:07.709899] [150] VFR_HUD
[22:53:07.797884] [70] RADIO
[22:53:07.800839] [70] RADIO_STATUS
[22:53:08.273975] [151] VFR_HUD
[22:53:08.493977] [152] HEARTBEAT
[22:53:08.837070] [71] RADIO
[22:53:08.840027] [71] RADIO_STATUS
[22:53:09.068110] [153] VFR_HUD
[22:53:09.766286] [154] HEARTBEAT
[22:53:09.774464] [155] ATTITUDE_TARGET
[22:53:09.867207] [72] RADIO
[22:53:09.870225] [72] RADIO_STATUS
[22:53:09.987280] [156] VFR_HUD
[22:53:10.443360] [157] HEARTBEAT
[22:53:10.786322] [73] RADIO
[22:53:10.789368] [73] RADIO_STATUS
[22:53:11.494479] [159] HEARTBEAT
[22:53:11.501502] [160] SYS_STATUS
[22:53:11.622498] [161] BATTERY_STATUS
[22:53:11.624450] [162] EXTENDED_SYS_STATE
[22:53:11.632538] [163] ATTITUDE_TARGET
[22:53:11.637466] [164] VFR_HUD
[22:53:11.640473] [165] SYSTEM_TIME
[22:53:11.935514] [74] RADIO
[22:53:11.938470] [74] RADIO_STATUS
[22:53:12.286537] [166] VFR_HUD
[22:53:12.511597] [167] HEARTBEAT
[22:53:12.855729] [75] RADIO
[22:53:12.858691] [75] RADIO_STATUS
[22:53:13.095719] [168] VFR_HUD
[22:53:13.564757] [169] HEARTBEAT
[22:53:13.572746] [170] ATTITUDE_TARGET
[22:53:13.895966] [171] VFR_HUD
[22:53:13.922787] [76] RADIO
[22:53:13.925795] [76] RADIO_STATUS
[22:53:14.470903] [172] HEARTBEAT
[22:53:14.710919] [173] VFR_HUD
[22:53:14.825978] [77] RADIO
[22:53:14.829225] [77] RADIO_STATUS
[22:53:15.512213] [174] HEARTBEAT
[22:53:15.519072] [175] SYS_STATUS
[22:53:15.634105] [176] BATTERY_STATUS
[22:53:15.751101] [177] ATTITUDE_TARGET
[22:53:15.756075] [178] VFR_HUD
[22:53:15.844121] [78] RADIO
[22:53:15.847083] [78] RADIO_STATUS
[22:53:16.320264] [179] VFR_HUD
[22:53:16.540410] [180] HEARTBEAT
[22:53:16.883387] [79] RADIO
[22:53:16.886240] [79] RADIO_STATUS
[22:53:17.114485] [181] VFR_HUD
[22:53:17.478365] [182] HEARTBEAT
[22:53:17.486359] [183] ATTITUDE_TARGET
[22:53:17.808502] [80] RADIO
[22:53:17.811387] [80] RADIO_STATUS
[22:53:17.929920] [184] VFR_HUD
[22:53:18.489575] [185] HEARTBEAT
[22:53:18.832588] [81] RADIO
[22:53:18.835591] [81] RADIO_STATUS
[22:53:19.540778] [187] HEARTBEAT
[22:53:19.547732] [188] SYS_STATUS
[22:53:19.665720] [189] BATTERY_STATUS
[22:53:19.673794] [190] ATTITUDE_TARGET
[22:53:19.703729] [191] VFR_HUD
[22:53:19.981812] [82] RADIO
[22:53:19.984755] [82] RADIO_STATUS
[22:53:20.332974] [192] VFR_HUD
[22:53:20.453875] [193] HEARTBEAT
[22:53:20.708434] JAMMING_START
[22:53:20.902041] [83] RADIO
[22:53:20.905556] [83] RADIO_STATUS
[22:53:21.142019] [194] VFR_HUD
[22:53:21.492068] [195] HEARTBEAT
[22:53:21.499065] [196] ATTITUDE_TARGET
[22:53:21.821136] [84] RADIO
[22:53:21.824085] [84] RADIO_STATUS
[22:53:21.860085] [197] VFR_HUD
[22:53:22.525525] [198] HEARTBEAT
[22:53:22.751266] [199] VFR_HUD
[22:53:22.866227] [85] RADIO
[22:53:22.869196] [85] RADIO_STATUS
[22:53:23.454333] [200] HEARTBEAT
[22:53:23.460608] [201] SYS_STATUS
[22:53:23.500294] [202] BATTERY_STATUS
[22:53:23.508292] [203] ATTITUDE_TARGET
[22:53:23.512530] [204] VFR_HUD
[22:53:23.890360] [86] RADIO
[22:53:23.893313] [86] RADIO_STATUS
[22:53:24.246426] [205] VFR_HUD
[22:53:24.935505] [87] RADIO
[22:53:24.938522] [87] RADIO_STATUS
[22:53:25.055556] [207] VFR_HUD
[22:53:25.524682] [208] HEARTBEAT
[22:53:25.532738] [209] ATTITUDE_TARGET
[22:53:25.849788] [210] VFR_HUD
[22:53:25.882727] [88] RADIO
[22:53:25.884666] [88] RADIO_STATUS
[22:53:26.535818] [211] HEARTBEAT
[22:53:26.664810] [212] VFR_HUD
[22:53:26.878870] [89] RADIO
[22:53:26.881850] [89] RADIO_STATUS
[22:53:27.466942] [213] HEARTBEAT
[22:53:27.473916] [214] SYS_STATUS
[22:53:27.592983] [215] BATTERY_STATUS
[22:53:27.704981] [216] ATTITUDE_TARGET
[22:53:27.709967] [217] VFR_HUD
[22:53:28.027988] [90] RADIO
[22:53:28.030960] [90] RADIO_STATUS
[22:53:28.268037] [218] VFR_HUD
[22:53:28.499116] [219] HEARTBEAT
[22:53:28.947285] [91] RADIO
[22:53:28.950190] [91] RADIO_STATUS
[22:53:29.537274] [221] HEARTBEAT
[22:53:29.545262] [222] ATTITUDE_TARGET
[22:53:29.867308] [92] RADIO
[22:53:29.870412] [92] RADIO_STATUS
[22:53:29.987487] [223] VFR_HUD
[22:53:30.443394] [224] HEARTBEAT
[22:53:30.677394] [225] VFR_HUD
[22:53:30.911474] [93] RADIO
[22:53:30.914609] [93] RADIO_STATUS
[22:53:31.494732] [226] HEARTBEAT
[22:53:31.500584] [227] SYS_STATUS
[22:53:31.622605] [228] BATTERY_STATUS
[22:53:31.624523] [229] EXTENDED_SYS_STATE
[22:53:31.632572] [230] ATTITUDE_TARGET
[22:53:31.636506] [231] VFR_HUD
[22:53:31.640560] [232] SYSTEM_TIME
[22:53:31.935611] [94] RADIO
[22:53:31.938596] [94] RADIO_STATUS
[22:53:32.285737] [233] VFR_HUD
[22:53:33.084869] [95] RADIO
[22:53:33.087845] [95] RADIO_STATUS
[22:53:33.123815] [235] VFR_HUD
[22:53:33.564901] [236] HEARTBEAT
[22:53:33.572992] [237] ATTITUDE_TARGET
[22:53:33.895960] [238] VFR_HUD
[22:53:33.922967] [96] RADIO
[22:53:33.924936] [96] RADIO_STATUS
[22:53:34.471038] [239] HEARTBEAT
[22:53:34.710087] [240] VFR_HUD
[22:53:34.924178] [97] RADIO
[22:53:34.927095] [97] RADIO_STATUS
[22:53:35.512258] [241] HEARTBEAT
[22:53:35.519246] [242] SYS_STATUS
[22:53:35.633195] [243] BATTERY_STATUS
[22:53:35.751223] [244] ATTITUDE_TARGET
[22:53:35.756224] [245] VFR_HUD
[22:53:36.073311] [98] RADIO
[22:53:36.076222] [98] RADIO_STATUS
[22:53:36.319343] [246] VFR_HUD
[22:53:36.539366] [247] HEARTBEAT
[22:53:36.992434] [99] RADIO
[22:53:36.995417] [99] RADIO_STATUS
[22:53:37.472540] [249] HEARTBEAT
[22:53:37.480487] [250] ATTITUDE_TARGET
[22:53:37.912581] [100] RADIO
[22:53:37.915542] [100] RADIO_STATUS
[22:53:38.032612] [251] VFR_HUD
[22:53:38.487820] [252] HEARTBEAT
[22:53:38.722863] [253] VFR_HUD
[22:53:38.951765] [101] RADIO
[22:53:38.954711] [101] RADIO_STATUS
[22:53:39.539898] [254] HEARTBEAT
[22:53:39.545869] [255] SYS_STATUS
[22:53:39.664902] [0] BATTERY_STATUS
[22:53:39.672964] [1] ATTITUDE_TARGET
[22:53:39.704917] [2] VFR_HUD
[22:53:39.980974] [102] RADIO
[22:53:39.983960] [102] RADIO_STATUS
[22:53:40.332023] [3] VFR_HUD
[22:53:40.452133] [4] HEARTBEAT
[22:53:40.906196] [103] RADIO
[22:53:40.909121] [103] RADIO_STATUS
[22:53:41.141140] [5] VFR_HUD
[22:53:41.490231] [6] HEARTBEAT
[22:53:41.498255] [7] ATTITUDE_TARGET
[22:53:41.940342] [8] VFR_HUD
[22:53:41.969397] [104] RADIO
[22:53:41.970271] [104] RADIO_STATUS
[22:53:42.516460] [9] HEARTBEAT
[22:53:42.750387] [10] VFR_HUD
[22:53:42.969805] [105] RADIO
[22:53:42.972404] [105] RADIO_STATUS
[22:53:43.452486] [11] HEARTBEAT
[22:53:43.459468] [12] SYS_STATUS
[22:53:43.499566] [13] BATTERY_STATUS
[22:53:43.506554] [14] ATTITUDE_TARGET
[22:53:43.511484] [15] VFR_HUD
[22:53:44.118563] [106] RADIO
[22:53:44.121529] [106] RADIO_STATUS
[22:53:44.474827] [16] VFR_HUD
[22:53:44.477661] [17] HEARTBEAT
[22:53:45.037724] [107] RADIO
[22:53:45.040688] [107] RADIO_STATUS
[22:53:45.076712] [18] VFR_HUD
[22:53:45.522783] [19] HEARTBEAT
[22:53:45.530803] [20] ATTITUDE_TARGET
[22:53:45.848886] [21] VFR_HUD
[22:53:45.957879] [108] RADIO
[22:53:45.960874] [108] RADIO_STATUS
[22:53:46.537249] [22] HEARTBEAT
[22:53:46.657922] [23] VFR_HUD
[22:53:46.997032] [109] RADIO
[22:53:46.999936] [109] RADIO_STATUS
[22:53:47.591130] [26] BATTERY_STATUS
[22:53:47.704129] [27] ATTITUDE_TARGET
[22:53:47.709066] [28] VFR_HUD
[22:53:48.026202] [110] RADIO
[22:53:48.029105] [110] RADIO_STATUS
[22:53:48.267138] [29] VFR_HUD
[22:53:48.497214] [30] HEARTBEAT
[22:53:48.945265] [111] RADIO
[22:53:48.948214] [111] RADIO_STATUS
[22:53:49.077308] [31] VFR_HUD
[22:53:49.535377] [32] HEARTBEAT
[22:53:49.543360] [33] ATTITUDE_TARGET
[22:53:49.876464] [34] VFR_HUD
[22:53:49.990465] [112] RADIO
[22:53:49.993492] [112] RADIO_STATUS
[22:53:50.441558] [35] HEARTBEAT
[22:53:50.675505] [36] VFR_HUD
[22:53:51.014596] [113] RADIO
[22:53:51.017865] [113] RADIO_STATUS
[22:53:51.497772] [37] HEARTBEAT
[22:53:51.504643] [38] SYS_STATUS
[22:53:51.538647] [39] BATTERY_STATUS
[22:53:51.540667] [40] EXTENDED_SYS_STATE
[22:53:51.548805] [41] ATTITUDE_TARGET
[22:53:51.553667] [42] VFR_HUD
[22:53:51.556644] [43] SYSTEM_TIME
[22:53:52.164733] [114] RADIO
[22:53:52.169791] [114] RADIO_STATUS
[22:53:52.284860] [44] VFR_HUD
[22:53:52.510816] [45] HEARTBEAT
[22:53:52.979881] [115] RADIO
[22:53:52.982810] [115] RADIO_STATUS
[22:53:53.099854] [46] VFR_HUD
[22:53:53.434975] [47] HEARTBEAT
[22:53:53.567909] [48] ATTITUDE_TARGET
[22:53:53.893967] [49] VFR_HUD
[22:53:54.002971] [116] RADIO
[22:53:54.005996] [116] RADIO_STATUS
[22:53:54.469096] [50] HEARTBEAT
[22:53:54.709115] [51] VFR_HUD
[22:53:55.048180] [117] RADIO
[22:53:55.051094] [117] RADIO_STATUS
[22:53:55.637321] [54] BATTERY_STATUS
[22:53:55.750279] [55] ATTITUDE_TARGET
[22:53:55.755259] [56] VFR_HUD
[22:53:56.072338] [118] RADIO
[22:53:56.075327] [118] RADIO_STATUS
[22:53:56.313420] [57] VFR_HUD
[22:53:56.538441] [58] HEARTBEAT
[22:53:56.992523] [119] RADIO
[22:53:56.995462] [119] RADIO_STATUS
[22:53:57.113725] [59] VFR_HUD
[22:53:57.471622] [60] HEARTBEAT
[22:53:57.479631] [61] ATTITUDE_TARGET
[22:53:57.922737] [62] VFR_HUD
[22:53:58.036748] [120] RADIO
[22:53:58.039709] [120] RADIO_STATUS
[22:53:58.487774] [63] HEARTBEAT
[22:53:58.721809] [64] VFR_HUD
[22:53:59.060868] [121] RADIO
[22:53:59.063881] [121] RADIO_STATUS
[22:53:59.539090] [65] HEARTBEAT
[22:53:59.545985] [66] SYS_STATUS
[22:53:59.664013] [67] BATTERY_STATUS
[22:53:59.672232] [68] ATTITUDE_TARGET
[22:53:59.705749] [69] VFR_HUD
[22:54:00.210117] [122] RADIO
[22:54:00.213063] [122] RADIO_STATUS
[22:54:00.249161] [70] VFR_HUD
[22:54:00.446102] [71] HEARTBEAT
[22:54:01.020401] [123] RADIO
[22:54:01.023243] [123] RADIO_STATUS
[22:54:01.140200] [72] VFR_HUD
[22:54:01.489399] [73] HEARTBEAT
[22:54:01.497519] [74] ATTITUDE_TARGET
[22:54:01.940330] [75] VFR_HUD
[22:54:02.049350] [124] RADIO
[22:54:02.052536] [124] RADIO_STATUS
[22:54:02.515383] [76] HEARTBEAT
[22:54:02.754442] [77] VFR_HUD
[22:54:03.088524] [125] RADIO
[22:54:03.091478] [125] RADIO_STATUS
[22:54:03.451602] [78] HEARTBEAT
[22:54:03.458596] [79] SYS_STATUS
[22:54:03.497543] [80] BATTERY_STATUS
[22:54:03.505610] [81] ATTITUDE_TARGET
[22:54:03.510530] [82] VFR_HUD
[22:54:04.119748] [126] RADIO
[22:54:04.122704] [126] RADIO_STATUS
[22:54:04.475759] [83] VFR_HUD
[22:54:04.479024] [84] HEARTBEAT
[22:54:05.038969] [127] RADIO
[22:54:05.041875] [127] RADIO_STATUS
[22:54:05.159769] [85] VFR_HUD
[22:54:05.518819] [86] HEARTBEAT
[22:54:05.526820] [87] ATTITUDE_TARGET
[22:54:06.077941] [128] RADIO
[22:54:06.081529] [128] RADIO_STATUS
[22:54:06.535052] [89] HEARTBEAT
[22:54:06.658958] [90] VFR_HUD
[22:54:07.108066] [129] RADIO
[22:54:07.111019] [129] RADIO_STATUS
[22:54:07.466063] [91] HEARTBEAT
[22:54:07.473125] [92] SYS_STATUS
[22:54:07.587219] [93] BATTERY_STATUS
[22:54:07.705138] [94] ATTITUDE_TARGET
[22:54:07.710114] [95] VFR_HUD
[22:54:08.257456] [130] RADIO
[22:54:08.260215] [130] RADIO_STATUS
[22:54:08.377248] [96] VFR_HUD
[22:54:08.498236] [97] HEARTBEAT
[22:54:09.067341] [98] VFR_HUD
[22:54:09.094319] [131] RADIO
[22:54:09.097599] [131] RADIO_STATUS
[22:54:09.536409] [99] HEARTBEAT
[22:54:09.543368] [100] ATTITUDE_TARGET
[22:54:09.881482] [101] VFR_HUD
[22:54:10.095474] [132] RADIO
[22:54:10.098542] [132] RADIO_STATUS
[22:54:10.675633] [103] VFR_HUD
[22:54:11.134578] [133] RADIO
[22:54:11.137612] [133] RADIO_STATUS
[22:54:11.497764] [104] HEARTBEAT
[22:54:11.504920] [105] SYS_STATUS
[22:54:11.538808] [106] BATTERY_STATUS
[22:54:11.540777] [107] EXTENDED_SYS_STATE
[22:54:11.548855] [108] ATTITUDE_TARGET
[22:54:11.553684] [109] VFR_HUD
[22:54:11.556676] [110] SYSTEM_TIME
[22:54:12.163779] [134] RADIO
[22:54:12.166787] [134] RADIO_STATUS
[22:54:12.284845] [111] VFR_HUD
[22:54:12.509966] [112] HEARTBEAT
[22:54:13.084036] [135] RADIO
[22:54:13.086917] [135] RADIO_STATUS
[22:54:13.121997] [113] VFR_HUD
[22:54:13.430054] [114] HEARTBEAT
[22:54:13.568062] [115] ATTITUDE_TARGET
[22:54:14.123186] [136] RADIO
[22:54:14.126120] [136] RADIO_STATUS
[22:54:14.474268] [117] HEARTBEAT
[22:54:14.703434] [118] VFR_HUD
[22:54:15.152371] [137] RADIO
[22:54:15.155290] [137] RADIO_STATUS
[22:54:15.511396] [119] HEARTBEAT
[22:54:15.517414] [120] SYS_STATUS
[22:54:15.637416] [121] BATTERY_STATUS
[22:54:15.750419] [122] ATTITUDE_TARGET
[22:54:15.754432] [123] VFR_HUD
[22:54:16.077521] [138] RADIO
[22:54:16.080455] [138] RADIO_STATUS
[22:54:16.312710] [124] VFR_HUD
[22:54:16.543567] [125] HEARTBEAT
[22:54:17.112655] [126] VFR_HUD
[22:54:17.144639] [139] RADIO
[22:54:17.147603] [139] RADIO_STATUS
[22:54:17.471770] [127] HEARTBEAT
[22:54:17.479742] [128] ATTITUDE_TARGET
[22:54:17.921760] [129] VFR_HUD
[22:54:18.140802] [140] RADIO
[22:54:18.144249] [140] RADIO_STATUS
[22:54:18.721928] [131] VFR_HUD
[22:54:19.185941] [141] RADIO
[22:54:19.188980] [141] RADIO_STATUS
[22:54:19.539115] [132] HEARTBEAT
[22:54:19.546137] [133] SYS_STATUS
[22:54:20.106267] [142] RADIO
[22:54:20.109064] [142] RADIO_STATUS
[22:54:20.331127] [137] VFR_HUD
[22:54:20.446127] [138] HEARTBEAT
[22:54:21.130205] [143] RADIO
[22:54:21.133226] [143] RADIO_STATUS
[22:54:21.168239] [139] VFR_HUD
[22:54:21.490423] [140] HEARTBEAT
[22:54:21.497281] [141] ATTITUDE_TARGET
[22:54:22.174419] [144] RADIO
[22:54:22.177366] [144] RADIO_STATUS
[22:54:22.515495] [143] HEARTBEAT
[22:54:22.859523] [144] VFR_HUD
[22:54:23.198614] [145] RADIO
[22:54:23.201491] [145] RADIO_STATUS
[22:54:23.683667] [147] BATTERY_STATUS
[22:54:23.795669] [148] ATTITUDE_TARGET
[22:54:23.800660] [149] VFR_HUD
[22:54:24.117729] [146] RADIO
[22:54:24.120864] [146] RADIO_STATUS
[22:54:24.463846] [151] HEARTBEAT
[22:54:25.047967] [152] VFR_HUD
[22:54:25.165411] [147] RADIO
[22:54:25.165894] [147] RADIO_STATUS
[22:54:25.516974] [153] HEARTBEAT
[22:54:25.524953] [154] ATTITUDE_TARGET
[22:54:25.848014] [155] VFR_HUD
[22:54:26.187014] [148] RADIO
[22:54:26.189991] [148] RADIO_STATUS
[22:54:26.657172] [157] VFR_HUD
[22:54:27.231446] [149] RADIO
[22:54:27.234221] [149] RADIO_STATUS
[22:54:27.464340] [158] HEARTBEAT
[22:54:27.471320] [159] SYS_STATUS
[22:54:27.585373] [160] BATTERY_STATUS
[22:54:28.145448] [150] RADIO
[22:54:28.148437] [150] RADIO_STATUS
[22:54:28.271468] [163] VFR_HUD
[22:54:28.491694] [164] HEARTBEAT
[22:54:29.065568] [165] VFR_HUD
[22:54:29.174717] [151] RADIO
[22:54:29.177571] [151] RADIO_STATUS
[22:54:29.534639] [166] HEARTBEAT
[22:54:29.542623] [167] ATTITUDE_TARGET
[22:54:29.880786] [168] VFR_HUD
[22:54:30.214755] [152] RADIO
[22:54:30.219307] [152] RADIO_STATUS
[22:54:30.440827] [169] HEARTBEAT
[22:54:30.674832] [170] VFR_HUD
[22:54:31.243859] [153] RADIO
[22:54:31.246844] [153] RADIO_STATUS
[22:54:31.496905] [171] HEARTBEAT
[22:54:31.503962] [172] SYS_STATUS
[22:54:31.538065] [173] BATTERY_STATUS
[22:54:31.539978] [174] EXTENDED_SYS_STATE
[22:54:31.547028] [175] ATTITUDE_TARGET
[22:54:31.552153] [176] VFR_HUD
[22:54:31.556092] [177] SYSTEM_TIME
[22:54:32.163051] [154] RADIO
[22:54:32.165990] [154] RADIO_STATUS
[22:54:32.509123] [179] HEARTBEAT
[22:54:33.093153] [180] VFR_HUD
[22:54:33.202140] [155] RADIO
[22:54:33.205092] [155] RADIO_STATUS
[22:54:33.567189] [181] HEARTBEAT
[22:54:33.575173] [182] ATTITUDE_TARGET
[22:54:33.893216] [183] VFR_HUD
[22:54:34.231650] [156] RADIO
[22:54:34.234240] [156] RADIO_STATUS
[22:54:34.473311] [184] HEARTBEAT
[22:54:34.702336] [185] VFR_HUD
[22:54:35.271451] [157] RADIO
[22:54:35.274422] [157] RADIO_STATUS
[22:54:35.509555] [186] HEARTBEAT
[22:54:35.516459] [187] SYS_STATUS
[22:54:35.636441] [188] BATTERY_STATUS
[22:54:35.867521] [189] ATTITUDE_TARGET
[22:54:35.872543] [190] VFR_HUD
[22:54:36.190609] [158] RADIO
[22:54:36.193708] [158] RADIO_STATUS
[22:54:36.311561] [191] VFR_HUD
[22:54:36.542638] [192] HEARTBEAT
[22:54:37.110645] [193] VFR_HUD
[22:54:37.219672] [159] RADIO
[22:54:37.222768] [159] RADIO_STATUS
[22:54:37.477532] [194] HEARTBEAT
[22:54:37.482743] [195] ATTITUDE_TARGET
[22:54:37.919787] [196] VFR_HUD
[22:54:38.258765] [160] RADIO
[22:54:38.261723] [160] RADIO_STATUS
[22:54:38.484800] [197] HEARTBEAT
[22:54:38.719859] [198] VFR_HUD
[22:54:39.289084] [161] RADIO
[22:54:39.291972] [161] RADIO_STATUS
[22:54:39.542350] [199] HEARTBEAT
[22:54:39.549036] [200] SYS_STATUS
[22:54:39.588020] [201] BATTERY_STATUS
[22:54:39.596044] [202] ATTITUDE_TARGET
[22:54:39.600986] [203] VFR_HUD
[22:54:40.208157] [162] RADIO
[22:54:40.211034] [162] RADIO_STATUS
[22:54:40.282083] [204] VFR_HUD
[22:54:40.444167] [205] HEARTBEAT
[22:54:41.144492] [206] VFR_HUD
[22:54:41.259421] [163] RADIO
[22:54:41.262299] [163] RADIO_STATUS
[22:54:41.612352] [207] HEARTBEAT
[22:54:41.619314] [208] ATTITUDE_TARGET
[22:54:41.949356] [209] VFR_HUD
[22:54:42.281959] [164] RADIO
[22:54:42.282098] [164] RADIO_STATUS
[22:54:42.513488] [210] HEARTBEAT
[22:54:42.752508] [211] VFR_HUD
[22:54:43.196552] [165] RADIO
[22:54:43.199572] [165] RADIO_STATUS
[22:54:43.554755] [212] HEARTBEAT
[22:54:43.561634] [213] SYS_STATUS
[22:54:43.681639] [214] BATTERY_STATUS
[22:54:43.912802] [215] ATTITUDE_TARGET
[22:54:43.917635] [216] VFR_HUD
[22:54:44.240778] [166] RADIO
[22:54:44.243734] [166] RADIO_STATUS
[22:54:44.356757] [217] VFR_HUD
[22:54:44.461775] [218] HEARTBEAT
[22:54:45.045848] [219] VFR_HUD
[22:54:45.265899] [167] RADIO
[22:54:45.267857] [167] RADIO_STATUS
[22:54:45.514936] [220] HEARTBEAT
[22:54:45.522888] [221] ATTITUDE_TARGET
[22:54:45.846042] [222] VFR_HUD
[22:54:46.309993] [168] RADIO
[22:54:46.312964] [168] RADIO_STATUS
[22:54:46.531260] [223] HEARTBEAT
[22:54:46.661138] [224] VFR_HUD
[22:54:47.334193] [169] RADIO
[22:54:47.337341] [169] RADIO_STATUS
[22:54:47.463238] [225] HEARTBEAT
[22:54:47.469178] [226] SYS_STATUS
[22:54:47.584208] [227] BATTERY_STATUS
[22:54:47.702630] [228] ATTITUDE_TARGET
[22:54:47.706225] [229] VFR_HUD
[22:54:48.254347] [170] RADIO
[22:54:48.257319] [170] RADIO_STATUS
[22:54:48.292340] [230] VFR_HUD
[22:54:48.490355] [231] HEARTBEAT
[22:54:49.064454] [232] VFR_HUD
[22:54:49.298512] [171] RADIO
[22:54:49.301446] [171] RADIO_STATUS
[22:54:49.652599] [233] HEARTBEAT
[22:54:49.660619] [234] ATTITUDE_TARGET
[22:54:49.878557] [235] VFR_HUD
[22:54:50.322718] [172] RADIO
[22:54:50.325765] [172] RADIO_STATUS
[22:54:50.438760] [236] HEARTBEAT
[22:54:51.241772] [173] RADIO
[22:54:51.244786] [173] RADIO_STATUS
[22:54:51.489866] [238] HEARTBEAT
[22:54:51.496834] [239] SYS_STATUS
[22:54:51.618908] [240] BATTERY_STATUS
[22:54:51.619771] [241] EXTENDED_SYS_STATE
[22:54:51.627880] [242] ATTITUDE_TARGET
[22:54:51.632800] [243] VFR_HUD
[22:54:51.636830] [244] SYSTEM_TIME
[22:54:52.282976] [245] VFR_HUD
[22:54:52.314951] [174] RADIO
[22:54:52.318106] [174] RADIO_STATUS
[22:54:52.508036] [246] HEARTBEAT
[22:54:53.092106] [247] VFR_HUD
[22:54:53.311208] [175] RADIO
[22:54:53.314145] [175] RADIO_STATUS
[22:54:53.561190] [248] HEARTBEAT
[22:54:53.568179] [249] ATTITUDE_TARGET
[22:54:53.891259] [250] VFR_HUD
[22:54:54.355730] [176] RADIO
[22:54:54.358372] [176] RADIO_STATUS
[22:54:54.472351] [251] HEARTBEAT
[22:54:54.811500] [252] VFR_HUD
[22:54:55.379468] [177] RADIO
[22:54:55.382628] [177] RADIO_STATUS
[22:54:55.507465] [253] HEARTBEAT
[22:54:55.514649] [254] SYS_STATUS
[22:54:55.629489] [255] BATTERY_STATUS
[22:54:55.746580] [0] ATTITUDE_TARGET
[22:54:55.751479] [1] VFR_HUD
[22:54:56.299612] [178] RADIO
[22:54:56.302586] [178] RADIO_STATUS
[22:54:57.109777] [4] VFR_HUD
[22:54:57.338766] [179] RADIO
[22:54:57.341723] [179] RADIO_STATUS
[22:54:57.473754] [5] HEARTBEAT
[22:54:57.481769] [6] ATTITUDE_TARGET
[22:54:57.924796] [7] VFR_HUD
[22:54:58.367909] [180] RADIO
[22:54:58.370859] [180] RADIO_STATUS
[22:54:58.483874] [8] HEARTBEAT
[22:54:59.286987] [181] RADIO
[22:54:59.289996] [181] RADIO_STATUS
[22:54:59.541310] [10] HEARTBEAT
[22:54:59.547043] [11] SYS_STATUS
[22:54:59.589278] [12] BATTERY_STATUS
[22:54:59.595092] [13] ATTITUDE_TARGET
[22:54:59.600193] [14] VFR_HUD
[22:55:00.327196] [182] RADIO
[22:55:00.330361] [182] RADIO_STATUS
[22:55:00.458221] [15] VFR_HUD
[22:55:00.461245] [16] HEARTBEAT
[22:55:01.142364] [17] VFR_HUD
[22:55:01.356310] [183] RADIO
[22:55:01.359310] [183] RADIO_STATUS
[22:55:01.486336] [18] HEARTBEAT
[22:55:01.494542] [19] ATTITUDE_TARGET
[22:55:01.936414] [20] VFR_HUD
[22:55:02.395510] [184] RADIO
[22:55:02.400213] [184] RADIO_STATUS
[22:55:02.516508] [21] HEARTBEAT
[22:55:02.745574] [22] VFR_HUD
[22:55:03.424675] [185] RADIO
[22:55:03.427595] [185] RADIO_STATUS
[22:55:03.552741] [23] HEARTBEAT
[22:55:03.559684] [24] SYS_STATUS
[22:55:03.679762] [25] BATTERY_STATUS
[22:55:03.791745] [26] ATTITUDE_TARGET
[22:55:03.796770] [27] VFR_HUD
[22:55:04.344876] [186] RADIO
[22:55:04.347783] [186] RADIO_STATUS
[22:55:04.385059] [28] VFR_HUD
[22:55:05.049972] [30] VFR_HUD
[22:55:05.384097] [187] RADIO
[22:55:05.386973] [187] RADIO_STATUS
[22:55:05.514186] [31] HEARTBEAT
[22:55:05.521078] [32] ATTITUDE_TARGET
[22:55:05.844076] [33] VFR_HUD
[22:55:06.413107] [188] RADIO
[22:55:06.416077] [188] RADIO_STATUS
[22:55:06.529219] [34] HEARTBEAT
[22:55:06.659145] [35] VFR_HUD
[22:55:07.332383] [189] RADIO
[22:55:07.335290] [189] RADIO_STATUS
[22:55:07.460319] [36] HEARTBEAT
[22:55:07.467315] [37] SYS_STATUS
[22:55:07.582345] [38] BATTERY_STATUS
[22:55:07.699315] [39] ATTITUDE_TARGET
[22:55:07.704368] [40] VFR_HUD
[22:55:08.267385] [41] VFR_HUD
[22:55:08.383418] [190] RADIO
[22:55:08.386433] [190] RADIO_STATUS
[22:55:08.497446] [42] HEARTBEAT
[22:55:09.400556] [191] RADIO
[22:55:09.405754] [191] RADIO_STATUS
[22:55:09.530612] [44] HEARTBEAT
[22:55:09.538603] [45] ATTITUDE_TARGET
[22:55:09.871623] [46] VFR_HUD
[22:55:10.436757] [47] HEARTBEAT
[22:55:10.550801] [192] RADIO
[22:55:10.552779] [192] RADIO_STATUS
[22:55:10.670754] [48] VFR_HUD
[22:55:11.469888] [193] RADIO
[22:55:11.472885] [193] RADIO_STATUS
[22:55:11.597928] [49] HEARTBEAT
[22:55:11.604916] [50] SYS_STATUS
[22:55:11.727915] [51] BATTERY_STATUS
[22:55:11.728878] [52] EXTENDED_SYS_STATE
[22:55:11.761958] [53] ATTITUDE_TARGET
[22:55:11.765915] [54] VFR_HUD
[22:55:11.769913] [55] SYSTEM_TIME
[22:55:12.280205] [56] VFR_HUD
[22:55:12.389094] [194] RADIO
[22:55:12.392052] [194] RADIO_STATUS
[22:55:13.089219] [58] VFR_HUD
[22:55:13.434197] [195] RADIO
[22:55:13.437197] [195] RADIO_STATUS
[22:55:13.558279] [59] HEARTBEAT
[22:55:13.566259] [60] ATTITUDE_TARGET
[22:55:13.889343] [61] VFR_HUD
[22:55:14.458432] [196] RADIO
[22:55:14.460363] [196] RADIO_STATUS
[22:55:14.574498] [62] HEARTBEAT
[22:55:14.698342] [63] VFR_HUD
[22:55:15.377584] [197] RADIO
[22:55:15.380463] [197] RADIO_STATUS
[22:55:15.505602] [64] HEARTBEAT
[22:55:15.513010] [65] SYS_STATUS
[22:55:15.626601] [66] BATTERY_STATUS
[22:55:15.744583] [67] ATTITUDE_TARGET
[22:55:15.749841] [68] VFR_HUD
[22:55:16.312784] [69] VFR_HUD
[22:55:16.429817] [70] HEARTBEAT
[22:55:16.444744] [198] RADIO
[22:55:16.447711] [198] RADIO_STATUS
[22:55:17.445918] [199] RADIO
[22:55:17.449022] [199] RADIO_STATUS
[22:55:17.493929] [72] HEARTBEAT
[22:55:17.500908] [73] ATTITUDE_TARGET
[22:55:17.923597] [74] VFR_HUD
[22:55:18.481976] [75] HEARTBEAT
[22:55:18.513840] [200] RADIO
[22:55:18.515988] [200] RADIO_STATUS
[22:55:18.716009] [76] VFR_HUD
[22:55:19.515168] [201] RADIO
[22:55:19.518087] [201] RADIO_STATUS
[22:55:19.574134] [77] HEARTBEAT
[22:55:19.581155] [78] SYS_STATUS
[22:55:19.589139] [79] BATTERY_STATUS
[22:55:19.601154] [80] ATTITUDE_TARGET
[22:55:19.606197] [81] VFR_HUD
[22:55:20.325311] [82] VFR_HUD
[22:55:20.434250] [202] RADIO
[22:55:20.437217] [202] RADIO_STATUS
[22:55:20.468313] [83] HEARTBEAT
[22:55:21.134378] [84] VFR_HUD
[22:55:21.483413] [85] HEARTBEAT
[22:55:21.491559] [86] ATTITUDE_TARGET
[22:55:21.501374] [203] RADIO
[22:55:21.504441] [203] RADIO_STATUS
[22:55:21.934479] [87] VFR_HUD
[22:55:22.505574] [204] RADIO
[22:55:22.506534] [204] RADIO_STATUS
[22:55:22.537960] [88] HEARTBEAT
[22:55:22.743596] [89] VFR_HUD
[22:55:23.422784] [205] RADIO
[22:55:23.425761] [205] RADIO_STATUS
[22:55:23.482811] [90] HEARTBEAT
[22:55:23.489777] [91] SYS_STATUS
[22:55:23.496799] [92] BATTERY_STATUS
[22:55:23.509821] [93] ATTITUDE_TARGET
[22:55:23.514759] [94] VFR_HUD
[22:55:24.352883] [95] VFR_HUD
[22:55:24.458874] [96] HEARTBEAT
[22:55:24.489947] [206] RADIO
[22:55:24.492945] [206] RADIO_STATUS
[22:55:25.048006] [97] VFR_HUD
[22:55:25.492150] [207] RADIO
[22:55:25.495111] [207] RADIO_STATUS
[22:55:25.540097] [98] HEARTBEAT
[22:55:25.548127] [99] ATTITUDE_TARGET
[22:55:25.843149] [100] VFR_HUD
[22:55:26.528232] [101] HEARTBEAT
[22:55:26.559205] [208] RADIO
[22:55:26.562211] [208] RADIO_STATUS
[22:55:26.657292] [102] VFR_HUD
[22:55:27.560428] [209] RADIO
[22:55:27.563359] [209] RADIO_STATUS
[22:55:27.630445] [105] BATTERY_STATUS
[22:55:27.638455] [106] ATTITUDE_TARGET
[22:55:27.643527] [107] VFR_HUD
[22:55:28.480618] [210] RADIO
[22:55:28.483562] [210] RADIO_STATUS
[22:55:28.731686] [108] VFR_HUD
[22:55:28.734633] [109] HEARTBEAT
[22:55:29.060798] [110] VFR_HUD
[22:55:29.529982] [111] HEARTBEAT
[22:55:29.537791] [112] ATTITUDE_TARGET
[22:55:29.629791] [211] RADIO
[22:55:29.632706] [211] RADIO_STATUS
[22:55:29.869879] [113] VFR_HUD
[22:55:30.435874] [114] HEARTBEAT
[22:55:30.549041] [212] RADIO
[22:55:30.552045] [212] RADIO_STATUS
[22:55:30.669923] [115] VFR_HUD
[22:55:31.468065] [213] RADIO
[22:55:31.471144] [213] RADIO_STATUS
[22:55:31.596185] [116] HEARTBEAT
[22:55:31.603144] [117] SYS_STATUS
[22:55:31.726088] [118] BATTERY_STATUS
[22:55:31.728138] [119] EXTENDED_SYS_STATE
[22:55:31.760177] [120] ATTITUDE_TARGET
[22:55:31.765209] [121] VFR_HUD
[22:55:31.768143] [122] SYSTEM_TIME
[22:55:32.278209] [123] VFR_HUD
[22:55:32.504279] [124] HEARTBEAT
[22:55:32.617281] [214] RADIO
[22:55:32.620275] [214] RADIO_STATUS
[22:55:33.088786] [125] VFR_HUD
[22:55:33.537457] [215] RADIO
[22:55:33.540314] [215] RADIO_STATUS
[22:55:33.667373] [126] HEARTBEAT
[22:55:33.674342] [127] ATTITUDE_TARGET
[22:55:33.887457] [128] VFR_HUD
[22:55:34.457831] [216] RADIO
[22:55:34.459452] [216] RADIO_STATUS
[22:55:34.572524] [129] HEARTBEAT
[22:55:34.701589] [130] VFR_HUD
[22:55:35.605701] [217] RADIO
[22:55:35.608649] [217] RADIO_STATUS
[22:55:35.646690] [133] BATTERY_STATUS
[22:55:35.674760] [134] ATTITUDE_TARGET
[22:55:35.677647] [135] VFR_HUD
[22:55:36.310809] [136] VFR_HUD
[22:55:36.524771] [218] RADIO
[22:55:36.527767] [218] RADIO_STATUS
[22:55:37.105070] [138] VFR_HUD
[22:55:37.464004] [139] HEARTBEAT
[22:55:37.471985] [140] ATTITUDE_TARGET
[22:55:37.673996] [219] RADIO
[22:55:37.677011] [219] RADIO_STATUS
[22:55:37.920043] [141] VFR_HUD
[22:55:38.480159] [142] HEARTBEAT
[22:55:38.511120] [220] RADIO
[22:55:38.514368] [220] RADIO_STATUS
[22:55:38.714390] [143] VFR_HUD
[22:55:39.513896] [221] RADIO
[22:55:39.515401] [221] RADIO_STATUS
[22:55:39.641381] [144] HEARTBEAT
[22:55:39.647434] [145] SYS_STATUS
[22:55:39.780379] [146] BATTERY_STATUS
[22:55:39.808419] [147] ATTITUDE_TARGET
[22:55:39.813989] [148] VFR_HUD
[22:55:40.323433] [149] VFR_HUD
[22:55:40.443718] [150] HEARTBEAT
[22:55:40.552450] [222] RADIO
[22:55:40.555417] [222] RADIO_STATUS
[22:55:41.132643] [151] VFR_HUD
[22:55:41.481621] [152] HEARTBEAT
[22:55:41.489602] [153] ATTITUDE_TARGET
[22:55:41.499601] [223] RADIO
[22:55:41.502590] [223] RADIO_STATUS
[22:55:41.931761] [154] VFR_HUD
[22:55:42.500839] [224] RADIO
[22:55:42.503910] [224] RADIO_STATUS
[22:55:42.534829] [155] HEARTBEAT
[22:55:42.741889] [156] VFR_HUD
[22:55:43.431958] [157] HEARTBEAT
[22:55:43.649993] [225] RADIO
[22:55:43.652982] [225] RADIO_STATUS
[22:55:43.691165] [160] ATTITUDE_TARGET
[22:55:43.714115] [161] VFR_HUD
[22:55:44.351188] [162] VFR_HUD
[22:55:44.456184] [163] HEARTBEAT
[22:55:44.570416] [226] RADIO
[22:55:44.573138] [226] RADIO_STATUS
[22:55:45.045283] [164] VFR_HUD
[22:55:45.514363] [165] HEARTBEAT
[22:55:45.522249] [166] ATTITUDE_TARGET
[22:55:45.614375] [227] RADIO
[22:55:45.617305] [227] RADIO_STATUS
[22:55:46.525554] [168] HEARTBEAT
[22:55:46.557565] [228] RADIO
[22:55:46.559575] [228] RADIO_STATUS
[22:55:46.649409] [169] VFR_HUD
[22:55:47.456587] [170] HEARTBEAT
[22:55:47.463546] [171] SYS_STATUS
[22:55:47.558534] [229] RADIO
[22:55:47.561557] [229] RADIO_STATUS
[22:55:47.627628] [172] BATTERY_STATUS
[22:55:47.635626] [173] ATTITUDE_TARGET
[22:55:47.640551] [174] VFR_HUD
[22:55:48.499817] [175] VFR_HUD
[22:55:48.502822] [176] HEARTBEAT
[22:55:48.707790] [230] RADIO
[22:55:48.710706] [230] RADIO_STATUS
[22:55:49.058836] [177] VFR_HUD
[22:55:49.526913] [178] HEARTBEAT
[22:55:49.534858] [179] ATTITUDE_TARGET
[22:55:49.544856] [231] RADIO
[22:55:49.547796] [231] RADIO_STATUS
[22:55:49.867949] [180] VFR_HUD
[22:55:50.547054] [232] RADIO
[22:55:50.550015] [232] RADIO_STATUS
[22:55:50.667066] [182] VFR_HUD
[22:55:51.484282] [183] HEARTBEAT
[22:55:51.493398] [184] SYS_STATUS
[22:55:51.696282] [233] RADIO
[22:55:51.699263] [233] RADIO_STATUS
[22:55:52.276361] [190] VFR_HUD
[22:55:52.502355] [191] HEARTBEAT
[22:55:52.615357] [234] RADIO
[22:55:52.618342] [234] RADIO_STATUS
[22:55:53.091466] [192] VFR_HUD
[22:55:53.555771] [193] HEARTBEAT
[22:55:53.563542] [194] ATTITUDE_TARGET
[22:55:53.683529] [235] RADIO
[22:55:53.686517] [235] RADIO_STATUS
[22:55:54.460688] [196] HEARTBEAT
[22:55:54.574653] [236] RADIO
[22:55:54.577676] [236] RADIO_STATUS
[22:55:54.805801] [197] VFR_HUD
[22:55:55.502822] [198] HEARTBEAT
[22:55:55.508784] [199] SYS_STATUS
[22:55:55.603797] [237] RADIO
[22:55:55.606811] [237] RADIO_STATUS
[22:55:55.673960] [200] BATTERY_STATUS
[22:55:55.681827] [201] ATTITUDE_TARGET
[22:55:55.686894] [202] VFR_HUD
[22:55:56.539881] [203] VFR_HUD
[22:55:56.542966] [204] HEARTBEAT
[22:55:56.659875] [238] RADIO
[22:55:56.662856] [238] RADIO_STATUS
[22:55:57.103990] [205] VFR_HUD
[22:55:57.463032] [206] HEARTBEAT
[22:55:57.471088] [207] ATTITUDE_TARGET
[22:55:57.673050] [239] RADIO
[22:55:57.676010] [239] RADIO_STATUS
[22:55:57.913085] [208] VFR_HUD
[22:55:58.592298] [240] RADIO
[22:55:58.595314] [240] RADIO_STATUS
[22:55:58.713372] [210] VFR_HUD
[22:55:59.530328] [211] HEARTBEAT
[22:55:59.537309] [212] SYS_STATUS
[22:55:59.742385] [241] RADIO
[22:55:59.744326] [241] RADIO_STATUS
[22:56:00.322539] [216] VFR_HUD
[22:56:00.443515] [217] HEARTBEAT
[22:56:00.661504] [242] RADIO
[22:56:00.664625] [242] RADIO_STATUS
[22:56:01.131545] [218] VFR_HUD
[22:56:01.480654] [219] HEARTBEAT
[22:56:01.488630] [220] ATTITUDE_TARGET
[22:56:01.700636] [243] RADIO
[22:56:01.703811] [243] RADIO_STATUS
[22:56:02.506839] [222] HEARTBEAT
[22:56:02.620963] [244] RADIO
[22:56:02.623775] [244] RADIO_STATUS
[22:56:02.740951] [223] VFR_HUD
[22:56:03.431979] [224] HEARTBEAT
[22:56:03.650011] [245] RADIO
[22:56:03.652881] [245] RADIO_STATUS
[22:56:03.690207] [227] ATTITUDE_TARGET
[22:56:03.712887] [228] VFR_HUD
[22:56:04.355051] [229] VFR_HUD
[22:56:04.467101] [230] HEARTBEAT
[22:56:04.689142] [246] RADIO
[22:56:04.692048] [246] RADIO_STATUS
[22:56:05.045134] [231] VFR_HUD
[22:56:05.514220] [232] HEARTBEAT
[22:56:05.521215] [233] ATTITUDE_TARGET
[22:56:05.718240] [247] RADIO
[22:56:05.721209] [247] RADIO_STATUS
[22:56:05.839315] [234] VFR_HUD
[22:56:06.637433] [248] RADIO
[22:56:06.640434] [248] RADIO_STATUS
[22:56:06.758421] [236] VFR_HUD
[22:56:07.455597] [237] HEARTBEAT
[22:56:07.465938] [238] SYS_STATUS
[22:56:07.582505] [239] BATTERY_STATUS
[22:56:07.787542] [249] RADIO
[22:56:07.790536] [249] RADIO_STATUS
[22:56:07.923565] [240] ATTITUDE_TARGET
[22:56:07.928561] [241] VFR_HUD
[22:56:08.257659] [242] VFR_HUD
[22:56:08.487714] [243] HEARTBEAT
[22:56:08.708706] [250] RADIO
[22:56:08.709744] [250] RADIO_STATUS
[22:56:09.056771] [244] VFR_HUD
[22:56:09.525864] [245] HEARTBEAT
[22:56:09.534152] [246] ATTITUDE_TARGET
[22:56:09.642826] [251] RADIO
[22:56:09.645848] [251] RADIO_STATUS
[22:56:09.866863] [247] VFR_HUD
[22:56:10.440958] [248] HEARTBEAT
[22:56:10.665988] [249] VFR_HUD
[22:56:10.700461] [252] RADIO
[22:56:10.700937] [252] RADIO_STATUS
[22:56:11.488189] [250] HEARTBEAT
[22:56:11.495115] [251] SYS_STATUS
[22:56:11.529160] [252] BATTERY_STATUS
[22:56:11.531106] [253] EXTENDED_SYS_STATE
[22:56:11.539144] [254] ATTITUDE_TARGET
[22:56:11.544174] [255] VFR_HUD
[22:56:11.547166] [0] SYSTEM_TIME
[22:56:11.695237] [253] RADIO
[22:56:11.698191] [253] RADIO_STATUS
[22:56:12.500300] [2] HEARTBEAT
[22:56:12.739376] [254] RADIO
[22:56:12.742304] [254] RADIO_STATUS
[22:56:13.090395] [3] VFR_HUD
[22:56:13.558697] [4] HEARTBEAT
[22:56:13.566513] [5] ATTITUDE_TARGET
[22:56:13.763535] [255] RADIO
[22:56:13.766495] [255] RADIO_STATUS
[22:56:13.884529] [6] VFR_HUD
[22:56:14.459710] [7] HEARTBEAT
[22:56:14.683642] [0] RADIO
[22:56:14.686575] [0] RADIO_STATUS
[22:56:14.724892] [8] VFR_HUD
[22:56:15.500806] [9] HEARTBEAT
[22:56:15.507803] [10] SYS_STATUS
[22:56:15.627833] [11] BATTERY_STATUS
[22:56:15.832822] [1] RADIO
[22:56:15.835749] [1] RADIO_STATUS
[22:56:16.303018] [14] VFR_HUD
[22:56:16.528009] [15] HEARTBEAT
[22:56:16.751978] [2] RADIO
[22:56:16.754967] [2] RADIO_STATUS
[22:56:17.101960] [16] VFR_HUD
[22:56:17.461081] [17] HEARTBEAT
[22:56:17.469046] [18] ATTITUDE_TARGET
[22:56:17.796105] [3] RADIO
[22:56:17.799081] [3] RADIO_STATUS
[22:56:17.912093] [19] VFR_HUD
[22:56:18.477260] [20] HEARTBEAT
[22:56:18.711465] [21] VFR_HUD
[22:56:18.743243] [4] RADIO
[22:56:18.746218] [4] RADIO_STATUS
[22:56:19.528366] [22] HEARTBEAT
[22:56:19.535364] [23] SYS_STATUS
[22:56:19.654456] [24] BATTERY_STATUS
[22:56:19.661445] [25] ATTITUDE_TARGET
[22:56:19.692447] [26] VFR_HUD
[22:56:19.714404] [5] RADIO
[22:56:19.717376] [5] RADIO_STATUS
[22:56:20.436517] [28] HEARTBEAT
[22:56:20.789006] [6] RADIO
[22:56:20.789231] [6] RADIO_STATUS
[22:56:21.130775] [29] VFR_HUD
[22:56:21.598697] [30] HEARTBEAT
[22:56:21.606770] [31] ATTITUDE_TARGET
[22:56:21.809772] [7] RADIO
[22:56:21.812934] [7] RADIO_STATUS
[22:56:21.847843] [32] VFR_HUD
[22:56:22.505900] [33] HEARTBEAT
[22:56:22.728865] [8] RADIO
[22:56:22.731820] [8] RADIO_STATUS
[22:56:22.767923] [34] VFR_HUD
[22:56:23.430016] [35] HEARTBEAT
[22:56:23.560061] [36] SYS_STATUS
[22:56:23.567067] [37] BATTERY_STATUS
[22:56:23.677807] [38] ATTITUDE_TARGET
[22:56:23.681055] [39] VFR_HUD
[22:56:23.879042] [9] RADIO
[22:56:23.882023] [9] RADIO_STATUS
[22:56:24.354222] [40] VFR_HUD
[22:56:24.466243] [41] HEARTBEAT
[22:56:24.798226] [10] RADIO
[22:56:24.801245] [10] RADIO_STATUS
[22:56:25.149273] [42] VFR_HUD
[22:56:25.508353] [43] HEARTBEAT
[22:56:25.515328] [44] ATTITUDE_TARGET
[22:56:25.717393] [11] RADIO
[22:56:25.720365] [11] RADIO_STATUS
[22:56:25.838523] [45] VFR_HUD
[22:56:26.523464] [46] HEARTBEAT
[22:56:26.647593] [47] VFR_HUD
[22:56:26.756520] [12] RADIO
[22:56:26.759501] [12] RADIO_STATUS
[22:56:27.454674] [48] HEARTBEAT
[22:56:27.461659] [49] SYS_STATUS
[22:56:27.576654] [50] BATTERY_STATUS
[22:56:27.786789] [13] RADIO
[22:56:27.789944] [13] RADIO_STATUS
[22:56:27.840755] [51] ATTITUDE_TARGET
[22:56:27.845836] [52] VFR_HUD
[22:56:28.256821] [53] VFR_HUD
[22:56:28.487864] [54] HEARTBEAT
[22:56:28.825929] [14] RADIO
[22:56:28.828849] [14] RADIO_STATUS
[22:56:29.056902] [55] VFR_HUD
[22:56:29.645013] [56] HEARTBEAT
[22:56:29.653014] [57] ATTITUDE_TARGET
[22:56:29.746010] [15] RADIO
[22:56:29.748980] [15] RADIO_STATUS
[22:56:29.866021] [58] VFR_HUD
[22:56:30.432107] [59] HEARTBEAT
[22:56:30.775147] [16] RADIO
[22:56:30.778134] [16] RADIO_STATUS
[22:56:31.488260] [61] HEARTBEAT
[22:56:31.495377] [62] SYS_STATUS
[22:56:31.529331] [63] BATTERY_STATUS
[22:56:31.531497] [64] EXTENDED_SYS_STATE
[22:56:31.538295] [65] ATTITUDE_TARGET
[22:56:31.543255] [66] VFR_HUD
[22:56:31.547242] [67] SYSTEM_TIME
[22:56:31.924306] [17] RADIO
[22:56:31.927277] [17] RADIO_STATUS
[22:56:32.275402] [68] VFR_HUD
[22:56:32.500437] [69] HEARTBEAT
[22:56:32.734490] [18] RADIO
[22:56:32.736426] [18] RADIO_STATUS
[22:56:33.089626] [70] VFR_HUD
[22:56:33.558828] [71] HEARTBEAT
[22:56:33.566660] [72] ATTITUDE_TARGET
[22:56:33.763672] [19] RADIO
[22:56:33.766781] [19] RADIO_STATUS
[22:56:33.883731] [73] VFR_HUD
[22:56:34.458799] [74] HEARTBEAT
[22:56:34.698804] [75] VFR_HUD
[22:56:34.813867] [20] RADIO
[22:56:34.816831] [20] RADIO_STATUS
[22:56:35.499992] [76] HEARTBEAT
[22:56:35.506991] [77] SYS_STATUS
[22:56:35.627014] [78] BATTERY_STATUS
[22:56:35.740025] [79] ATTITUDE_TARGET
[22:56:35.743987] [80] VFR_HUD
[22:56:35.778031] [21] RADIO
[22:56:35.780982] [21] RADIO_STATUS
[22:56:36.302129] [81] VFR_HUD
[22:56:36.533179] [82] HEARTBEAT
[22:56:36.871225] [22] RADIO
[22:56:36.874228] [22] RADIO_STATUS
[22:56:37.102248] [83] VFR_HUD
[22:56:37.461328] [84] HEARTBEAT
[22:56:37.469328] [85] ATTITUDE_TARGET
[22:56:37.796452] [23] RADIO
[22:56:37.799303] [23] RADIO_STATUS
[22:56:37.911456] [86] VFR_HUD
[22:56:38.476498] [87] HEARTBEAT
[22:56:38.820550] [24] RADIO
[22:56:38.823533] [24] RADIO_STATUS
[22:56:39.528704] [89] HEARTBEAT
[22:56:39.534667] [90] SYS_STATUS
[22:56:39.653674] [91] BATTERY_STATUS
[22:56:39.661646] [92] ATTITUDE_TARGET
[22:56:39.691662] [93] VFR_HUD
[22:56:39.969684] [25] RADIO
[22:56:39.972676] [25] RADIO_STATUS
[22:56:40.319762] [94] VFR_HUD
[22:56:40.435789] [95] HEARTBEAT
[22:56:40.784813] [26] RADIO
[22:56:40.787868] [26] RADIO_STATUS
[22:56:41.134883] [96] VFR_HUD
[22:56:41.597950] [97] HEARTBEAT
[22:56:41.605966] [98] ATTITUDE_TARGET
[22:56:41.809045] [27] RADIO
[22:56:41.812172] [27] RADIO_STATUS
[22:56:41.847045] [99] VFR_HUD
[22:56:42.504291] [100] HEARTBEAT
[22:56:42.744375] [101] VFR_HUD
[22:56:42.865192] [28] RADIO
[22:56:42.867125] [28] RADIO_STATUS
[22:56:43.424321] [102] HEARTBEAT
[22:56:43.444284] [103] SYS_STATUS
[22:56:43.487366] [104] BATTERY_STATUS
[22:56:43.495487] [105] ATTITUDE_TARGET
[22:56:43.500267] [106] VFR_HUD
[22:56:43.877542] [29] RADIO
[22:56:43.880394] [29] RADIO_STATUS
[22:56:44.352498] [107] VFR_HUD
[22:56:44.921579] [30] RADIO
[22:56:44.924504] [30] RADIO_STATUS
[22:56:45.037558] [109] VFR_HUD
[22:56:45.506684] [110] HEARTBEAT
[22:56:45.513975] [111] ATTITUDE_TARGET
[22:56:45.841691] [112] VFR_HUD
[22:56:45.868716] [31] RADIO
[22:56:45.871871] [31] RADIO_STATUS
[22:56:46.521836] [113] HEARTBEAT
[22:56:46.645778] [114] VFR_HUD
[22:56:46.865820] [32] RADIO
[22:56:46.868916] [32] RADIO_STATUS
[22:56:47.454025] [115] HEARTBEAT
[22:56:47.459872] [116] SYS_STATUS
[22:56:47.574877] [117] BATTERY_STATUS
[22:56:47.692919] [118] ATTITUDE_TARGET
[22:56:47.696872] [119] VFR_HUD
[22:56:48.015004] [33] RADIO
[22:56:48.017950] [33] RADIO_STATUS
[22:56:48.255044] [120] VFR_HUD
[22:56:48.486018] [121] HEARTBEAT
[22:56:48.934237] [34] RADIO
[22:56:48.937065] [34] RADIO_STATUS
[22:56:49.524265] [123] HEARTBEAT
[22:56:49.532424] [124] ATTITUDE_TARGET
[22:56:49.854384] [35] RADIO
[22:56:49.857343] [35] RADIO_STATUS
[22:56:49.892279] [125] VFR_HUD
[22:56:50.434366] [126] HEARTBEAT
[22:56:50.665783] [127] VFR_HUD
[22:56:50.893315] [36] RADIO
[22:56:50.896376] [36] RADIO_STATUS
[22:56:51.486438] [128] HEARTBEAT
[22:56:51.493418] [129] SYS_STATUS
[22:56:51.527433] [130] BATTERY_STATUS
[22:56:51.529561] [131] EXTENDED_SYS_STATE
[22:56:51.537428] [132] ATTITUDE_TARGET
[22:56:51.541393] [133] VFR_HUD
[22:56:51.545365] [134] SYSTEM_TIME
[22:56:51.922503] [37] RADIO
[22:56:51.925589] [37] RADIO_STATUS
[22:56:52.274533] [135] VFR_HUD
[22:56:52.841625] [38] RADIO
[22:56:52.844571] [38] RADIO_STATUS
[22:56:53.085596] [137] VFR_HUD
[22:56:53.556851] [138] HEARTBEAT
[22:56:53.564803] [139] ATTITUDE_TARGET
[22:56:53.882768] [140] VFR_HUD
[22:56:53.909782] [39] RADIO
[22:56:53.912883] [39] RADIO_STATUS
[22:56:54.462847] [141] HEARTBEAT
[22:56:54.910939] [40] RADIO
[22:56:54.914105] [40] RADIO_STATUS
[22:56:55.499034] [143] HEARTBEAT
[22:56:55.506004] [144] SYS_STATUS
[22:56:55.626026] [145] BATTERY_STATUS
[22:56:55.738085] [146] ATTITUDE_TARGET
[22:56:55.743020] [147] VFR_HUD
[22:56:56.060175] [41] RADIO
[22:56:56.063192] [41] RADIO_STATUS
[22:56:56.301179] [148] VFR_HUD
[22:56:56.531301] [149] HEARTBEAT
[22:56:56.870225] [42] RADIO
[22:56:56.873225] [42] RADIO_STATUS
[22:56:57.459385] [151] HEARTBEAT
[22:56:57.467432] [152] ATTITUDE_TARGET
[22:56:57.899435] [43] RADIO
[22:56:57.902357] [43] RADIO_STATUS
[22:56:58.020466] [153] VFR_HUD
[22:56:58.475561] [154] HEARTBEAT
[22:56:58.709782] [155] VFR_HUD
[22:56:58.938607] [44] RADIO
[22:56:58.941549] [44] RADIO_STATUS
[22:56:59.531733] [156] HEARTBEAT
[22:56:59.538659] [157] SYS_STATUS
[22:56:59.578621] [158] BATTERY_STATUS
[22:56:59.586663] [159] ATTITUDE_TARGET
[22:56:59.591642] [160] VFR_HUD
[22:56:59.968754] [45] RADIO
[22:56:59.971672] [45] RADIO_STATUS
[22:57:00.444804] [161] VFR_HUD
[22:57:00.447979] [162] HEARTBEAT
[22:57:01.117924] [46] RADIO
[22:57:01.120884] [46] RADIO_STATUS
[22:57:01.155873] [163] VFR_HUD
[22:57:01.477954] [164] HEARTBEAT
[22:57:01.484941] [165] ATTITUDE_TARGET
[22:57:02.037187] [47] RADIO
[22:57:02.040098] [47] RADIO_STATUS
[22:57:02.503133] [167] HEARTBEAT
[22:57:02.743156] [168] VFR_HUD
[22:57:02.957133] [48] RADIO
[22:57:02.959109] [48] RADIO_STATUS
[22:57:03.423268] [169] HEARTBEAT
[22:57:03.442405] [170] SYS_STATUS
[22:57:03.486255] [171] BATTERY_STATUS
[22:57:03.494392] [172] ATTITUDE_TARGET
[22:57:03.498265] [173] VFR_HUD
[22:57:04.106356] [49] RADIO
[22:57:04.109352] [49] RADIO_STATUS
[22:57:04.346376] [174] VFR_HUD
[22:57:04.452414] [175] HEARTBEAT
[22:57:04.920527] [50] RADIO
[22:57:04.923993] [50] RADIO_STATUS
[22:57:05.036503] [176] VFR_HUD
[22:57:05.505645] [177] HEARTBEAT
[22:57:05.512662] [178] ATTITUDE_TARGET
[22:57:05.841420] [179] VFR_HUD
[22:57:05.944592] [51] RADIO
[22:57:05.947596] [51] RADIO_STATUS
[22:57:06.520923] [180] HEARTBEAT
[22:57:06.644690] [181] VFR_HUD
[22:57:06.989142] [52] RADIO
[22:57:06.991771] [52] RADIO_STATUS
[22:57:07.572873] [184] BATTERY_STATUS
[22:57:07.690882] [185] ATTITUDE_TARGET
[22:57:07.695922] [186] VFR_HUD
[22:57:07.936922] [53] RADIO
[22:57:07.938908] [53] RADIO_STATUS
[22:57:08.258997] [187] VFR_HUD
[22:57:08.479005] [188] HEARTBEAT
[22:57:08.933070] [54] RADIO
[22:57:08.936059] [54] RADIO_STATUS
[22:57:09.053161] [189] VFR_HUD
[22:57:09.522276] [190] HEARTBEAT
[22:57:09.530685] [191] ATTITUDE_TARGET
[22:57:09.973242] [192] VFR_HUD
[22:57:10.005449] [55] RADIO
[22:57:10.008196] [55] RADIO_STATUS
[22:57:10.428270] [193] HEARTBEAT
[22:57:10.663279] [194] VFR_HUD
[22:57:11.001411] [56] RADIO
[22:57:11.004401] [56] RADIO_STATUS
[22:57:11.485489] [195] HEARTBEAT
[22:57:11.491429] [196] SYS_STATUS
[22:57:11.526451] [197] BATTERY_STATUS
[22:57:11.527402] [198] EXTENDED_SYS_STATE
[22:57:11.535519] [199] ATTITUDE_TARGET
[22:57:11.540463] [200] VFR_HUD
[22:57:11.544413] [201] SYSTEM_TIME
[22:57:12.151551] [57] RADIO
[22:57:12.153479] [57] RADIO_STATUS
[22:57:12.271558] [202] VFR_HUD
[22:57:12.497597] [203] HEARTBEAT
[22:57:12.965676] [58] RADIO
[22:57:12.968648] [58] RADIO_STATUS
[22:57:13.081666] [204] VFR_HUD
[22:57:13.550828] [205] HEARTBEAT
[22:57:13.557745] [206] ATTITUDE_TARGET
[22:57:13.881180] [207] VFR_HUD
[22:57:13.989795] [59] RADIO
[22:57:13.992816] [59] RADIO_STATUS
[22:57:14.460911] [208] HEARTBEAT
[22:57:14.689941] [209] VFR_HUD
[22:57:15.034940] [60] RADIO
[22:57:15.037898] [60] RADIO_STATUS
[22:57:15.619067] [212] BATTERY_STATUS
[22:57:15.737047] [213] ATTITUDE_TARGET
[22:57:15.742059] [214] VFR_HUD
[22:57:16.059121] [61] RADIO
[22:57:16.062032] [61] RADIO_STATUS
[22:57:16.300116] [215] VFR_HUD
[22:57:16.530189] [216] HEARTBEAT
[22:57:16.979212] [62] RADIO
[22:57:16.981173] [62] RADIO_STATUS
[22:57:17.099286] [217] VFR_HUD
[22:57:17.463315] [218] HEARTBEAT
[22:57:17.470273] [219] ATTITUDE_TARGET
[22:57:17.913461] [220] VFR_HUD
[22:57:18.028384] [63] RADIO
[22:57:18.031403] [63] RADIO_STATUS
[22:57:18.473509] [221] HEARTBEAT
[22:57:18.707580] [222] VFR_HUD
[22:57:19.046702] [64] RADIO
[22:57:19.049566] [64] RADIO_STATUS
[22:57:19.529634] [223] HEARTBEAT
[22:57:19.536590] [224] SYS_STATUS
[22:57:19.575613] [225] BATTERY_STATUS
[22:57:19.583632] [226] ATTITUDE_TARGET
[22:57:19.588640] [227] VFR_HUD
[22:57:20.195693] [65] RADIO
[22:57:20.198836] [65] RADIO_STATUS
[22:57:20.441793] [228] VFR_HUD
[22:57:20.444912] [229] HEARTBEAT
[22:57:21.005826] [66] RADIO
[22:57:21.008780] [66] RADIO_STATUS
[22:57:21.131807] [230] VFR_HUD
[22:57:21.474960] [231] HEARTBEAT
[22:57:21.483080] [232] ATTITUDE_TARGET
[22:57:21.925996] [233] VFR_HUD
[22:57:22.035006] [67] RADIO
[22:57:22.037954] [67] RADIO_STATUS
[22:57:22.506097] [234] HEARTBEAT
[22:57:22.735053] [235] VFR_HUD
[22:57:23.075430] [68] RADIO
[22:57:23.077134] [68] RADIO_STATUS
[22:57:23.420198] [236] HEARTBEAT
[22:57:23.440181] [237] SYS_STATUS
[22:57:23.484180] [238] BATTERY_STATUS
[22:57:23.491145] [239] ATTITUDE_TARGET
[22:57:23.496204] [240] VFR_HUD
[22:57:24.105319] [69] RADIO
[22:57:24.108249] [69] RADIO_STATUS
[22:57:24.231377] [241] VFR_HUD
[22:57:24.451482] [242] HEARTBEAT
[22:57:25.025879] [70] RADIO
[22:57:25.027373] [70] RADIO_STATUS
[22:57:25.063381] [243] VFR_HUD
[22:57:25.504460] [244] HEARTBEAT
[22:57:25.512614] [245] ATTITUDE_TARGET
[22:57:26.064553] [71] RADIO
[22:57:26.067559] [71] RADIO_STATUS
[22:57:26.520648] [247] HEARTBEAT
[22:57:26.649645] [248] VFR_HUD
[22:57:27.093890] [72] RADIO
[22:57:27.096629] [72] RADIO_STATUS
[22:57:27.451769] [249] HEARTBEAT
[22:57:27.458772] [250] SYS_STATUS
[22:57:27.572768] [251] BATTERY_STATUS
[22:57:27.689847] [252] ATTITUDE_TARGET
[22:57:27.694818] [253] VFR_HUD
[22:57:28.242777] [73] RADIO
[22:57:28.245779] [73] RADIO_STATUS
[22:57:28.280784] [254] VFR_HUD
[22:57:28.478869] [255] HEARTBEAT
[22:57:29.053071] [0] VFR_HUD
[22:57:29.079951] [74] RADIO
[22:57:29.082910] [74] RADIO_STATUS
[22:57:29.522043] [1] HEARTBEAT
[22:57:29.529990] [2] ATTITUDE_TARGET
[22:57:29.867101] [3] VFR_HUD
[22:57:30.081090] [75] RADIO
[22:57:30.084084] [75] RADIO_STATUS
[22:57:30.661290] [5] VFR_HUD
[22:57:31.120308] [76] RADIO
[22:57:31.125781] [76] RADIO_STATUS
[22:57:31.478391] [6] HEARTBEAT
[22:57:31.485384] [7] SYS_STATUS
[22:57:32.150430] [77] RADIO
[22:57:32.153453] [77] RADIO_STATUS
[22:57:32.270516] [13] VFR_HUD
[22:57:32.496564] [14] HEARTBEAT
[22:57:33.069634] [78] RADIO
[22:57:33.072541] [78] RADIO_STATUS
[22:57:33.189625] [15] VFR_HUD
[22:57:33.420638] [16] HEARTBEAT
[22:57:33.548644] [17] ATTITUDE_TARGET
[22:57:34.108728] [79] RADIO
[22:57:34.111979] [79] RADIO_STATUS
[22:57:34.460988] [19] HEARTBEAT
[22:57:34.689877] [20] VFR_HUD
[22:57:35.138950] [80] RADIO
[22:57:35.141890] [80] RADIO_STATUS
[22:57:35.496933] [21] HEARTBEAT
[22:57:35.503932] [22] SYS_STATUS
[22:57:35.617974] [23] BATTERY_STATUS
[22:57:35.735951] [24] ATTITUDE_TARGET
[22:57:35.740929] [25] VFR_HUD
[22:57:36.288026] [81] RADIO
[22:57:36.291003] [81] RADIO_STATUS
[22:57:36.327097] [26] VFR_HUD
[22:57:36.524152] [27] HEARTBEAT
[22:57:37.098182] [28] VFR_HUD
[22:57:37.131215] [82] RADIO
[22:57:37.134096] [82] RADIO_STATUS
[22:57:37.462245] [29] HEARTBEAT
[22:57:37.470284] [30] ATTITUDE_TARGET
[22:57:37.913273] [31] VFR_HUD
[22:57:38.127298] [83] RADIO
[22:57:38.130245] [83] RADIO_STATUS
[22:57:38.707407] [33] VFR_HUD
[22:57:39.171489] [84] RADIO
[22:57:39.174466] [84] RADIO_STATUS
[22:57:39.529943] [34] HEARTBEAT
[22:57:39.536529] [35] SYS_STATUS
[22:57:39.576514] [36] BATTERY_STATUS
[22:57:39.584713] [37] ATTITUDE_TARGET
[22:57:39.588544] [38] VFR_HUD
[22:57:40.087627] [85] RADIO
[22:57:40.090580] [85] RADIO_STATUS
[22:57:40.449906] [39] VFR_HUD
[22:57:40.452734] [40] HEARTBEAT
[22:57:41.117735] [86] RADIO
[22:57:41.120736] [86] RADIO_STATUS
[22:57:41.237845] [41] VFR_HUD
[22:57:41.476812] [42] HEARTBEAT
[22:57:41.484819] [43] ATTITUDE_TARGET
[22:57:42.161931] [87] RADIO
[22:57:42.165015] [87] RADIO_STATUS
[22:57:42.507945] [45] HEARTBEAT
[22:57:42.736931] [46] VFR_HUD
[22:57:43.186011] [88] RADIO
[22:57:43.189003] [88] RADIO_STATUS
[22:57:43.422121] [47] HEARTBEAT
[22:57:43.442142] [48] SYS_STATUS
[22:57:43.485143] [49] BATTERY_STATUS
[22:57:43.493135] [50] ATTITUDE_TARGET
[22:57:43.498081] [51] VFR_HUD
[22:57:44.106130] [89] RADIO
[22:57:44.108178] [89] RADIO_STATUS
[22:57:44.453223] [53] HEARTBEAT
[22:57:45.042382] [54] VFR_HUD
[22:57:45.158305] [90] RADIO
[22:57:45.161273] [90] RADIO_STATUS
[22:57:45.511409] [55] HEARTBEAT
[22:57:45.519370] [56] ATTITUDE_TARGET
[22:57:45.837403] [57] VFR_HUD
[22:57:46.176474] [91] RADIO
[22:57:46.179453] [91] RADIO_STATUS
[22:57:46.651610] [59] VFR_HUD
[22:57:47.215635] [92] RADIO
[22:57:47.218642] [92] RADIO_STATUS
[22:57:47.453719] [60] HEARTBEAT
[22:57:47.460682] [61] SYS_STATUS
[22:57:47.580720] [62] BATTERY_STATUS
[22:57:47.811867] [63] ATTITUDE_TARGET
[22:57:47.816733] [64] VFR_HUD
[22:57:48.134865] [93] RADIO
[22:57:48.137809] [93] RADIO_STATUS
[22:57:48.260821] [65] VFR_HUD
[22:57:48.480956] [66] HEARTBEAT
[22:57:49.055981] [67] VFR_HUD
[22:57:49.165837] [94] RADIO
[22:57:49.168004] [94] RADIO_STATUS
[22:57:49.524073] [68] HEARTBEAT
[22:57:49.532028] [69] ATTITUDE_TARGET
[22:57:49.865082] [70] VFR_HUD
[22:57:50.204320] [95] RADIO
[22:57:50.207171] [95] RADIO_STATUS
[22:57:50.430200] [71] HEARTBEAT
[22:57:50.665180] [72] VFR_HUD
[22:57:51.233437] [96] RADIO
[22:57:51.236316] [96] RADIO_STATUS
[22:57:51.481322] [73] HEARTBEAT
[22:57:51.488338] [74] SYS_STATUS
[22:57:51.609332] [75] BATTERY_STATUS
[22:57:51.611460] [76] EXTENDED_SYS_STATE
[22:57:51.619362] [77] ATTITUDE_TARGET
[22:57:51.624345] [78] VFR_HUD
[22:57:51.627377] [79] SYSTEM_TIME
[22:57:52.153408] [97] RADIO
[22:57:52.155437] [97] RADIO_STATUS
[22:57:52.499562] [81] HEARTBEAT
[22:57:53.083560] [82] VFR_HUD
[22:57:53.192576] [98] RADIO
[22:57:53.195577] [98] RADIO_STATUS
[22:57:53.551682] [84] ATTITUDE_TARGET
[22:57:53.882706] [85] VFR_HUD
[22:57:54.221846] [99] RADIO
[22:57:54.224825] [99] RADIO_STATUS
[22:57:54.458839] [86] HEARTBEAT
[22:57:54.802958] [87] VFR_HUD
[22:57:55.261971] [100] RADIO
[22:57:55.264964] [100] RADIO_STATUS
[22:57:55.500167] [88] HEARTBEAT
[22:57:55.507094] [89] SYS_STATUS
[22:57:55.621032] [90] BATTERY_STATUS
[22:57:55.968119] [91] ATTITUDE_TARGET
[22:57:55.973085] [92] VFR_HUD
[22:57:56.181132] [101] RADIO
[22:57:56.184108] [101] RADIO_STATUS
[22:57:56.307182] [93] VFR_HUD
[22:57:56.527216] [94] HEARTBEAT
[22:57:57.101337] [95] VFR_HUD
[22:57:57.210254] [102] RADIO
[22:57:57.213393] [102] RADIO_STATUS
[22:57:57.460363] [96] HEARTBEAT
[22:57:57.468375] [97] ATTITUDE_TARGET
[22:57:57.916396] [98] VFR_HUD
[22:57:58.250425] [103] RADIO
[22:57:58.253521] [103] RADIO_STATUS
[22:57:58.476556] [99] HEARTBEAT
[22:57:58.710535] [100] VFR_HUD
[22:57:59.279610] [104] RADIO
[22:57:59.282565] [104] RADIO_STATUS
[22:57:59.527676] [101] HEARTBEAT
[22:57:59.534719] [102] SYS_STATUS
[22:57:59.653695] [103] BATTERY_STATUS
[22:57:59.660647] [104] ATTITUDE_TARGET
[22:57:59.691673] [105] VFR_HUD
[22:58:00.199750] [105] RADIO
[22:58:00.202684] [105] RADIO_STATUS
[22:58:00.440831] [107] HEARTBEAT
[22:58:01.129880] [108] VFR_HUD
[22:58:01.243995] [106] RADIO
[22:58:01.246848] [106] RADIO_STATUS
[22:58:01.597996] [109] HEARTBEAT
[22:58:01.605998] [110] ATTITUDE_TARGET
[22:58:01.929004] [111] VFR_HUD
[22:58:02.268080] [107] RADIO
[22:58:02.271073] [107] RADIO_STATUS
[22:58:02.510109] [112] HEARTBEAT
[22:58:02.739136] [113] VFR_HUD
[22:58:03.313464] [108] RADIO
[22:58:03.316182] [108] RADIO_STATUS
[22:58:03.429442] [114] HEARTBEAT
[22:58:03.559317] [115] SYS_STATUS
[22:58:03.566283] [116] BATTERY_STATUS
[22:58:03.675538] [117] ATTITUDE_TARGET
[22:58:03.680414] [118] VFR_HUD
[22:58:04.228367] [119] VFR_HUD
[22:58:04.261331] [109] RADIO
[22:58:04.264328] [109] RADIO_STATUS
[22:58:04.454492] [120] HEARTBEAT
[22:58:05.043524] [121] VFR_HUD
[22:58:05.257672] [110] RADIO
[22:58:05.260464] [110] RADIO_STATUS
[22:58:05.511591] [122] HEARTBEAT
[22:58:05.519563] [123] ATTITUDE_TARGET
[22:58:05.837620] [124] VFR_HUD
[22:58:06.305771] [111] RADIO
[22:58:06.305913] [111] RADIO_STATUS
[22:58:06.522771] [125] HEARTBEAT
[22:58:06.651793] [126] VFR_HUD
[22:58:07.325861] [112] RADIO
[22:58:07.328836] [112] RADIO_STATUS
[22:58:07.453925] [127] HEARTBEAT
[22:58:07.460882] [128] SYS_STATUS
[22:58:07.580925] [129] BATTERY_STATUS
[22:58:07.693014] [130] ATTITUDE_TARGET
[22:58:07.697974] [131] VFR_HUD
[22:58:08.245022] [113] RADIO
[22:58:08.248028] [113] RADIO_STATUS
[22:58:08.481133] [133] HEARTBEAT
[22:58:09.056138] [134] VFR_HUD
[22:58:09.290325] [114] RADIO
[22:58:09.293163] [114] RADIO_STATUS
[22:58:09.649235] [135] HEARTBEAT
[22:58:09.657232] [136] ATTITUDE_TARGET
[22:58:09.865260] [137] VFR_HUD
[22:58:10.314391] [115] RADIO
[22:58:10.317489] [115] RADIO_STATUS
[22:58:10.430500] [138] HEARTBEAT
[22:58:11.358516] [116] RADIO
[22:58:11.361430] [116] RADIO_STATUS
[22:58:11.481692] [140] HEARTBEAT
[22:58:11.488632] [141] SYS_STATUS
[22:58:11.610547] [142] BATTERY_STATUS
[22:58:11.611514] [143] EXTENDED_SYS_STATE
[22:58:11.619523] [144] ATTITUDE_TARGET
[22:58:11.624533] [145] VFR_HUD
[22:58:11.628488] [146] SYSTEM_TIME
[22:58:12.273668] [147] VFR_HUD
[22:58:12.300622] [117] RADIO
[22:58:12.303651] [117] RADIO_STATUS
[22:58:12.499645] [148] HEARTBEAT
[22:58:13.083796] [149] VFR_HUD
[22:58:13.302863] [118] RADIO
[22:58:13.305793] [118] RADIO_STATUS
[22:58:13.552938] [150] HEARTBEAT
[22:58:13.560837] [151] ATTITUDE_TARGET
[22:58:13.882855] [152] VFR_HUD
[22:58:14.341943] [119] RADIO
[22:58:14.344973] [119] RADIO_STATUS
[22:58:14.458018] [153] HEARTBEAT
[22:58:14.697966] [154] VFR_HUD
[22:58:15.371056] [120] RADIO
[22:58:15.374072] [120] RADIO_STATUS
[22:58:15.500068] [155] HEARTBEAT
[22:58:15.506113] [156] SYS_STATUS
[22:58:15.621130] [157] BATTERY_STATUS
[22:58:15.739158] [158] ATTITUDE_TARGET
[22:58:15.743133] [159] VFR_HUD
[22:58:16.291507] [121] RADIO
[22:58:16.294257] [121] RADIO_STATUS
[22:58:16.329344] [160] VFR_HUD
[22:58:16.527304] [161] HEARTBEAT
[22:58:17.101336] [162] VFR_HUD
[22:58:17.330553] [122] RADIO
[22:58:17.333373] [122] RADIO_STATUS
[22:58:17.460439] [163] HEARTBEAT
[22:58:17.468380] [164] ATTITUDE_TARGET
[22:58:17.916459] [165] VFR_HUD
[22:58:18.360600] [123] RADIO
[22:58:18.363553] [123] RADIO_STATUS
[22:58:18.476628] [166] HEARTBEAT
[22:58:19.399675] [124] RADIO
[22:58:19.402620] [124] RADIO_STATUS
[22:58:19.527773] [168] HEARTBEAT
[22:58:19.534707] [169] SYS_STATUS
[22:58:19.652831] [170] BATTERY_STATUS
[22:58:19.660730] [171] ATTITUDE_TARGET
[22:58:19.690719] [172] VFR_HUD
[22:58:20.319889] [173] VFR_HUD
[22:58:20.346822] [125] RADIO
[22:58:20.349763] [125] RADIO_STATUS
[22:58:20.440840] [174] HEARTBEAT
[22:58:21.128974] [175] VFR_HUD
[22:58:21.348924] [126] RADIO
[22:58:21.351899] [126] RADIO_STATUS
[22:58:21.479001] [176] HEARTBEAT
[22:58:21.485963] [177] ATTITUDE_TARGET
[22:58:21.929077] [178] VFR_HUD
[22:58:22.388159] [127] RADIO
[22:58:22.391493] [127] RADIO_STATUS
[22:58:22.509171] [179] HEARTBEAT
[22:58:22.738331] [180] VFR_HUD
[22:58:23.417251] [128] RADIO
[22:58:23.420244] [128] RADIO_STATUS
[22:58:23.477659] [181] HEARTBEAT
[22:58:23.484331] [182] SYS_STATUS
[22:58:23.491567] [183] BATTERY_STATUS
[22:58:23.504302] [184] ATTITUDE_TARGET
[22:58:23.508298] [185] VFR_HUD
[22:58:24.337410] [129] RADIO
[22:58:24.339377] [129] RADIO_STATUS
[22:58:24.375389] [186] VFR_HUD
[22:58:25.042631] [188] VFR_HUD
[22:58:25.377937] [130] RADIO
