[10:05:20.212078] [253] RADIO
[10:05:20.214831] [253] RADIO_STATUS
[10:05:20.332869] [198] VFR_HUD
[10:05:21.150005] [199] HEARTBEAT
[10:05:21.156962] [200] SYS_STATUS
[10:05:21.275008] [201] BATTERY_STATUS
[10:05:21.282925] [202] ATTITUDE_TARGET
[10:05:21.312936] [203] VFR_HUD
[10:05:21.341070] [254] RADIO
[10:05:21.343910] [254] RADIO_STATUS
[10:05:21.942071] [204] VFR_HUD
[10:05:22.167273] [205] HEARTBEAT
[10:05:22.199178] [255] RADIO
[10:05:22.202029] [255] RADIO_STATUS
[10:05:22.751187] [206] VFR_HUD
[10:05:23.200185] [0] RADIO
[10:05:23.203138] [0] RADIO_STATUS
[10:05:23.330165] [207] HEARTBEAT
[10:05:23.338353] [208] ATTITUDE_TARGET
[10:05:23.551242] [209] VFR_HUD
[10:05:24.131416] [210] HEARTBEAT
[10:05:24.245265] [1] RADIO
[10:05:24.248235] [1] RADIO_STATUS
[10:05:24.360422] [211] VFR_HUD
[10:05:25.170717] [212] HEARTBEAT
[10:05:25.175343] [213] SYS_STATUS
[10:05:25.270537] [2] RADIO
[10:05:25.272373] [2] RADIO_STATUS
[10:05:25.310363] [214] BATTERY_STATUS
[10:05:25.341345] [215] EXTENDED_SYS_STATE
[10:05:25.349363] [216] ATTITUDE_TARGET
[10:05:25.354354] [217] VFR_HUD
[10:05:25.359267] [218] SYSTEM_TIME
[10:05:26.205532] [219] VFR_HUD
[10:05:26.208473] [220] HEARTBEAT
[10:05:26.419493] [3] RADIO
[10:05:26.422479] [3] RADIO_STATUS
[10:05:26.770585] [221] VFR_HUD
[10:05:27.134607] [222] HEARTBEAT
[10:05:27.142574] [223] ATTITUDE_TARGET
[10:05:27.228711] [4] RADIO
[10:05:27.231760] [4] RADIO_STATUS
[10:05:27.584680] [224] VFR_HUD
[10:05:28.144787] [225] HEARTBEAT
[10:05:28.258779] [5] RADIO
[10:05:28.261689] [5] RADIO_STATUS
[10:05:28.379857] [226] VFR_HUD
[10:05:29.201874] [227] HEARTBEAT
[10:05:29.208932] [228] SYS_STATUS
[10:05:29.247855] [229] BATTERY_STATUS
[10:05:29.255841] [230] ATTITUDE_TARGET
[10:05:29.260788] [231] VFR_HUD
[10:05:29.297851] [6] RADIO
[10:05:29.300813] [6] RADIO_STATUS
[10:05:30.120091] [232] VFR_HUD
[10:05:30.121930] [233] HEARTBEAT
[10:05:30.233988] [7] RADIO
[10:05:30.236950] [7] RADIO_STATUS
[10:05:30.798056] [234] VFR_HUD
[10:05:31.148136] [235] HEARTBEAT
[10:05:31.155116] [236] ATTITUDE_TARGET
[10:05:31.247150] [8] RADIO
[10:05:31.250080] [8] RADIO_STATUS
[10:05:31.598258] [237] VFR_HUD
[10:05:32.179257] [238] HEARTBEAT
[10:05:32.287215] [9] RADIO
[10:05:32.290213] [9] RADIO_STATUS
[10:05:32.408348] [239] VFR_HUD
[10:05:33.215320] [240] HEARTBEAT
[10:05:33.222304] [241] SYS_STATUS
[10:05:33.316346] [10] RADIO
[10:05:33.319327] [10] RADIO_STATUS
[10:05:33.386385] [242] BATTERY_STATUS
[10:05:33.394319] [243] ATTITUDE_TARGET
[10:05:33.399295] [244] VFR_HUD
[10:05:34.133434] [245] VFR_HUD
[10:05:34.138832] [246] HEARTBEAT
[10:05:34.241490] [11] RADIO
[10:05:34.244911] [11] RADIO_STATUS
[10:05:34.712511] [247] VFR_HUD
[10:05:35.181560] [248] HEARTBEAT
[10:05:35.189505] [249] ATTITUDE_TARGET
[10:05:35.276539] [12] RADIO
[10:05:35.279479] [12] RADIO_STATUS
[10:05:35.512596] [250] VFR_HUD
[10:05:36.191756] [251] HEARTBEAT
[10:05:36.305677] [13] RADIO
[10:05:36.308670] [13] RADIO_STATUS
[10:05:36.344653] [252] VFR_HUD
[10:05:37.123788] [253] HEARTBEAT
[10:05:37.130754] [254] SYS_STATUS
[10:05:37.250702] [255] BATTERY_STATUS
[10:05:37.362743] [0] ATTITUDE_TARGET
[10:05:37.367739] [1] VFR_HUD
[10:05:37.373689] [14] RADIO
[10:05:37.376756] [14] RADIO_STATUS
[10:05:37.931830] [2] VFR_HUD
[10:05:38.154152] [3] HEARTBEAT
[10:05:38.264809] [15] RADIO
[10:05:38.267853] [15] RADIO_STATUS
[10:05:38.726042] [4] VFR_HUD
[10:05:39.195121] [5] HEARTBEAT
[10:05:39.203010] [6] ATTITUDE_TARGET
[10:05:39.295032] [16] RADIO
[10:05:39.298054] [16] RADIO_STATUS
[10:05:39.536011] [7] VFR_HUD
[10:05:40.101080] [8] HEARTBEAT
[10:05:40.335122] [9] VFR_HUD
[10:05:40.362084] [17] RADIO
[10:05:40.365064] [17] RADIO_STATUS
[10:05:41.152195] [10] HEARTBEAT
[10:05:41.159172] [11] SYS_STATUS
[10:05:41.278230] [12] BATTERY_STATUS
[10:05:41.285247] [13] ATTITUDE_TARGET
[10:05:41.316140] [14] VFR_HUD
[10:05:41.343127] [18] RADIO
[10:05:41.346170] [18] RADIO_STATUS
[10:05:41.944267] [15] VFR_HUD
[10:05:42.170384] [16] HEARTBEAT
[10:05:42.283278] [19] RADIO
[10:05:42.286275] [19] RADIO_STATUS
[10:05:42.754331] [17] VFR_HUD
[10:05:43.223491] [18] HEARTBEAT
[10:05:43.231333] [19] ATTITUDE_TARGET
[10:05:43.351438] [20] RADIO
[10:05:43.354362] [20] RADIO_STATUS
[10:05:43.554368] [20] VFR_HUD
[10:05:44.129577] [21] HEARTBEAT
[10:05:44.352470] [21] RADIO
[10:05:44.355629] [21] RADIO_STATUS
[10:05:44.391551] [22] VFR_HUD
[10:05:45.170848] [23] HEARTBEAT
[10:05:45.177677] [24] SYS_STATUS
[10:05:45.295700] [25] BATTERY_STATUS
[10:05:45.297710] [26] EXTENDED_SYS_STATE
[10:05:45.416861] [27] ATTITUDE_TARGET
[10:05:45.421726] [28] VFR_HUD
[10:05:45.425611] [29] SYSTEM_TIME
[10:05:45.459608] [22] RADIO
[10:05:45.462752] [22] RADIO_STATUS
[10:05:45.978766] [30] VFR_HUD
[10:05:46.198924] [31] HEARTBEAT
[10:05:46.317757] [23] RADIO
[10:05:46.320750] [23] RADIO_STATUS
[10:05:46.772780] [32] VFR_HUD
[10:05:47.137991] [33] HEARTBEAT
[10:05:47.145848] [34] ATTITUDE_TARGET
[10:05:47.341952] [24] RADIO
[10:05:47.344897] [24] RADIO_STATUS
[10:05:47.587998] [35] VFR_HUD
[10:05:48.147913] [36] HEARTBEAT
[10:05:48.381938] [37] VFR_HUD
[10:05:48.415009] [25] RADIO
[10:05:48.417942] [25] RADIO_STATUS
[10:05:49.200196] [38] HEARTBEAT
[10:05:49.206053] [39] SYS_STATUS
[10:05:49.325096] [40] BATTERY_STATUS
[10:05:49.333046] [41] ATTITUDE_TARGET
[10:05:49.363039] [42] VFR_HUD
[10:05:49.390060] [26] RADIO
[10:05:49.393023] [26] RADIO_STATUS
[10:05:49.992115] [43] VFR_HUD
[10:05:50.112164] [44] HEARTBEAT
[10:05:50.331115] [27] RADIO
[10:05:50.334261] [27] RADIO_STATUS
[10:05:50.801176] [45] VFR_HUD
[10:05:51.150309] [46] HEARTBEAT
[10:05:51.158286] [47] ATTITUDE_TARGET
[10:05:51.375253] [28] RADIO
[10:05:51.378243] [28] RADIO_STATUS
[10:05:51.601318] [48] VFR_HUD
[10:05:52.181845] [49] HEARTBEAT
[10:05:52.400363] [29] RADIO
[10:05:52.403366] [29] RADIO_STATUS
[10:05:52.520404] [50] VFR_HUD
[10:05:53.113481] [51] HEARTBEAT
[10:05:53.119488] [52] SYS_STATUS
[10:05:53.159567] [53] BATTERY_STATUS
[10:05:53.167428] [54] ATTITUDE_TARGET
[10:05:53.172463] [55] VFR_HUD
[10:05:53.444536] [30] RADIO
[10:05:53.447413] [30] RADIO_STATUS
[10:05:54.135558] [56] VFR_HUD
[10:05:54.138579] [57] HEARTBEAT
[10:05:54.359565] [31] RADIO
[10:05:54.362554] [31] RADIO_STATUS
[10:05:54.715568] [58] VFR_HUD
[10:05:55.183716] [59] HEARTBEAT
[10:05:55.191680] [60] ATTITUDE_TARGET
[10:05:55.388727] [32] RADIO
[10:05:55.391671] [32] RADIO_STATUS
[10:05:55.509643] [61] VFR_HUD
[10:05:56.194942] [62] HEARTBEAT
[10:05:56.325956] [63] VFR_HUD
[10:05:56.439782] [33] RADIO
[10:05:56.442752] [33] RADIO_STATUS
[10:05:57.253264] [66] BATTERY_STATUS
[10:05:57.365161] [67] ATTITUDE_TARGET
[10:05:57.369957] [68] VFR_HUD
[10:05:57.375913] [34] RADIO
[10:05:57.379074] [34] RADIO_STATUS
[10:05:57.928004] [69] VFR_HUD
[10:05:58.159069] [70] HEARTBEAT
[10:05:58.377006] [35] RADIO
[10:05:58.380165] [35] RADIO_STATUS
[10:05:58.728115] [71] VFR_HUD
[10:05:59.197375] [72] HEARTBEAT
[10:05:59.205255] [73] ATTITUDE_TARGET
[10:05:59.527121] [36] RADIO
[10:05:59.530143] [36] RADIO_STATUS
[10:05:59.647269] [74] VFR_HUD
[10:06:00.103330] [75] HEARTBEAT
[10:06:00.337307] [76] VFR_HUD
[10:06:00.364226] [37] RADIO
[10:06:00.367223] [37] RADIO_STATUS
[10:06:01.154395] [77] HEARTBEAT
[10:06:01.161536] [78] SYS_STATUS
[10:06:01.279310] [79] BATTERY_STATUS
[10:06:01.287349] [80] ATTITUDE_TARGET
[10:06:01.317345] [81] VFR_HUD
[10:06:01.366385] [38] RADIO
[10:06:01.369312] [38] RADIO_STATUS
[10:06:01.946388] [82] VFR_HUD
[10:06:02.171472] [83] HEARTBEAT
[10:06:02.405439] [39] RADIO
[10:06:02.409772] [39] RADIO_STATUS
[10:06:02.761510] [84] VFR_HUD
[10:06:03.096679] [85] HEARTBEAT
[10:06:03.119527] [86] ATTITUDE_TARGET
[10:06:03.435553] [40] RADIO
[10:06:03.438681] [40] RADIO_STATUS
[10:06:03.555702] [87] VFR_HUD
[10:06:04.130705] [88] HEARTBEAT
[10:06:04.370772] [89] VFR_HUD
[10:06:04.486666] [41] RADIO
[10:06:04.488661] [41] RADIO_STATUS
[10:06:05.297798] [92] BATTERY_STATUS
[10:06:05.298750] [93] EXTENDED_SYS_STATE
[10:06:05.418953] [94] ATTITUDE_TARGET
[10:06:05.422791] [95] VFR_HUD
[10:06:05.426759] [96] SYSTEM_TIME
[10:06:05.456628] [42] RADIO
[10:06:05.458817] [42] RADIO_STATUS
[10:06:05.980005] [97] VFR_HUD
[10:06:06.200008] [98] HEARTBEAT
[10:06:06.423921] [43] RADIO
[10:06:06.426890] [43] RADIO_STATUS
[10:06:06.478002] JAMMING_START
[10:06:06.774971] [99] VFR_HUD
[10:06:07.134082] [100] HEARTBEAT
[10:06:07.140993] [101] ATTITUDE_TARGET
[10:06:07.573030] [44] RADIO
[10:06:07.576057] [44] RADIO_STATUS
[10:06:07.694085] [102] VFR_HUD
[10:06:08.149124] [103] HEARTBEAT
[10:06:08.384082] [104] VFR_HUD
[10:06:08.416072] [45] RADIO
[10:06:08.419140] [45] RADIO_STATUS
[10:06:09.201276] [105] HEARTBEAT
[10:06:09.208223] [106] SYS_STATUS
[10:06:09.326341] [107] BATTERY_STATUS
[10:06:09.335034] [108] ATTITUDE_TARGET
[10:06:09.364267] [109] VFR_HUD
[10:06:09.413301] [46] RADIO
[10:06:09.416124] [46] RADIO_STATUS
[10:06:09.993275] [110] VFR_HUD
[10:06:10.114489] [111] HEARTBEAT
[10:06:10.458355] [47] RADIO
[10:06:10.460304] [47] RADIO_STATUS
[10:06:10.803482] [112] VFR_HUD
[10:06:11.152447] [113] HEARTBEAT
[10:06:11.160467] [114] ATTITUDE_TARGET
[10:06:11.482437] [48] RADIO
[10:06:11.485432] [48] RADIO_STATUS
[10:06:11.520486] [115] VFR_HUD
[10:06:12.178566] [116] HEARTBEAT
[10:06:12.412663] [117] VFR_HUD
[10:06:12.527685] [49] RADIO
[10:06:12.530606] [49] RADIO_STATUS
[10:06:13.115766] [118] HEARTBEAT
[10:06:13.121825] [119] SYS_STATUS
[10:06:13.161711] [120] BATTERY_STATUS
[10:06:13.169875] [121] ATTITUDE_TARGET
[10:06:13.173698] [122] VFR_HUD
[10:06:13.448671] [50] RADIO
[10:06:13.451666] [50] RADIO_STATUS
[10:06:14.138734] [123] VFR_HUD
[10:06:14.141738] [124] HEARTBEAT
[10:06:14.472792] [51] RADIO
[10:06:14.475760] [51] RADIO_STATUS
[10:06:14.712816] [125] VFR_HUD
[10:06:15.187888] [126] HEARTBEAT
[10:06:15.194869] [127] ATTITUDE_TARGET
[10:06:15.621902] [52] RADIO
[10:06:15.624922] [52] RADIO_STATUS
[10:06:16.197984] [129] HEARTBEAT
[10:06:16.323074] [130] VFR_HUD
[10:06:16.542021] [53] RADIO
[10:06:16.544947] [53] RADIO_STATUS
[10:06:17.130133] [131] HEARTBEAT
[10:06:17.137142] [132] SYS_STATUS
[10:06:17.256082] [133] BATTERY_STATUS
[10:06:17.369167] [134] ATTITUDE_TARGET
[10:06:17.373097] [135] VFR_HUD
[10:06:17.461089] [54] RADIO
[10:06:17.464051] [54] RADIO_STATUS
[10:06:17.931234] [136] VFR_HUD
[10:06:18.162212] [137] HEARTBEAT
[10:06:18.506288] [55] RADIO
[10:06:18.509240] [55] RADIO_STATUS
[10:06:18.731326] [138] VFR_HUD
[10:06:19.200346] [139] HEARTBEAT
[10:06:19.208288] [140] ATTITUDE_TARGET
[10:06:19.530355] [56] RADIO
[10:06:19.533318] [56] RADIO_STATUS
[10:06:19.651369] [141] VFR_HUD
[10:06:20.340537] [143] VFR_HUD
[10:06:20.575477] [57] RADIO
[10:06:20.577430] [57] RADIO_STATUS
[10:06:21.162554] [144] HEARTBEAT
[10:06:21.169547] [145] SYS_STATUS
[10:06:21.209537] [146] BATTERY_STATUS
[10:06:21.217564] [147] ATTITUDE_TARGET
[10:06:21.221851] [148] VFR_HUD
[10:06:21.491540] [58] RADIO
[10:06:21.494540] [58] RADIO_STATUS
[10:06:22.187636] [149] VFR_HUD
[10:06:22.190580] [150] HEARTBEAT
[10:06:22.520668] [59] RADIO
[10:06:22.523630] [59] RADIO_STATUS
[10:06:22.766688] [151] VFR_HUD
[10:06:23.096761] [152] HEARTBEAT
[10:06:23.118765] [153] ATTITUDE_TARGET
[10:06:23.669746] [60] RADIO
[10:06:23.672726] [60] RADIO_STATUS
[10:06:24.135878] [155] HEARTBEAT
[10:06:24.375806] [156] VFR_HUD
[10:06:24.491814] [61] RADIO
[10:06:24.493764] [61] RADIO_STATUS
[10:06:25.177991] [157] HEARTBEAT
[10:06:25.184930] [158] SYS_STATUS
[10:06:25.307908] [159] BATTERY_STATUS
[10:06:25.308838] [160] EXTENDED_SYS_STATE
[10:06:25.340933] [161] ATTITUDE_TARGET
[10:06:25.345934] [162] VFR_HUD
[10:06:25.350101] [163] SYSTEM_TIME
[10:06:25.508987] [62] RADIO
[10:06:25.511980] [62] RADIO_STATUS
[10:06:25.980033] [164] VFR_HUD
[10:06:26.205055] [165] HEARTBEAT
[10:06:26.549090] [63] RADIO
[10:06:26.552124] [63] RADIO_STATUS
[10:06:26.779168] [166] VFR_HUD
[10:06:27.139581] [167] HEARTBEAT
[10:06:27.146381] [168] ATTITUDE_TARGET
[10:06:27.578281] [64] RADIO
[10:06:27.581176] [64] RADIO_STATUS
[10:06:27.699227] [169] VFR_HUD
[10:06:28.389302] [171] VFR_HUD
[10:06:28.618343] [65] RADIO
[10:06:28.621303] [65] RADIO_STATUS
[10:06:29.206478] [172] HEARTBEAT
[10:06:29.212397] [173] SYS_STATUS
[10:06:29.537880] [66] RADIO
[10:06:29.540518] [66] RADIO_STATUS
[10:06:29.998556] [177] VFR_HUD
[10:06:30.113601] [178] HEARTBEAT
[10:06:30.566578] [67] RADIO
[10:06:30.569528] [67] RADIO_STATUS
[10:06:30.807793] [179] VFR_HUD
[10:06:31.156752] [180] HEARTBEAT
[10:06:31.164644] [181] ATTITUDE_TARGET
[10:06:31.502679] [182] VFR_HUD
[10:06:31.716708] [68] RADIO
[10:06:31.719721] [68] RADIO_STATUS
[10:06:32.182852] [183] HEARTBEAT
[10:06:32.422126] [184] VFR_HUD
[10:06:32.540991] [69] RADIO
[10:06:32.541755] [69] RADIO_STATUS
[10:06:33.118878] [185] HEARTBEAT
[10:06:33.125946] [186] SYS_STATUS
[10:06:33.165892] [187] BATTERY_STATUS
[10:06:33.172936] [188] ATTITUDE_TARGET
[10:06:33.177894] [189] VFR_HUD
[10:06:33.555980] [70] RADIO
[10:06:33.558862] [70] RADIO_STATUS
[10:06:34.131999] [191] HEARTBEAT
[10:06:34.594966] [71] RADIO
[10:06:34.598868] [71] RADIO_STATUS
[10:06:34.715952] [192] VFR_HUD
[10:06:35.185056] [193] HEARTBEAT
[10:06:35.193027] [194] ATTITUDE_TARGET
[10:06:35.515058] [195] VFR_HUD
[10:06:35.542148] [72] RADIO
[10:06:35.545122] [72] RADIO_STATUS
[10:06:36.096163] [196] HEARTBEAT
[10:06:36.325140] [197] VFR_HUD
[10:06:36.544164] [73] RADIO
[10:06:36.547322] [73] RADIO_STATUS
[10:06:37.132262] [198] HEARTBEAT
[10:06:37.139236] [199] SYS_STATUS
[10:06:37.253237] [200] BATTERY_STATUS
[10:06:37.583259] [74] RADIO
[10:06:37.586321] [74] RADIO_STATUS
[10:06:37.935129] [203] VFR_HUD
[10:06:38.165405] [204] HEARTBEAT
[10:06:38.613343] [75] RADIO
[10:06:38.616305] [75] RADIO_STATUS
[10:06:38.734350] [205] VFR_HUD
[10:06:39.203446] [206] HEARTBEAT
[10:06:39.210627] [207] ATTITUDE_TARGET
[10:06:39.548459] [208] VFR_HUD
[10:06:39.762512] [76] RADIO
[10:06:39.765447] [76] RADIO_STATUS
[10:06:40.108569] [209] HEARTBEAT
[10:06:40.343618] [210] VFR_HUD
[10:06:40.577573] [77] RADIO
[10:06:40.580591] [77] RADIO_STATUS
[10:06:41.165768] [211] HEARTBEAT
[10:06:41.171691] [212] SYS_STATUS
[10:06:41.211693] [213] BATTERY_STATUS
[10:06:41.219673] [214] ATTITUDE_TARGET
[10:06:41.224648] [215] VFR_HUD
[10:06:41.601771] [78] RADIO
[10:06:41.604731] [78] RADIO_STATUS
[10:06:42.178060] [217] HEARTBEAT
[10:06:42.645933] [79] RADIO
[10:06:42.648834] [79] RADIO_STATUS
[10:06:42.766894] [218] VFR_HUD
[10:06:43.561003] [221] VFR_HUD
[10:06:43.594007] [80] RADIO
[10:06:43.596927] [80] RADIO_STATUS
[10:06:44.142202] [222] HEARTBEAT
[10:06:44.371126] [223] VFR_HUD
[10:06:44.590143] [81] RADIO
[10:06:44.593073] [81] RADIO_STATUS
[10:06:45.178156] [224] HEARTBEAT
[10:06:45.185391] [225] SYS_STATUS
[10:06:45.308240] [226] BATTERY_STATUS
[10:06:45.310156] [227] EXTENDED_SYS_STATE
[10:06:45.342200] [228] ATTITUDE_TARGET
[10:06:45.347186] [229] VFR_HUD
[10:06:45.350152] [230] SYSTEM_TIME
[10:06:45.635188] [82] RADIO
[10:06:45.638417] [82] RADIO_STATUS
[10:06:45.980278] [231] VFR_HUD
[10:06:46.091279] [232] HEARTBEAT
[10:06:46.659569] [83] RADIO
[10:06:46.662360] [83] RADIO_STATUS
[10:06:46.780374] [233] VFR_HUD
[10:06:47.139423] [234] HEARTBEAT
[10:06:47.147379] [235] ATTITUDE_TARGET
[10:06:47.589435] [236] VFR_HUD
[10:06:47.809601] [84] RADIO
[10:06:47.812461] [84] RADIO_STATUS
[10:06:48.155561] [237] HEARTBEAT
[10:06:48.389870] [238] VFR_HUD
[10:06:48.618605] [85] RADIO
[10:06:48.621578] [85] RADIO_STATUS
[10:06:49.206823] [239] HEARTBEAT
[10:06:49.213773] [240] SYS_STATUS
[10:06:49.332930] [241] BATTERY_STATUS
[10:06:49.339861] [242] ATTITUDE_TARGET
[10:06:49.369776] [243] VFR_HUD
[10:06:49.648706] [86] RADIO
[10:06:49.651731] [86] RADIO_STATUS
[10:06:50.113735] [245] HEARTBEAT
[10:06:50.692813] [87] RADIO
[10:06:50.695764] [87] RADIO_STATUS
[10:06:50.813836] [246] VFR_HUD
[10:06:51.276853] [247] HEARTBEAT
[10:06:51.284891] [248] ATTITUDE_TARGET
[10:06:51.502857] [249] VFR_HUD
[10:06:51.618872] [88] RADIO
[10:06:51.621812] [88] RADIO_STATUS
[10:06:52.183127] [250] HEARTBEAT
[10:06:52.637175] [89] RADIO
[10:06:52.640015] [89] RADIO_STATUS
[10:06:53.103102] [252] HEARTBEAT
[10:06:53.123028] [253] SYS_STATUS
[10:06:53.166109] [254] BATTERY_STATUS
[10:06:53.174095] [255] ATTITUDE_TARGET
[10:06:53.179155] [0] VFR_HUD
[10:06:53.676087] [90] RADIO
[10:06:53.679046] [90] RADIO_STATUS
[10:06:54.142142] [1] VFR_HUD
[10:06:54.145119] [2] HEARTBEAT
[10:06:54.706264] [91] RADIO
[10:06:54.709457] [91] RADIO_STATUS
[10:06:54.826255] [3] VFR_HUD
[10:06:55.186082] [4] HEARTBEAT
[10:06:55.193304] [5] ATTITUDE_TARGET
[10:06:55.516407] [6] VFR_HUD
[10:06:55.855539] [92] RADIO
[10:06:55.858475] [92] RADIO_STATUS
[10:06:56.091352] [7] HEARTBEAT
[10:06:56.325414] [8] VFR_HUD
[10:06:56.665413] [93] RADIO
[10:06:56.667404] [93] RADIO_STATUS
[10:06:57.133526] [9] HEARTBEAT
[10:06:57.139539] [10] SYS_STATUS
[10:06:57.254505] [11] BATTERY_STATUS
[10:06:57.372600] [12] ATTITUDE_TARGET
[10:06:57.376681] [13] VFR_HUD
[10:06:57.694514] [94] RADIO
[10:06:57.697692] [94] RADIO_STATUS
[10:06:57.940516] [14] VFR_HUD
[10:06:58.160609] [15] HEARTBEAT
[10:06:58.734711] [16] VFR_HUD
[10:06:58.761636] [95] RADIO
[10:06:58.764814] [95] RADIO_STATUS
[10:06:59.322730] [17] HEARTBEAT
[10:06:59.330747] [18] ATTITUDE_TARGET
[10:06:59.549774] [19] VFR_HUD
[10:06:59.664745] [96] RADIO
[10:06:59.667662] [96] RADIO_STATUS
[10:07:00.109771] [20] HEARTBEAT
[10:07:00.682851] [97] RADIO
[10:07:00.685766] [97] RADIO_STATUS
[10:07:01.166021] [22] HEARTBEAT
[10:07:01.172939] [23] SYS_STATUS
[10:07:01.211844] [24] BATTERY_STATUS
[10:07:01.219862] [25] ATTITUDE_TARGET
[10:07:01.225000] [26] VFR_HUD
[10:07:01.722941] [98] RADIO
[10:07:01.725874] [98] RADIO_STATUS
[10:07:02.188982] [27] VFR_HUD
[10:07:02.191972] [28] HEARTBEAT
[10:07:02.752132] [99] RADIO
[10:07:02.755242] [99] RADIO_STATUS
[10:07:02.873092] [29] VFR_HUD
[10:07:03.098170] [30] HEARTBEAT
[10:07:03.121108] [31] ATTITUDE_TARGET
[10:07:03.562175] [32] VFR_HUD
[10:07:03.672134] [100] RADIO
[10:07:03.674088] [100] RADIO_STATUS
[10:07:04.143271] [33] HEARTBEAT
[10:07:04.372217] [34] VFR_HUD
[10:07:04.711294] [101] RADIO
[10:07:04.714295] [101] RADIO_STATUS
[10:07:05.179424] [35] HEARTBEAT
[10:07:05.186406] [36] SYS_STATUS
[10:07:05.309363] [37] BATTERY_STATUS
[10:07:05.310260] [38] EXTENDED_SYS_STATE
[10:07:05.343336] [39] ATTITUDE_TARGET
[10:07:05.347289] [40] VFR_HUD
[10:07:05.351342] [41] SYSTEM_TIME
[10:07:05.740406] [102] RADIO
[10:07:05.743338] [102] RADIO_STATUS
[10:07:05.981398] [42] VFR_HUD
[10:07:06.781503] [44] VFR_HUD
[10:07:06.809963] [103] RADIO
[10:07:06.810443] [103] RADIO_STATUS
[10:07:07.145575] [45] HEARTBEAT
[10:07:07.153557] [46] ATTITUDE_TARGET
[10:07:07.590583] [47] VFR_HUD
[10:07:07.705561] [104] RADIO
[10:07:07.707559] [104] RADIO_STATUS
[10:07:08.155668] [48] HEARTBEAT
[10:07:08.729715] [105] RADIO
[10:07:08.732643] [105] RADIO_STATUS
[10:07:09.212977] [50] HEARTBEAT
[10:07:09.220185] [51] SYS_STATUS
[10:07:09.258714] [52] BATTERY_STATUS
[10:07:09.266729] [53] ATTITUDE_TARGET
[10:07:09.271742] [54] VFR_HUD
[10:07:09.773742] [106] RADIO
[10:07:09.776700] [106] RADIO_STATUS
[10:07:10.125878] [55] VFR_HUD
[10:07:10.127792] [56] HEARTBEAT
[10:07:10.798882] [107] RADIO
[10:07:10.801871] [107] RADIO_STATUS
[10:07:10.837896] [57] VFR_HUD
[10:07:11.159015] [58] HEARTBEAT
[10:07:11.165909] [59] ATTITUDE_TARGET
[10:07:11.499249] [60] VFR_HUD
[10:07:11.718008] [108] RADIO
[10:07:11.721038] [108] RADIO_STATUS
[10:07:12.184145] [61] HEARTBEAT
[10:07:12.299138] [62] VFR_HUD
[10:07:12.763089] [109] RADIO
[10:07:12.766036] [109] RADIO_STATUS
[10:07:13.116119] [63] HEARTBEAT
[10:07:13.123170] [64] SYS_STATUS
[10:07:13.241197] [65] BATTERY_STATUS
[10:07:13.249141] [66] ATTITUDE_TARGET
[10:07:13.279176] [67] VFR_HUD
[10:07:13.787227] [110] RADIO
[10:07:13.790177] [110] RADIO_STATUS
[10:07:13.908241] [68] VFR_HUD
[10:07:14.718451] [70] VFR_HUD
[10:07:14.832334] [111] RADIO
[10:07:14.835278] [111] RADIO_STATUS
[10:07:15.187351] [71] HEARTBEAT
[10:07:15.195350] [72] ATTITUDE_TARGET
[10:07:15.517429] [73] VFR_HUD
[10:07:15.752842] [112] RADIO
[10:07:15.755394] [112] RADIO_STATUS
[10:07:16.093442] [74] HEARTBEAT
[10:07:16.332522] [75] VFR_HUD
[10:07:16.776540] [113] RADIO
[10:07:16.779518] [113] RADIO_STATUS
[10:07:17.134629] [76] HEARTBEAT
[10:07:17.141604] [77] SYS_STATUS
[10:07:17.255654] [78] BATTERY_STATUS
[10:07:17.373610] [79] ATTITUDE_TARGET
[10:07:17.378564] [80] VFR_HUD
[10:07:17.821748] [114] RADIO
[10:07:17.824700] [114] RADIO_STATUS
[10:07:17.941694] [81] VFR_HUD
[10:07:18.161737] [82] HEARTBEAT
[10:07:18.845719] [115] RADIO
[10:07:18.848667] [115] RADIO_STATUS
[10:07:19.205829] [84] HEARTBEAT
[10:07:19.212756] [85] ATTITUDE_TARGET
[10:07:19.550833] [86] VFR_HUD
[10:07:19.764824] [116] RADIO
[10:07:19.769347] [116] RADIO_STATUS
[10:07:20.110922] [87] HEARTBEAT
[10:07:20.345968] [88] VFR_HUD
[10:07:20.805046] [117] RADIO
[10:07:20.807912] [117] RADIO_STATUS
[10:07:21.162003] [89] HEARTBEAT
[10:07:21.169880] [90] SYS_STATUS
[10:07:21.287996] [91] BATTERY_STATUS
[10:07:21.296144] [92] ATTITUDE_TARGET
[10:07:21.326308] [93] VFR_HUD
[10:07:21.834059] [118] RADIO
[10:07:21.837040] [118] RADIO_STATUS
[10:07:21.955046] [94] VFR_HUD
[10:07:22.764195] [96] VFR_HUD
[10:07:22.873194] [119] RADIO
[10:07:22.876195] [119] RADIO_STATUS
[10:07:23.100473] [97] HEARTBEAT
[10:07:23.122441] [98] ATTITUDE_TARGET
[10:07:23.564305] [99] VFR_HUD
[10:07:23.793370] [120] RADIO
[10:07:23.796279] [120] RADIO_STATUS
[10:07:24.144366] [100] HEARTBEAT
[10:07:24.373772] [101] VFR_HUD
[10:07:24.822468] [121] RADIO
[10:07:24.825467] [121] RADIO_STATUS
[10:07:25.180580] [102] HEARTBEAT
[10:07:25.189265] [103] SYS_STATUS
[10:07:25.305930] [104] BATTERY_STATUS
[10:07:25.306597] [105] EXTENDED_SYS_STATE
[10:07:25.426551] [106] ATTITUDE_TARGET
[10:07:25.431557] [107] VFR_HUD
[10:07:25.434513] [108] SYSTEM_TIME
[10:07:25.862591] [122] RADIO
[10:07:25.865506] [122] RADIO_STATUS
[10:07:25.982612] [109] VFR_HUD
[10:07:26.088680] [110] HEARTBEAT
[10:07:26.891693] [123] RADIO
[10:07:26.894720] [123] RADIO_STATUS
[10:07:27.146761] [112] HEARTBEAT
[10:07:27.154748] [113] ATTITUDE_TARGET
[10:07:27.596748] [114] VFR_HUD
[10:07:27.810774] [124] RADIO
[10:07:27.813741] [124] RADIO_STATUS
[10:07:28.157967] [115] HEARTBEAT
[10:07:28.391841] [116] VFR_HUD
[10:07:28.850964] [125] RADIO
[10:07:28.853876] [125] RADIO_STATUS
[10:07:29.214005] [117] HEARTBEAT
[10:07:29.221041] [118] SYS_STATUS
[10:07:29.259969] [119] BATTERY_STATUS
[10:07:29.267980] [120] ATTITUDE_TARGET
[10:07:29.272915] [121] VFR_HUD
[10:07:29.880015] [126] RADIO
[10:07:29.883109] [126] RADIO_STATUS
[10:07:30.132129] [122] VFR_HUD
[10:07:30.135147] [123] HEARTBEAT
[10:07:30.816189] [124] VFR_HUD
[10:07:30.931131] [127] RADIO
[10:07:30.934127] [127] RADIO_STATUS
[10:07:31.161779] [125] HEARTBEAT
[10:07:31.169347] [126] ATTITUDE_TARGET
[10:07:31.610219] [127] VFR_HUD
[10:07:31.839282] [128] RADIO
[10:07:31.842251] [128] RADIO_STATUS
[10:07:32.190325] [128] HEARTBEAT
[10:07:32.300263] [129] VFR_HUD
[10:07:32.869431] [129] RADIO
[10:07:32.871471] [129] RADIO_STATUS
[10:07:33.117440] [130] HEARTBEAT
[10:07:33.124421] [131] SYS_STATUS
[10:07:33.242432] [132] BATTERY_STATUS
[10:07:33.250398] [133] ATTITUDE_TARGET
[10:07:33.280396] [134] VFR_HUD
[10:07:33.909533] [135] VFR_HUD
[10:07:33.936691] [130] RADIO
[10:07:33.939511] [130] RADIO_STATUS
[10:07:34.134584] [136] HEARTBEAT
[10:07:34.724600] [137] VFR_HUD
[10:07:34.938582] [131] RADIO
[10:07:34.940590] [131] RADIO_STATUS
[10:07:35.187721] [138] HEARTBEAT
[10:07:35.195595] [139] ATTITUDE_TARGET
[10:07:35.518762] [140] VFR_HUD
[10:07:35.860791] [132] RADIO
[10:07:35.863701] [132] RADIO_STATUS
[10:07:36.204551] [141] HEARTBEAT
[10:07:36.333769] [142] VFR_HUD
[10:07:36.903155] [133] RADIO
[10:07:36.905879] [133] RADIO_STATUS
[10:07:37.256926] [145] BATTERY_STATUS
[10:07:37.374991] [146] ATTITUDE_TARGET
[10:07:37.378863] [147] VFR_HUD
[10:07:37.927009] [134] RADIO
[10:07:37.929932] [134] RADIO_STATUS
[10:07:37.965892] [148] VFR_HUD
[10:07:38.163062] [149] HEARTBEAT
[10:07:38.737101] [150] VFR_HUD
[10:07:38.972141] [135] RADIO
[10:07:38.975053] [135] RADIO_STATUS
[10:07:39.206131] [151] HEARTBEAT
[10:07:39.214108] [152] ATTITUDE_TARGET
[10:07:39.547201] [153] VFR_HUD
[10:07:39.891172] [136] RADIO
[10:07:39.894193] [136] RADIO_STATUS
[10:07:40.112247] [154] HEARTBEAT
[10:07:40.347188] [155] VFR_HUD
[10:07:40.916288] [137] RADIO
[10:07:40.918383] [137] RADIO_STATUS
[10:07:41.163397] [156] HEARTBEAT
[10:07:41.170344] [157] SYS_STATUS
[10:07:41.289337] [158] BATTERY_STATUS
[10:07:41.297429] [159] ATTITUDE_TARGET
[10:07:41.327394] [160] VFR_HUD
[10:07:41.956438] [161] VFR_HUD
[10:07:41.988425] [138] RADIO
[10:07:41.991429] [138] RADIO_STATUS
[10:07:42.181506] [162] HEARTBEAT
[10:07:42.765528] [163] VFR_HUD
[10:07:42.984613] [139] RADIO
[10:07:42.987630] [139] RADIO_STATUS
[10:07:43.114618] [164] HEARTBEAT
[10:07:43.122622] [165] ATTITUDE_TARGET
[10:07:43.565776] [166] VFR_HUD
[10:07:43.904731] [140] RADIO
[10:07:43.907664] [140] RADIO_STATUS
[10:07:44.140717] [167] HEARTBEAT
[10:07:44.374762] [168] VFR_HUD
[10:07:44.949874] [141] RADIO
[10:07:44.952795] [141] RADIO_STATUS
[10:07:45.306956] [171] BATTERY_STATUS
[10:07:45.308774] [172] EXTENDED_SYS_STATE
[10:07:45.427919] [173] ATTITUDE_TARGET
[10:07:45.433851] [174] VFR_HUD
[10:07:45.436950] [175] SYSTEM_TIME
[10:07:45.973897] [142] RADIO
[10:07:45.976867] [142] RADIO_STATUS
[10:07:46.012905] [176] VFR_HUD
[10:07:46.094978] [177] HEARTBEAT
[10:07:46.784008] [178] VFR_HUD
[10:07:46.893011] [143] RADIO
[10:07:46.895975] [143] RADIO_STATUS
[10:07:47.148153] [179] HEARTBEAT
[10:07:47.156157] [180] ATTITUDE_TARGET
[10:07:47.599075] [181] VFR_HUD
[10:07:47.933172] [144] RADIO
[10:07:47.936172] [144] RADIO_STATUS
[10:07:48.159219] [182] HEARTBEAT
[10:07:48.393137] [183] VFR_HUD
[10:07:48.962423] [145] RADIO
[10:07:48.965252] [145] RADIO_STATUS
[10:07:49.216349] [184] HEARTBEAT
[10:07:49.222276] [185] SYS_STATUS
[10:07:49.262265] [186] BATTERY_STATUS
[10:07:49.270262] [187] ATTITUDE_TARGET
[10:07:49.275303] [188] VFR_HUD
[10:07:50.002388] [146] RADIO
[10:07:50.005342] [146] RADIO_STATUS
[10:07:50.133446] [189] VFR_HUD
[10:07:50.136370] [190] HEARTBEAT
[10:07:50.813896] [191] VFR_HUD
[10:07:51.034477] [147] RADIO
[10:07:51.037849] [147] RADIO_STATUS
[10:07:51.161462] [192] HEARTBEAT
[10:07:51.169463] [193] ATTITUDE_TARGET
[10:07:51.612534] [194] VFR_HUD
[10:07:51.951522] [148] RADIO
[10:07:51.954493] [148] RADIO_STATUS
[10:07:52.192556] [195] HEARTBEAT
[10:07:52.301658] [196] VFR_HUD
[10:07:52.991745] [149] RADIO
[10:07:52.994605] [149] RADIO_STATUS
[10:07:53.124644] [197] HEARTBEAT
[10:07:53.133774] [198] SYS_STATUS
[10:07:53.170790] [199] BATTERY_STATUS
[10:07:53.178827] [200] ATTITUDE_TARGET
[10:07:53.183682] [201] VFR_HUD
[10:07:54.022736] [150] RADIO
[10:07:54.025680] [150] RADIO_STATUS
[10:07:54.148751] [202] VFR_HUD
[10:07:54.151754] [203] HEARTBEAT
[10:07:54.728824] [204] VFR_HUD
[10:07:54.941999] [151] RADIO
[10:07:54.945104] [151] RADIO_STATUS
[10:07:55.197883] [205] HEARTBEAT
[10:07:55.204836] [206] ATTITUDE_TARGET
[10:07:55.981977] [152] RADIO
[10:07:55.984903] [152] RADIO_STATUS
[10:07:56.097984] [208] HEARTBEAT
[10:07:56.337813] [209] VFR_HUD
[10:07:57.011014] [153] RADIO
[10:07:57.013940] [153] RADIO_STATUS
[10:07:57.139100] [210] HEARTBEAT
[10:07:57.146038] [211] SYS_STATUS
[10:07:57.266067] [212] BATTERY_STATUS
[10:07:57.378054] [213] ATTITUDE_TARGET
[10:07:57.383028] [214] VFR_HUD
[10:07:57.941160] [215] VFR_HUD
[10:07:58.051145] [154] RADIO
[10:07:58.053145] [154] RADIO_STATUS
[10:07:58.167305] [216] HEARTBEAT
[10:07:58.741185] [217] VFR_HUD
[10:07:59.080312] [155] RADIO
[10:07:59.083261] [155] RADIO_STATUS
[10:07:59.210258] [218] HEARTBEAT
[10:07:59.218277] [219] ATTITUDE_TARGET
[10:07:59.550373] [220] VFR_HUD
[10:07:59.999303] [156] RADIO
[10:08:00.002353] [156] RADIO_STATUS
[10:08:00.350400] [222] VFR_HUD
[10:08:01.044476] [157] RADIO
[10:08:01.047445] [157] RADIO_STATUS
[10:08:01.167583] [223] HEARTBEAT
[10:08:01.174514] [224] SYS_STATUS
[10:08:01.959609] [228] VFR_HUD
[10:08:01.991723] [158] RADIO
[10:08:01.994605] [158] RADIO_STATUS
[10:08:02.185700] [229] HEARTBEAT
[10:08:02.769701] [230] VFR_HUD
[10:08:02.988730] [159] RADIO
[10:08:02.991873] [159] RADIO_STATUS
[10:08:03.118765] [231] HEARTBEAT
[10:08:03.125913] [232] ATTITUDE_TARGET
[10:08:04.032780] [160] RADIO
[10:08:04.035761] [160] RADIO_STATUS
[10:08:04.143805] [234] HEARTBEAT
[10:08:04.383825] [235] VFR_HUD
[10:08:05.057842] [161] RADIO
[10:08:05.060934] [161] RADIO_STATUS
[10:08:05.091873] [236] HEARTBEAT
[10:08:05.111900] [237] SYS_STATUS
[10:08:05.146880] [238] BATTERY_STATUS
[10:08:05.147846] [239] EXTENDED_SYS_STATE
[10:08:05.155897] [240] ATTITUDE_TARGET
[10:08:05.160872] [241] VFR_HUD
[10:08:05.186986] [242] SYSTEM_TIME
[10:08:05.979905] [162] RADIO
[10:08:05.982899] [162] RADIO_STATUS
[10:08:06.020934] [243] VFR_HUD
[10:08:06.092996] [244] HEARTBEAT
[10:08:06.789158] [245] VFR_HUD
[10:08:07.126247] [163] RADIO
[10:08:07.129137] [163] RADIO_STATUS
[10:08:07.256261] [246] HEARTBEAT
[10:08:07.264070] [247] ATTITUDE_TARGET
[10:08:07.602132] [248] VFR_HUD
[10:08:08.046206] [164] RADIO
[10:08:08.049223] [164] RADIO_STATUS
[10:08:08.396200] [250] VFR_HUD
[10:08:09.087343] [251] HEARTBEAT
[10:08:09.107291] [252] SYS_STATUS
[10:08:09.150289] [253] BATTERY_STATUS
[10:08:09.158359] [254] ATTITUDE_TARGET
[10:08:09.163234] [255] VFR_HUD
[10:08:09.166419] [165] RADIO
[10:08:09.169881] [165] RADIO_STATUS
[10:08:10.006368] [166] RADIO
[10:08:10.009391] [166] RADIO_STATUS
[10:08:10.138386] [0] VFR_HUD
[10:08:10.141369] [1] HEARTBEAT
[10:08:10.702500] [2] VFR_HUD
[10:08:11.036583] [167] RADIO
[10:08:11.039574] [167] RADIO_STATUS
[10:08:11.166622] [3] HEARTBEAT
[10:08:11.173564] [4] ATTITUDE_TARGET
[10:08:11.513584] [5] VFR_HUD
[10:08:12.080639] [168] RADIO
[10:08:12.083656] [168] RADIO_STATUS
[10:08:12.196774] [6] HEARTBEAT
[10:08:12.306718] [7] VFR_HUD
[10:08:13.105736] [169] RADIO
[10:08:13.109002] [169] RADIO_STATUS
[10:08:13.164769] [8] HEARTBEAT
[10:08:13.172915] [9] SYS_STATUS
[10:08:13.179739] [10] BATTERY_STATUS
[10:08:13.191752] [11] ATTITUDE_TARGET
[10:08:13.196725] [12] VFR_HUD
[10:08:14.024925] [170] RADIO
[10:08:14.027796] [170] RADIO_STATUS
[10:08:14.140925] [14] HEARTBEAT
[10:08:14.730930] [15] VFR_HUD
[10:08:15.175134] [171] RADIO
[10:08:15.178071] [171] RADIO_STATUS
[10:08:15.222990] [16] HEARTBEAT
[10:08:15.229967] [17] ATTITUDE_TARGET
[10:08:15.525016] [18] VFR_HUD
[10:08:16.094172] [172] RADIO
[10:08:16.097240] [172] RADIO_STATUS
[10:08:16.128130] [19] HEARTBEAT
[10:08:16.336829] [20] VFR_HUD
[10:08:17.142196] [21] HEARTBEAT
[10:08:17.149207] [22] SYS_STATUS
[10:08:17.244198] [173] RADIO
[10:08:17.247108] [173] RADIO_STATUS
[10:08:17.314206] [23] BATTERY_STATUS
[10:08:17.321387] [24] ATTITUDE_TARGET
[10:08:17.326314] [25] VFR_HUD
[10:08:18.055296] [174] RADIO
[10:08:18.058295] [174] RADIO_STATUS
[10:08:18.187401] [26] VFR_HUD
[10:08:18.190387] [27] HEARTBEAT
[10:08:18.746376] [28] VFR_HUD
[10:08:19.085421] [175] RADIO
[10:08:19.088459] [175] RADIO_STATUS
[10:08:19.215490] [29] HEARTBEAT
[10:08:19.222515] [30] ATTITUDE_TARGET
[10:08:19.555486] [31] VFR_HUD
[10:08:20.120514] [32] HEARTBEAT
[10:08:20.234581] [176] RADIO
[10:08:20.237638] [176] RADIO_STATUS
[10:08:20.355520] [33] VFR_HUD
[10:08:21.153620] [177] RADIO
[10:08:21.156857] [177] RADIO_STATUS
[10:08:21.282628] [34] HEARTBEAT
[10:08:21.288681] [35] SYS_STATUS
[10:08:21.408630] [36] BATTERY_STATUS
[10:08:21.520670] [37] ATTITUDE_TARGET
[10:08:21.525620] [38] VFR_HUD
[10:08:22.073805] [178] RADIO
[10:08:22.077226] [178] RADIO_STATUS
[10:08:22.189866] [40] HEARTBEAT
[10:08:22.778891] [41] VFR_HUD
[10:08:23.222827] [179] RADIO
[10:08:23.225794] [179] RADIO_STATUS
[10:08:23.269850] [42] HEARTBEAT
[10:08:23.277828] [43] ATTITUDE_TARGET
[10:08:23.574116] [44] VFR_HUD
[10:08:24.142935] [180] RADIO
[10:08:24.145897] [180] RADIO_STATUS
[10:08:24.388013] [46] VFR_HUD
[10:08:25.190113] [47] HEARTBEAT
[10:08:25.197082] [48] SYS_STATUS
[10:08:25.294025] [181] RADIO
[10:08:25.295191] [181] RADIO_STATUS
[10:08:25.356121] [49] BATTERY_STATUS
[10:08:25.358086] [50] EXTENDED_SYS_STATE
[10:08:25.366171] [51] ATTITUDE_TARGET
[10:08:25.371132] [52] VFR_HUD
[10:08:25.374145] [53] SYSTEM_TIME
[10:08:25.997139] [54] VFR_HUD
[10:08:26.109202] [55] HEARTBEAT
[10:08:26.140228] [182] RADIO
[10:08:26.143193] [182] RADIO_STATUS
[10:08:26.792239] [56] VFR_HUD
[10:08:27.131308] [183] RADIO
[10:08:27.134283] [183] RADIO_STATUS
[10:08:27.261343] [57] HEARTBEAT
[10:08:27.270640] [58] ATTITUDE_TARGET
[10:08:27.601422] [59] VFR_HUD
[10:08:28.166479] [60] HEARTBEAT
[10:08:28.280428] [184] RADIO
[10:08:28.283435] [184] RADIO_STATUS
[10:08:28.401495] [61] VFR_HUD
[10:08:29.086723] [62] HEARTBEAT
[10:08:29.106625] [63] SYS_STATUS
[10:08:29.154667] [64] BATTERY_STATUS
[10:08:29.163205] [65] ATTITUDE_TARGET
[10:08:29.167581] [66] VFR_HUD
[10:08:29.170567] [185] RADIO
[10:08:29.173604] [185] RADIO_STATUS
[10:08:30.120711] [186] RADIO
[10:08:30.123687] [186] RADIO_STATUS
[10:08:30.247795] [67] VFR_HUD
[10:08:30.250740] [68] HEARTBEAT
[10:08:30.701797] [69] VFR_HUD
[10:08:31.270839] [187] RADIO
[10:08:31.273801] [187] RADIO_STATUS
[10:08:31.399948] [70] HEARTBEAT
[10:08:31.407885] [71] ATTITUDE_TARGET
[10:08:31.516881] [72] VFR_HUD
[10:08:32.190002] [188] RADIO
[10:08:32.192945] [188] RADIO_STATUS
[10:08:32.434000] [73] HEARTBEAT
[10:08:32.438964] [74] VFR_HUD
[10:08:33.133084] [75] HEARTBEAT
[10:08:33.140072] [76] SYS_STATUS
[10:08:33.180021] [77] BATTERY_STATUS
[10:08:33.188063] [78] ATTITUDE_TARGET
[10:08:33.193034] [79] VFR_HUD
[10:08:33.235259] [189] RADIO
[10:08:33.238039] [189] RADIO_STATUS
[10:08:34.157026] [80] VFR_HUD
[10:08:34.159705] [81] HEARTBEAT
[10:08:34.259148] [190] RADIO
[10:08:34.262094] [190] RADIO_STATUS
[10:08:34.730220] [82] VFR_HUD
[10:08:35.179239] [191] RADIO
[10:08:35.182224] [191] RADIO_STATUS
[10:08:35.227259] [83] HEARTBEAT
[10:08:35.235270] [84] ATTITUDE_TARGET
[10:08:35.529304] [85] VFR_HUD
[10:08:36.110371] [86] HEARTBEAT
[10:08:36.223300] [192] RADIO
[10:08:36.226291] [192] RADIO_STATUS
[10:08:36.339372] [87] VFR_HUD
[10:08:37.146486] [88] HEARTBEAT
[10:08:37.153486] [89] SYS_STATUS
[10:08:37.166467] [193] RADIO
[10:08:37.169418] [193] RADIO_STATUS
[10:08:37.273694] [90] BATTERY_STATUS
[10:08:37.385472] [91] ATTITUDE_TARGET
[10:08:37.390414] [92] VFR_HUD
[10:08:37.948621] [93] VFR_HUD
[10:08:38.167640] [194] RADIO
[10:08:38.171249] [194] RADIO_STATUS
[10:08:38.201529] [94] HEARTBEAT
[10:08:38.747605] [95] VFR_HUD
[10:08:39.098684] [96] HEARTBEAT
[10:08:39.317666] [195] RADIO
[10:08:39.320939] [195] RADIO_STATUS
[10:08:39.445826] [97] ATTITUDE_TARGET
[10:08:39.557672] [98] VFR_HUD
[10:08:40.122771] [99] HEARTBEAT
[10:08:40.236722] [196] RADIO
[10:08:40.239706] [196] RADIO_STATUS
[10:08:41.161836] [197] RADIO
[10:08:41.164897] [197] RADIO_STATUS
[10:08:41.215852] [101] HEARTBEAT
[10:08:41.222940] [102] SYS_STATUS
[10:08:41.230857] [103] BATTERY_STATUS
[10:08:41.242902] [104] ATTITUDE_TARGET
[10:08:41.247943] [105] VFR_HUD
[10:08:41.966928] [106] VFR_HUD
[10:08:42.192962] [107] HEARTBEAT
[10:08:42.305949] [198] RADIO
[10:08:42.308907] [198] RADIO_STATUS
[10:08:42.781999] [108] VFR_HUD
[10:08:43.126009] [109] HEARTBEAT
[10:08:43.133095] [110] ATTITUDE_TARGET
[10:08:43.225985] [199] RADIO
[10:08:43.229001] [199] RADIO_STATUS
[10:08:43.576034] [111] VFR_HUD
[10:08:44.151156] [112] HEARTBEAT
[10:08:44.265411] [200] RADIO
[10:08:44.268120] [200] RADIO_STATUS
[10:08:44.391119] [113] VFR_HUD
[10:08:45.193313] [114] HEARTBEAT
[10:08:45.200305] [115] SYS_STATUS
[10:08:45.294349] [201] RADIO
[10:08:45.297200] [201] RADIO_STATUS
[10:08:45.359203] [116] BATTERY_STATUS
[10:08:45.361148] [117] EXTENDED_SYS_STATE
[10:08:45.368215] [118] ATTITUDE_TARGET
[10:08:45.373262] [119] VFR_HUD
[10:08:45.377171] [120] SYSTEM_TIME
[10:08:45.995311] [121] VFR_HUD
[10:08:46.214315] [202] RADIO
[10:08:46.217255] [202] RADIO_STATUS
[10:08:46.795373] [123] VFR_HUD
[10:08:47.154541] [124] HEARTBEAT
[10:08:47.162422] [125] ATTITUDE_TARGET
[10:08:47.364427] [203] RADIO
[10:08:47.367489] [203] RADIO_STATUS
[10:08:47.604456] [126] VFR_HUD
[10:08:48.170508] [127] HEARTBEAT
[10:08:48.283496] [204] RADIO
[10:08:48.286598] [204] RADIO_STATUS
[10:08:48.322655] [128] VFR_HUD
[10:08:49.095608] [129] HEARTBEAT
[10:08:49.114611] [130] SYS_STATUS
[10:08:49.158677] [131] BATTERY_STATUS
[10:08:49.166652] [132] ATTITUDE_TARGET
[10:08:49.170721] [133] VFR_HUD
[10:08:49.205718] [205] RADIO
[10:08:49.208540] [205] RADIO_STATUS
[10:08:50.140877] [134] VFR_HUD
[10:08:50.143794] [135] HEARTBEAT
[10:08:50.260729] [206] RADIO
[10:08:50.263681] [206] RADIO_STATUS
[10:08:51.173905] [137] HEARTBEAT
[10:08:51.181881] [138] ATTITUDE_TARGET
[10:08:51.273831] [207] RADIO
[10:08:51.276750] [207] RADIO_STATUS
[10:08:51.519890] [139] VFR_HUD
[10:08:52.084924] [140] HEARTBEAT
[10:08:52.313965] [141] VFR_HUD
[10:08:52.340946] [208] RADIO
[10:08:52.343914] [208] RADIO_STATUS
[10:08:53.131018] [142] HEARTBEAT
[10:08:53.138029] [143] SYS_STATUS
[10:08:53.257061] [144] BATTERY_STATUS
[10:08:53.264108] [145] ATTITUDE_TARGET
[10:08:53.295051] [146] VFR_HUD
[10:08:53.317161] [209] RADIO
[10:08:53.320078] [209] RADIO_STATUS
[10:08:53.924097] [147] VFR_HUD
[10:08:54.262145] [210] RADIO
[10:08:54.265129] [210] RADIO_STATUS
[10:08:54.733238] [149] VFR_HUD
[10:08:55.202315] [150] HEARTBEAT
[10:08:55.210234] [151] ATTITUDE_TARGET
[10:08:55.412272] [211] RADIO
[10:08:55.415265] [211] RADIO_STATUS
[10:08:55.533289] [152] VFR_HUD
[10:08:56.113365] [153] HEARTBEAT
[10:08:56.332479] [212] RADIO
[10:08:56.334439] [212] RADIO_STATUS
[10:08:57.149571] [155] HEARTBEAT
[10:08:57.156522] [156] SYS_STATUS
[10:08:57.251490] [213] RADIO
[10:08:57.254486] [213] RADIO_STATUS
[10:08:57.294144] [157] BATTERY_STATUS
[10:08:57.319531] [158] ATTITUDE_TARGET
[10:08:57.324559] [159] VFR_HUD
[10:08:57.951733] [160] VFR_HUD
[10:08:58.182608] [161] HEARTBEAT
[10:08:58.296596] [214] RADIO
[10:08:58.299631] [214] RADIO_STATUS
[10:08:59.115804] [163] HEARTBEAT
[10:08:59.123735] [164] ATTITUDE_TARGET
[10:08:59.321864] [215] RADIO
[10:08:59.323748] [215] RADIO_STATUS
[10:08:59.566815] [165] VFR_HUD
[10:09:00.126863] [166] HEARTBEAT
[10:09:00.245908] [216] RADIO
[10:09:00.248789] [216] RADIO_STATUS
[10:09:00.360842] [167] VFR_HUD
[10:09:01.182928] [168] HEARTBEAT
[10:09:01.189911] [169] SYS_STATUS
[10:09:01.230028] [170] BATTERY_STATUS
[10:09:01.236993] [171] ATTITUDE_TARGET
[10:09:01.241903] [172] VFR_HUD
[10:09:01.284937] [217] RADIO
[10:09:01.287922] [217] RADIO_STATUS
[10:09:02.101718] [173] VFR_HUD
[10:09:02.104011] [174] HEARTBEAT
[10:09:02.309085] [218] RADIO
[10:09:02.312092] [218] RADIO_STATUS
[10:09:02.785111] [175] VFR_HUD
[10:09:03.129127] [176] HEARTBEAT
[10:09:03.137268] [177] ATTITUDE_TARGET
[10:09:03.459158] [219] RADIO
[10:09:03.462117] [219] RADIO_STATUS
[10:09:03.579169] [178] VFR_HUD
[10:09:04.161848] [179] HEARTBEAT
[10:09:04.273254] [220] RADIO
[10:09:04.276262] [220] RADIO_STATUS
[10:09:04.389264] [180] VFR_HUD
[10:09:05.196605] [181] HEARTBEAT
[10:09:05.202497] [182] SYS_STATUS
[10:09:05.297424] [221] RADIO
[10:09:05.300368] [221] RADIO_STATUS
[10:09:05.362593] [183] BATTERY_STATUS
[10:09:05.363417] [184] EXTENDED_SYS_STATE
[10:09:05.371520] [185] ATTITUDE_TARGET
[10:09:05.376408] [186] VFR_HUD
[10:09:05.379417] [187] SYSTEM_TIME
[10:09:06.113562] [188] VFR_HUD
[10:09:06.116546] [189] HEARTBEAT
[10:09:06.342554] [222] RADIO
[10:09:06.345576] [222] RADIO_STATUS
[10:09:07.156714] [191] HEARTBEAT
[10:09:07.164694] [192] ATTITUDE_TARGET
[10:09:07.366691] [223] RADIO
[10:09:07.369685] [223] RADIO_STATUS
[10:09:07.492784] [193] VFR_HUD
[10:09:08.173076] [194] HEARTBEAT
[10:09:08.292155] [224] RADIO
[10:09:08.294815] [224] RADIO_STATUS
[10:09:08.324930] [195] VFR_HUD
[10:09:09.325955] [225] RADIO
[10:09:09.328892] [225] RADIO_STATUS
[10:09:10.142139] [201] VFR_HUD
[10:09:10.145144] [202] HEARTBEAT
[10:09:10.355097] [226] RADIO
[10:09:10.358047] [226] RADIO_STATUS
[10:09:10.706161] [203] VFR_HUD
[10:09:11.175250] [204] HEARTBEAT
[10:09:11.183138] [205] ATTITUDE_TARGET
[10:09:11.504226] [227] RADIO
[10:09:11.507233] [227] RADIO_STATUS
[10:09:11.625188] [206] VFR_HUD
[10:09:12.086486] [207] HEARTBEAT
[10:09:12.315270] [208] VFR_HUD
[10:09:12.342255] [228] RADIO
[10:09:12.345327] [228] RADIO_STATUS
[10:09:13.132376] [209] HEARTBEAT
[10:09:13.138436] [210] SYS_STATUS
[10:09:13.257420] [211] BATTERY_STATUS
[10:09:13.265380] [212] ATTITUDE_TARGET
[10:09:13.295389] [213] VFR_HUD
[10:09:13.344414] [229] RADIO
[10:09:13.346402] [229] RADIO_STATUS
[10:09:13.924509] [214] VFR_HUD
[10:09:14.149509] [215] HEARTBEAT
[10:09:14.383580] [230] RADIO
[10:09:14.386695] [230] RADIO_STATUS
[10:09:14.733598] [216] VFR_HUD
[10:09:15.202676] [217] HEARTBEAT
[10:09:15.210684] [218] ATTITUDE_TARGET
[10:09:15.413533] [231] RADIO
[10:09:15.415706] [231] RADIO_STATUS
[10:09:15.533658] [219] VFR_HUD
[10:09:16.108794] [220] HEARTBEAT
[10:09:16.342789] [221] VFR_HUD
[10:09:16.452745] [232] RADIO
[10:09:16.455785] [232] RADIO_STATUS
[10:09:17.271944] [224] BATTERY_STATUS
[10:09:17.389812] [225] ATTITUDE_TARGET
[10:09:17.394794] [226] VFR_HUD
[10:09:17.399840] [233] RADIO
[10:09:17.402839] [233] RADIO_STATUS
[10:09:17.957866] [227] VFR_HUD
[10:09:18.178014] [228] HEARTBEAT
[10:09:18.401970] [234] RADIO
[10:09:18.404919] [234] RADIO_STATUS
[10:09:18.752009] [229] VFR_HUD
[10:09:19.117043] [230] HEARTBEAT
[10:09:19.124044] [231] ATTITUDE_TARGET
[10:09:19.551128] [235] RADIO
[10:09:19.554071] [235] RADIO_STATUS
[10:09:19.590119] [232] VFR_HUD
[10:09:20.127178] [233] HEARTBEAT
[10:09:20.361414] [234] VFR_HUD
[10:09:20.388151] [236] RADIO
[10:09:20.391096] [236] RADIO_STATUS
[10:09:21.183419] [235] HEARTBEAT
[10:09:21.190429] [236] SYS_STATUS
[10:09:21.230445] [237] BATTERY_STATUS
[10:09:21.238518] [238] ATTITUDE_TARGET
[10:09:21.242347] [239] VFR_HUD
[10:09:21.390299] [237] RADIO
[10:09:21.393248] [237] RADIO_STATUS
[10:09:22.101344] [240] VFR_HUD
[10:09:22.104308] [241] HEARTBEAT
[10:09:22.429354] [238] RADIO
[10:09:22.432311] [238] RADIO_STATUS
[10:09:22.780399] [242] VFR_HUD
[10:09:23.129480] [243] HEARTBEAT
[10:09:23.137467] [244] ATTITUDE_TARGET
[10:09:23.459569] [239] RADIO
[10:09:23.462467] [239] RADIO_STATUS
[10:09:23.579538] [245] VFR_HUD
[10:09:24.160542] [246] HEARTBEAT
[10:09:24.389594] [247] VFR_HUD
[10:09:24.498606] [240] RADIO
[10:09:24.501780] [240] RADIO_STATUS
[10:09:25.321711] [250] BATTERY_STATUS
[10:09:25.322641] [251] EXTENDED_SYS_STATE
[10:09:25.442844] [252] ATTITUDE_TARGET
[10:09:25.448316] [253] VFR_HUD
[10:09:25.450673] [254] SYSTEM_TIME
[10:09:25.485806] [241] RADIO
[10:09:25.488842] [241] RADIO_STATUS
[10:09:25.998809] [255] VFR_HUD
[10:09:26.104862] [0] HEARTBEAT
[10:09:26.447792] [242] RADIO
[10:09:26.450783] [242] RADIO_STATUS
[10:09:26.798978] [1] VFR_HUD
[10:09:27.162860] [2] HEARTBEAT
[10:09:27.171001] [3] ATTITUDE_TARGET
[10:09:27.597928] [243] RADIO
[10:09:27.600829] [243] RADIO_STATUS
[10:09:28.174010] [5] HEARTBEAT
[10:09:28.302994] [6] VFR_HUD
[10:09:28.423969] [244] RADIO
[10:09:28.426948] [244] RADIO_STATUS
[10:09:29.093111] [7] HEARTBEAT
[10:09:29.117813] [8] SYS_STATUS
[10:09:29.231104] [9] BATTERY_STATUS
[10:09:29.344221] [10] ATTITUDE_TARGET
[10:09:29.349037] [11] VFR_HUD
[10:09:29.436091] [245] RADIO
[10:09:29.439139] [245] RADIO_STATUS
[10:09:29.907243] [12] VFR_HUD
[10:09:30.132173] [13] HEARTBEAT
[10:09:30.481205] [246] RADIO
[10:09:30.484250] [246] RADIO_STATUS
[10:09:30.706482] [14] VFR_HUD
[10:09:31.175305] [15] HEARTBEAT
[10:09:31.183253] [16] ATTITUDE_TARGET
[10:09:31.505334] [247] RADIO
[10:09:31.508241] [247] RADIO_STATUS
[10:09:31.626274] [17] VFR_HUD
[10:09:32.317943] [19] VFR_HUD
[10:09:32.430406] [248] RADIO
[10:09:32.432326] [248] RADIO_STATUS
[10:09:33.132476] [20] HEARTBEAT
[10:09:33.139421] [21] SYS_STATUS
[10:09:33.469497] [249] RADIO
[10:09:33.472433] [249] RADIO_STATUS
[10:09:33.924664] [25] VFR_HUD
[10:09:34.150525] [26] HEARTBEAT
[10:09:34.493568] [250] RADIO
[10:09:34.497893] [250] RADIO_STATUS
[10:09:34.734639] [27] VFR_HUD
[10:09:35.203767] [28] HEARTBEAT
[10:09:35.210663] [29] ATTITUDE_TARGET
[10:09:35.642777] [251] RADIO
[10:09:35.645830] [251] RADIO_STATUS
[10:09:36.108807] [31] HEARTBEAT
[10:09:36.348797] [32] VFR_HUD
[10:09:36.463803] [252] RADIO
[10:09:36.466743] [252] RADIO_STATUS
[10:09:37.150895] [33] HEARTBEAT
[10:09:37.157876] [34] SYS_STATUS
[10:09:37.271885] [35] BATTERY_STATUS
[10:09:37.389862] [36] ATTITUDE_TARGET
[10:09:37.394832] [37] VFR_HUD
[10:09:37.481822] [253] RADIO
[10:09:37.484900] [253] RADIO_STATUS
[10:09:37.957909] [38] VFR_HUD
[10:09:38.178008] [39] HEARTBEAT
[10:09:38.526965] [254] RADIO
[10:09:38.529937] [254] RADIO_STATUS
[10:09:38.752027] [40] VFR_HUD
[10:09:39.111122] [41] HEARTBEAT
[10:09:39.119131] [42] ATTITUDE_TARGET
[10:09:39.551176] [255] RADIO
[10:09:39.554107] [255] RADIO_STATUS
[10:09:39.590151] [43] VFR_HUD
[10:09:40.362176] [45] VFR_HUD
[10:09:40.471141] [0] RADIO
[10:09:40.474134] [0] RADIO_STATUS
[10:09:41.179250] [46] HEARTBEAT
[10:09:41.187207] [47] SYS_STATUS
[10:09:41.510294] [1] RADIO
[10:09:41.513269] [1] RADIO_STATUS
[10:09:41.971324] [51] VFR_HUD
[10:09:42.092321] [52] HEARTBEAT
[10:09:42.540323] [2] RADIO
[10:09:42.543295] [2] RADIO_STATUS
[10:09:42.780580] [53] VFR_HUD
[10:09:43.129461] [54] HEARTBEAT
[10:09:43.137458] [55] ATTITUDE_TARGET
[10:09:43.689758] [3] RADIO
[10:09:43.692535] [3] RADIO_STATUS
[10:09:44.160627] [57] HEARTBEAT
[10:09:44.389667] [58] VFR_HUD
[10:09:44.499606] [4] RADIO
[10:09:44.502618] [4] RADIO_STATUS
[10:09:45.197771] [59] HEARTBEAT
[10:09:45.203761] [60] SYS_STATUS
[10:09:45.321833] [61] BATTERY_STATUS
[10:09:45.323814] [62] EXTENDED_SYS_STATE
[10:09:45.442780] [63] ATTITUDE_TARGET
[10:09:45.447747] [64] VFR_HUD
[10:09:45.451780] [65] SYSTEM_TIME
[10:09:45.528763] [5] RADIO
[10:09:45.531692] [5] RADIO_STATUS
[10:09:45.999771] [66] VFR_HUD
[10:09:46.104896] [67] HEARTBEAT
[10:09:46.568969] [6] RADIO
[10:09:46.571913] [6] RADIO_STATUS
[10:09:46.798874] [68] VFR_HUD
[10:09:47.162988] [69] HEARTBEAT
[10:09:47.170922] [70] ATTITUDE_TARGET
[10:09:47.598012] [7] RADIO
[10:09:47.600933] [7] RADIO_STATUS
[10:09:47.636065] [71] VFR_HUD
[10:09:48.298301] [73] VFR_HUD
[10:09:48.517095] [8] RADIO
[10:09:48.520074] [8] RADIO_STATUS
[10:09:49.105235] [74] HEARTBEAT
[10:09:49.112152] [75] SYS_STATUS
[10:09:49.232191] [76] BATTERY_STATUS
[10:09:49.557206] [9] RADIO
[10:09:49.560200] [9] RADIO_STATUS
[10:09:49.907282] [79] VFR_HUD
[10:09:50.138298] [80] HEARTBEAT
[10:09:50.586313] [10] RADIO
[10:09:50.589520] [10] RADIO_STATUS
[10:09:50.707348] [81] VFR_HUD
[10:09:51.176537] [82] HEARTBEAT
[10:09:51.184437] [83] ATTITUDE_TARGET
[10:09:51.517460] [84] VFR_HUD
[10:09:51.736377] [11] RADIO
[10:09:51.739333] [11] RADIO_STATUS
[10:09:52.082449] [85] HEARTBEAT
[10:09:52.316425] [86] VFR_HUD
[10:09:52.550508] [12] RADIO
[10:09:52.553486] [12] RADIO_STATUS
[10:09:53.133576] [87] HEARTBEAT
[10:09:53.140545] [88] SYS_STATUS
[10:09:53.258616] [89] BATTERY_STATUS
[10:09:53.266560] [90] ATTITUDE_TARGET
[10:09:53.296559] [91] VFR_HUD
[10:09:53.575626] [13] RADIO
[10:09:53.577575] [13] RADIO_STATUS
[10:09:54.150670] [93] HEARTBEAT
[10:09:54.619985] [14] RADIO
[10:09:54.622853] [14] RADIO_STATUS
[10:09:54.740755] [94] VFR_HUD
[10:09:55.204014] [95] HEARTBEAT
[10:09:55.211883] [96] ATTITUDE_TARGET
[10:09:55.535131] [97] VFR_HUD
[10:09:55.567018] [15] RADIO
[10:09:55.569846] [15] RADIO_STATUS
[10:09:56.109933] [98] HEARTBEAT
[10:09:56.349957] [99] VFR_HUD
[10:09:56.563937] [16] RADIO
[10:09:56.566882] [16] RADIO_STATUS
[10:09:57.152112] [100] HEARTBEAT
[10:09:57.158098] [101] SYS_STATUS
[10:09:57.278031] [102] BATTERY_STATUS
[10:09:57.510031] [103] ATTITUDE_TARGET
[10:09:57.515026] [104] VFR_HUD
[10:09:57.608046] [17] RADIO
[10:09:57.611010] [17] RADIO_STATUS
[10:09:57.959106] [105] VFR_HUD
[10:09:58.179203] [106] HEARTBEAT
[10:09:58.632169] [18] RADIO
[10:09:58.635139] [18] RADIO_STATUS
[10:09:58.753142] [107] VFR_HUD
[10:09:59.112209] [108] HEARTBEAT
[10:09:59.120210] [109] ATTITUDE_TARGET
[10:09:59.563273] [110] VFR_HUD
[10:09:59.782265] [19] RADIO
[10:09:59.785275] [19] RADIO_STATUS
[10:10:00.128342] [111] HEARTBEAT
[10:10:00.363325] [112] VFR_HUD
[10:10:00.597351] [20] RADIO
[10:10:00.600378] [20] RADIO_STATUS
[10:10:01.180500] [113] HEARTBEAT
[10:10:01.186422] [114] SYS_STATUS
[10:10:01.305538] [115] BATTERY_STATUS
[10:10:01.313492] [116] ATTITUDE_TARGET
[10:10:01.343566] [117] VFR_HUD
[10:10:01.621500] [21] RADIO
[10:10:01.624455] [21] RADIO_STATUS
[10:10:02.197586] [119] HEARTBEAT
[10:10:02.666566] [22] RADIO
[10:10:02.669574] [22] RADIO_STATUS
[10:10:02.781596] [120] VFR_HUD
[10:10:03.250733] [121] HEARTBEAT
[10:10:03.258641] [122] ATTITUDE_TARGET
[10:10:03.581714] [123] VFR_HUD
[10:10:03.613642] [23] RADIO
[10:10:03.616639] [23] RADIO_STATUS
[10:10:04.156997] [124] HEARTBEAT
[10:10:04.390789] [125] VFR_HUD
[10:10:04.610814] [24] RADIO
[10:10:04.613811] [24] RADIO_STATUS
[10:10:05.081854] [126] HEARTBEAT
[10:10:05.213880] [127] SYS_STATUS
[10:10:05.221851] [128] BATTERY_STATUS
[10:10:05.223833] [129] EXTENDED_SYS_STATE
[10:10:05.246871] [130] ATTITUDE_TARGET
[10:10:05.251852] [131] VFR_HUD
[10:10:05.255960] [132] SYSTEM_TIME
[10:10:05.654898] [25] RADIO
[10:10:05.657895] [25] RADIO_STATUS
[10:10:06.115948] [133] VFR_HUD
[10:10:06.119007] [134] HEARTBEAT
[10:10:06.679025] [26] RADIO
[10:10:06.682031] [26] RADIO_STATUS
[10:10:06.800112] [135] VFR_HUD
[10:10:07.164193] [136] HEARTBEAT
[10:10:07.172284] [137] ATTITUDE_TARGET
[10:10:07.615139] [138] VFR_HUD
[10:10:07.829150] [27] RADIO
[10:10:07.832130] [27] RADIO_STATUS
[10:10:08.175192] [139] HEARTBEAT
[10:10:08.300258] [140] VFR_HUD
[10:10:08.639216] [28] RADIO
[10:10:08.642206] [28] RADIO_STATUS
[10:10:09.107340] [141] HEARTBEAT
[10:10:09.114270] [142] SYS_STATUS
[10:10:09.235125] [143] BATTERY_STATUS
[10:10:09.346358] [144] ATTITUDE_TARGET
[10:10:09.351407] [145] VFR_HUD
[10:10:09.668397] [29] RADIO
[10:10:09.671337] [29] RADIO_STATUS
[10:10:09.909423] [146] VFR_HUD
[10:10:10.140411] [147] HEARTBEAT
[10:10:10.709442] [148] VFR_HUD
[10:10:10.736495] [30] RADIO
[10:10:10.738824] [30] RADIO_STATUS
[10:10:11.297621] [149] HEARTBEAT
[10:10:11.304565] [150] ATTITUDE_TARGET
[10:10:11.518610] [151] VFR_HUD
[10:10:11.627565] [31] RADIO
[10:10:11.630570] [31] RADIO_STATUS
[10:10:12.208697] [152] HEARTBEAT
[10:10:12.657948] [32] RADIO
[10:10:12.660716] [32] RADIO_STATUS
[10:10:13.140976] [154] HEARTBEAT
[10:10:13.147832] [155] SYS_STATUS
[10:10:13.186838] [156] BATTERY_STATUS
[10:10:13.194785] [157] ATTITUDE_TARGET
[10:10:13.199760] [158] VFR_HUD
[10:10:13.696841] [33] RADIO
[10:10:13.699759] [33] RADIO_STATUS
[10:10:14.163890] [159] VFR_HUD
[10:10:14.166858] [160] HEARTBEAT
[10:10:14.726889] [34] RADIO
[10:10:14.729855] [34] RADIO_STATUS
[10:10:14.764958] [161] VFR_HUD
[10:10:15.211984] [162] HEARTBEAT
[10:10:15.219006] [163] ATTITUDE_TARGET
[10:10:15.537067] [164] VFR_HUD
[10:10:15.646023] [35] RADIO
[10:10:15.649045] [35] RADIO_STATUS
[10:10:16.112077] [165] HEARTBEAT
[10:10:16.352132] [166] VFR_HUD
[10:10:16.686214] [36] RADIO
[10:10:16.689121] [36] RADIO_STATUS
[10:10:17.154319] [167] HEARTBEAT
[10:10:17.161828] [168] SYS_STATUS
[10:10:17.281243] [169] BATTERY_STATUS
[10:10:17.393380] [170] ATTITUDE_TARGET
[10:10:17.398378] [171] VFR_HUD
[10:10:17.715288] [37] RADIO
[10:10:17.718370] [37] RADIO_STATUS
[10:10:17.956355] [172] VFR_HUD
[10:10:18.181366] [173] HEARTBEAT
[10:10:18.756430] [174] VFR_HUD
[10:10:18.784267] [38] RADIO
[10:10:18.786347] [38] RADIO_STATUS
[10:10:19.115656] [175] HEARTBEAT
[10:10:19.123458] [176] ATTITUDE_TARGET
[10:10:19.565452] [177] VFR_HUD
[10:10:19.680488] [39] RADIO
[10:10:19.683468] [39] RADIO_STATUS
[10:10:20.131577] [178] HEARTBEAT
[10:10:20.704589] [40] RADIO
[10:10:20.707557] [40] RADIO_STATUS
[10:10:21.182711] [180] HEARTBEAT
[10:10:21.189858] [181] SYS_STATUS
[10:10:21.307662] [182] BATTERY_STATUS
[10:10:21.315697] [183] ATTITUDE_TARGET
[10:10:21.345680] [184] VFR_HUD
[10:10:21.743797] [41] RADIO
[10:10:21.746734] [41] RADIO_STATUS
[10:10:21.974806] [185] VFR_HUD
[10:10:22.089848] [186] HEARTBEAT
[10:10:22.773838] [42] RADIO
[10:10:22.776866] [42] RADIO_STATUS
[10:10:22.811866] [187] VFR_HUD
[10:10:23.133921] [188] HEARTBEAT
[10:10:23.141929] [189] ATTITUDE_TARGET
[10:10:23.584127] [190] VFR_HUD
[10:10:23.693933] [43] RADIO
[10:10:23.696978] [43] RADIO_STATUS
[10:10:24.159148] [191] HEARTBEAT
[10:10:24.399105] [192] VFR_HUD
[10:10:24.738109] [44] RADIO
[10:10:24.741045] [44] RADIO_STATUS
[10:10:25.079372] [193] HEARTBEAT
[10:10:25.099196] [194] SYS_STATUS
[10:10:25.137253] [195] BATTERY_STATUS
[10:10:25.139179] [196] EXTENDED_SYS_STATE
[10:10:25.147167] [197] ATTITUDE_TARGET
[10:10:25.152153] [198] VFR_HUD
[10:10:25.155142] [199] SYSTEM_TIME
[10:10:25.762293] [45] RADIO
[10:10:25.765268] [45] RADIO_STATUS
[10:10:26.008227] [200] VFR_HUD
[10:10:26.693329] [202] VFR_HUD
[10:10:26.807306] [46] RADIO
[10:10:26.810280] [46] RADIO_STATUS
[10:10:27.162430] [203] HEARTBEAT
[10:10:27.170468] [204] ATTITUDE_TARGET
[10:10:27.618468] [205] VFR_HUD
[10:10:27.738504] [47] RADIO
[10:10:27.741416] [47] RADIO_STATUS
[10:10:28.178555] [206] HEARTBEAT
[10:10:28.302544] [207] VFR_HUD
[10:10:28.751585] [48] RADIO
[10:10:28.754596] [48] RADIO_STATUS
[10:10:29.109617] [208] HEARTBEAT
[10:10:29.116633] [209] SYS_STATUS
[10:10:29.231636] [210] BATTERY_STATUS
[10:10:29.348600] [211] ATTITUDE_TARGET
[10:10:29.353694] [212] VFR_HUD
[10:10:29.796667] [49] RADIO
[10:10:29.799631] [49] RADIO_STATUS
[10:10:29.911803] [213] VFR_HUD
[10:10:30.142808] [214] HEARTBEAT
[10:10:30.820799] [50] RADIO
[10:10:30.823781] [50] RADIO_STATUS
[10:10:31.180812] [216] HEARTBEAT
[10:10:31.188874] [217] ATTITUDE_TARGET
[10:10:31.526844] [218] VFR_HUD
[10:10:31.740879] [51] RADIO
[10:10:31.743835] [51] RADIO_STATUS
[10:10:32.086965] [219] HEARTBEAT
[10:10:32.320959] [220] VFR_HUD
[10:10:32.784996] [52] RADIO
[10:10:32.787955] [52] RADIO_STATUS
[10:10:33.143078] [221] HEARTBEAT
[10:10:33.150105] [222] SYS_STATUS
[10:10:33.190231] [223] BATTERY_STATUS
[10:10:33.197121] [224] ATTITUDE_TARGET
[10:10:33.202006] [225] VFR_HUD
[10:10:33.810106] [53] RADIO
[10:10:33.813124] [53] RADIO_STATUS
[10:10:34.285165] [226] VFR_HUD
[10:10:34.288190] [227] HEARTBEAT
[10:10:34.745485] [228] VFR_HUD
[10:10:34.866196] [54] RADIO
[10:10:34.869223] [54] RADIO_STATUS
[10:10:35.214264] [229] HEARTBEAT
[10:10:35.222715] [230] ATTITUDE_TARGET
[10:10:35.540307] [231] VFR_HUD
[10:10:35.769287] [55] RADIO
[10:10:35.772269] [55] RADIO_STATUS
[10:10:36.120407] [232] HEARTBEAT
[10:10:36.350415] [233] VFR_HUD
[10:10:36.799400] [56] RADIO
[10:10:36.802379] [56] RADIO_STATUS
[10:10:37.165893] [234] HEARTBEAT
[10:10:37.166066] [235] SYS_STATUS
[10:10:37.283553] [236] BATTERY_STATUS
[10:10:37.396537] [237] ATTITUDE_TARGET
[10:10:37.400470] [238] VFR_HUD
[10:10:37.838569] [57] RADIO
[10:10:37.841469] [57] RADIO_STATUS
[10:10:37.959571] [239] VFR_HUD
[10:10:38.189654] [240] HEARTBEAT
[10:10:38.867629] [58] RADIO
[10:10:38.870645] [58] RADIO_STATUS
[10:10:39.117751] [242] HEARTBEAT
[10:10:39.125624] [243] ATTITUDE_TARGET
[10:10:39.568761] [244] VFR_HUD
[10:10:39.787656] [59] RADIO
[10:10:39.790623] [59] RADIO_STATUS
[10:10:40.133805] [245] HEARTBEAT
[10:10:40.367850] [246] VFR_HUD
[10:10:40.826829] [60] RADIO
[10:10:40.829801] [60] RADIO_STATUS
[10:10:41.184936] [247] HEARTBEAT
[10:10:41.191851] [248] SYS_STATUS
[10:10:41.310900] [249] BATTERY_STATUS
[10:10:41.318884] [250] ATTITUDE_TARGET
[10:10:41.348857] [251] VFR_HUD
[10:10:41.856931] [61] RADIO
[10:10:41.859871] [61] RADIO_STATUS
[10:10:41.894902] [252] VFR_HUD
[10:10:42.093008] [253] HEARTBEAT
[10:10:42.781973] [62] RADIO
[10:10:42.784954] [62] RADIO_STATUS
[10:10:42.814946] [254] VFR_HUD
[10:10:43.136074] [255] HEARTBEAT
[10:10:43.144243] [0] ATTITUDE_TARGET
[10:10:43.587089] [1] VFR_HUD
[10:10:43.816107] [63] RADIO
[10:10:43.819046] [63] RADIO_STATUS
[10:10:44.165760] [2] HEARTBEAT
[10:10:44.402173] [3] VFR_HUD
[10:10:44.846278] [64] RADIO
[10:10:44.848221] [64] RADIO_STATUS
[10:10:45.204306] [4] HEARTBEAT
[10:10:45.211323] [5] SYS_STATUS
[10:10:45.333346] [6] BATTERY_STATUS
[10:10:45.335284] [7] EXTENDED_SYS_STATE
[10:10:45.367405] [8] ATTITUDE_TARGET
[10:10:45.372305] [9] VFR_HUD
[10:10:45.376280] [10] SYSTEM_TIME
[10:10:45.885381] [65] RADIO
[10:10:45.888362] [65] RADIO_STATUS
[10:10:46.011342] [11] VFR_HUD
[10:10:46.123381] [12] HEARTBEAT
[10:10:46.696414] [13] VFR_HUD
[10:10:46.915487] [66] RADIO
[10:10:46.918448] [66] RADIO_STATUS
[10:10:47.165518] [14] HEARTBEAT
[10:10:47.173542] [15] ATTITUDE_TARGET
[10:10:47.495563] [16] VFR_HUD
[10:10:47.837157] [67] RADIO
[10:10:47.837592] [67] RADIO_STATUS
[10:10:48.181672] [17] HEARTBEAT
[10:10:48.306283] [18] VFR_HUD
[10:10:48.874788] [68] RADIO
[10:10:48.877679] [68] RADIO_STATUS
[10:10:49.235079] [21] BATTERY_STATUS
[10:10:49.351863] [22] ATTITUDE_TARGET
[10:10:49.356725] [23] VFR_HUD
[10:10:49.903796] [69] RADIO
[10:10:49.906778] [69] RADIO_STATUS
[10:10:49.942761] [24] VFR_HUD
[10:10:50.140880] [25] HEARTBEAT
[10:10:50.714871] [26] VFR_HUD
[10:10:50.823810] [70] RADIO
[10:10:50.826791] [70] RADIO_STATUS
[10:10:51.183929] [27] HEARTBEAT
[10:10:51.191873] [28] ATTITUDE_TARGET
[10:10:51.530046] [29] VFR_HUD
[10:10:51.869031] [71] RADIO
[10:10:51.871956] [71] RADIO_STATUS
[10:10:52.090414] [30] HEARTBEAT
[10:10:52.324071] [31] VFR_HUD
[10:10:52.893102] [72] RADIO
[10:10:52.896047] [72] RADIO_STATUS
[10:10:53.146176] [32] HEARTBEAT
[10:10:53.153156] [33] SYS_STATUS
[10:10:53.192186] [34] BATTERY_STATUS
[10:10:53.200158] [35] ATTITUDE_TARGET
[10:10:53.205155] [36] VFR_HUD
[10:10:53.937224] [73] RADIO
[10:10:53.940189] [73] RADIO_STATUS
[10:10:54.168480] [37] VFR_HUD
[10:10:54.171288] [38] HEARTBEAT
[10:10:54.742364] [39] VFR_HUD
[10:10:54.962321] [74] RADIO
[10:10:54.965299] [74] RADIO_STATUS
[10:10:55.211382] [40] HEARTBEAT
[10:10:55.219322] [41] ATTITUDE_TARGET
[10:10:55.542399] [42] VFR_HUD
[10:10:55.881362] [75] RADIO
[10:10:55.884360] [75] RADIO_STATUS
[10:10:56.123678] [43] HEARTBEAT
[10:10:56.352451] [44] VFR_HUD
[10:10:56.926439] [76] RADIO
[10:10:56.929447] [76] RADIO_STATUS
[10:10:57.281595] [47] BATTERY_STATUS
[10:10:57.398506] [48] ATTITUDE_TARGET
[10:10:57.403514] [49] VFR_HUD
[10:10:57.846566] [77] RADIO
[10:10:57.849555] [77] RADIO_STATUS
[10:10:57.961586] [50] VFR_HUD
[10:10:58.192689] [51] HEARTBEAT
[10:10:58.761684] [52] VFR_HUD
[10:10:58.870703] [78] RADIO
[10:10:58.873806] [78] RADIO_STATUS
[10:10:59.125983] [53] HEARTBEAT
[10:10:59.133909] [54] ATTITUDE_TARGET
[10:10:59.570835] [55] VFR_HUD
[10:10:59.915957] [79] RADIO
[10:10:59.918792] [79] RADIO_STATUS
[10:11:00.136869] [56] HEARTBEAT
[10:11:00.373097] [57] VFR_HUD
[10:11:00.939896] [80] RADIO
[10:11:00.942859] [80] RADIO_STATUS
[10:11:01.192979] [58] HEARTBEAT
[10:11:01.199943] [59] SYS_STATUS
[10:11:01.239057] [60] BATTERY_STATUS
[10:11:01.246915] [61] ATTITUDE_TARGET
[10:11:01.251939] [62] VFR_HUD
[10:11:01.859114] [81] RADIO
[10:11:01.862421] [81] RADIO_STATUS
[10:11:02.106084] [63] VFR_HUD
[10:11:02.109030] [64] HEARTBEAT
[10:11:02.795118] [65] VFR_HUD
[10:11:03.009292] [82] RADIO
[10:11:03.012077] [82] RADIO_STATUS
[10:11:03.139157] [66] HEARTBEAT
[10:11:03.147149] [67] ATTITUDE_TARGET
[10:11:03.589329] [68] VFR_HUD
[10:11:03.928265] [83] RADIO
[10:11:03.931193] [83] RADIO_STATUS
[10:11:04.164331] [69] HEARTBEAT
[10:11:04.404287] [70] VFR_HUD
[10:11:04.968360] [84] RADIO
[10:11:04.971396] [84] RADIO_STATUS
[10:11:05.336509] [73] BATTERY_STATUS
[10:11:05.337520] [74] EXTENDED_SYS_STATE
[10:11:05.369952] [75] ATTITUDE_TARGET
[10:11:05.374501] [76] VFR_HUD
[10:11:05.378493] [77] SYSTEM_TIME
[10:11:05.888562] [78] VFR_HUD
[10:11:05.915465] [85] RADIO
[10:11:05.918477] [85] RADIO_STATUS
[10:11:06.113661] [79] HEARTBEAT
[10:11:06.697742] [80] VFR_HUD
[10:11:06.917622] [86] RADIO
[10:11:06.920586] [86] RADIO_STATUS
[10:11:07.167874] [81] HEARTBEAT
[10:11:07.174657] [82] ATTITUDE_TARGET
