[14:57:17.409767] [13] HEARTBEAT
[14:57:17.535834] [14] SYS_STATUS
[14:57:17.543834] [15] BATTERY_STATUS
[14:57:17.652851] [16] ATTITUDE_TARGET
[14:57:17.657768] [17] VFR_HUD
[14:57:17.980841] [88] RADIO
[14:57:17.983807] [88] RADIO_STATUS
[14:57:18.331031] [18] VFR_HUD
[14:57:18.442952] [19] HEARTBEAT
[14:57:19.005089] [89] RADIO
[14:57:19.007999] [89] RADIO_STATUS
[14:57:19.044044] [20] VFR_HUD
[14:57:19.490060] [21] HEARTBEAT
[14:57:19.498093] [22] ATTITUDE_TARGET
[14:57:19.925192] [90] RADIO
[14:57:19.928267] [90] RADIO_STATUS
[14:57:19.963139] [23] VFR_HUD
[14:57:20.501256] [24] HEARTBEAT
[14:57:20.735506] [25] VFR_HUD
[14:57:20.964302] [91] RADIO
[14:57:20.967375] [91] RADIO_STATUS
[14:57:21.432451] [26] HEARTBEAT
[14:57:21.439439] [27] SYS_STATUS
[14:57:21.559421] [28] BATTERY_STATUS
[14:57:21.671498] [29] ATTITUDE_TARGET
[14:57:21.676446] [30] VFR_HUD
[14:57:21.994484] [92] RADIO
[14:57:21.997434] [92] RADIO_STATUS
[14:57:22.234526] [31] VFR_HUD
[14:57:22.465595] [32] HEARTBEAT
[14:57:23.034704] [33] VFR_HUD
[14:57:23.061692] [93] RADIO
[14:57:23.064653] [93] RADIO_STATUS
[14:57:23.503872] [34] HEARTBEAT
[14:57:23.510820] [35] ATTITUDE_TARGET
[14:57:23.843791] [36] VFR_HUD
[14:57:23.952791] [94] RADIO
[14:57:23.955928] [94] RADIO_STATUS
[14:57:24.534953] [37] HEARTBEAT
[14:57:24.643935] [38] VFR_HUD
[14:57:24.982983] [95] RADIO
[14:57:24.985985] [95] RADIO_STATUS
[14:57:25.466120] [39] HEARTBEAT
[14:57:25.473251] [40] SYS_STATUS
[14:57:25.512061] [41] BATTERY_STATUS
[14:57:25.520128] [42] ATTITUDE_TARGET
[14:57:25.525039] [43] VFR_HUD
[14:57:26.023226] [96] RADIO
[14:57:26.025101] [96] RADIO_STATUS
[14:57:26.489359] [44] VFR_HUD
[14:57:26.492231] [45] HEARTBEAT
[14:57:27.052256] [97] RADIO
[14:57:27.055356] [97] RADIO_STATUS
[14:57:27.091307] [46] VFR_HUD
[14:57:27.537375] [47] HEARTBEAT
[14:57:27.545393] [48] ATTITUDE_TARGET
[14:57:27.863474] [49] VFR_HUD
[14:57:27.972518] [98] RADIO
[14:57:27.975475] [98] RADIO_STATUS
[14:57:28.438547] [50] HEARTBEAT
[14:57:28.677687] [51] VFR_HUD
[14:57:29.011669] [99] RADIO
[14:57:29.014779] [99] RADIO_STATUS
[14:57:29.479859] [52] HEARTBEAT
[14:57:29.486775] [53] SYS_STATUS
[14:57:29.609803] [54] BATTERY_STATUS
[14:57:29.610766] [55] EXTENDED_SYS_STATE
[14:57:29.643856] [56] ATTITUDE_TARGET
[14:57:29.648790] [57] VFR_HUD
[14:57:29.651835] [58] SYSTEM_TIME
[14:57:30.041869] [100] RADIO
[14:57:30.043758] [100] RADIO_STATUS
[14:57:30.281886] [59] VFR_HUD
[14:57:30.507950] [60] HEARTBEAT
[14:57:31.082036] [61] VFR_HUD
[14:57:31.109015] [101] RADIO
[14:57:31.111956] [101] RADIO_STATUS
[14:57:31.441208] [62] HEARTBEAT
[14:57:31.448185] [63] ATTITUDE_TARGET
[14:57:31.891131] [64] VFR_HUD
[14:57:32.001118] [102] RADIO
[14:57:32.003050] [102] RADIO_STATUS
[14:57:32.458111] [65] HEARTBEAT
[14:57:32.691249] [66] VFR_HUD
[14:57:33.030427] [103] RADIO
[14:57:33.033375] [103] RADIO_STATUS
[14:57:33.508361] [67] HEARTBEAT
[14:57:33.515414] [68] SYS_STATUS
[14:57:33.633365] [69] BATTERY_STATUS
[14:57:33.641343] [70] ATTITUDE_TARGET
[14:57:33.671531] [71] VFR_HUD
[14:57:34.070470] [104] RADIO
[14:57:34.072437] [104] RADIO_STATUS
[14:57:34.300648] [72] VFR_HUD
[14:57:34.415698] [73] HEARTBEAT
[14:57:34.994529] [105] RADIO
[14:57:34.997590] [105] RADIO_STATUS
[14:57:35.110574] [74] VFR_HUD
[14:57:35.459603] [75] HEARTBEAT
[14:57:35.466584] [76] ATTITUDE_TARGET
[14:57:35.909861] [77] VFR_HUD
[14:57:36.018703] [106] RADIO
[14:57:36.021653] [106] RADIO_STATUS
[14:57:36.484813] [78] HEARTBEAT
[14:57:36.724785] [79] VFR_HUD
[14:57:37.063936] [107] RADIO
[14:57:37.066999] [107] RADIO_STATUS
[14:57:38.088026] [108] RADIO
[14:57:38.090970] [108] RADIO_STATUS
[14:57:38.444006] [85] VFR_HUD
[14:57:38.447044] [86] HEARTBEAT
[14:57:39.018258] [87] VFR_HUD
[14:57:39.133217] [109] RADIO
[14:57:39.136216] [109] RADIO_STATUS
[14:57:39.597251] [88] HEARTBEAT
[14:57:39.605309] [89] ATTITUDE_TARGET
[14:57:39.818224] [90] VFR_HUD
[14:57:40.052377] [110] RADIO
[14:57:40.055324] [110] RADIO_STATUS
[14:57:40.503322] [91] HEARTBEAT
[14:57:41.076641] [111] RADIO
[14:57:41.079438] [111] RADIO_STATUS
[14:57:41.435557] [93] HEARTBEAT
[14:57:41.441535] [94] SYS_STATUS
[14:57:41.673599] [96] ATTITUDE_TARGET
[14:57:41.679171] [97] VFR_HUD
[14:57:42.121661] [112] RADIO
[14:57:42.124737] [112] RADIO_STATUS
[14:57:42.467752] [99] HEARTBEAT
[14:57:43.036744] [100] VFR_HUD
[14:57:43.068707] [113] RADIO
[14:57:43.071773] [113] RADIO_STATUS
[14:57:43.851865] [103] VFR_HUD
[14:57:44.065962] [114] RADIO
[14:57:44.068896] [114] RADIO_STATUS
[14:57:44.412007] [104] HEARTBEAT
[14:57:44.646040] [105] VFR_HUD
[14:57:45.111069] [115] RADIO
[14:57:45.113022] [115] RADIO_STATUS
[14:57:46.135398] [116] RADIO
[14:57:46.140892] [116] RADIO_STATUS
[14:57:46.491303] [111] VFR_HUD
[14:57:46.494256] [112] HEARTBEAT
[14:57:47.054386] [117] RADIO
[14:57:47.057326] [117] RADIO_STATUS
[14:57:47.097772] [113] VFR_HUD
[14:57:47.401577] [114] HEARTBEAT
[14:57:47.643452] [115] ATTITUDE_TARGET
[14:57:47.865551] [116] VFR_HUD
[14:57:48.094540] [118] RADIO
[14:57:48.097461] [118] RADIO_STATUS
[14:57:48.445585] [117] HEARTBEAT
[14:57:49.123624] [119] RADIO
[14:57:49.126626] [119] RADIO_STATUS
[14:57:49.481921] [119] HEARTBEAT
[14:57:49.488777] [120] SYS_STATUS
[14:57:49.611713] [121] BATTERY_STATUS
[14:57:49.613653] [122] EXTENDED_SYS_STATE
[14:57:49.645728] [123] ATTITUDE_TARGET
[14:57:49.650693] [124] VFR_HUD
[14:57:49.653645] [125] SYSTEM_TIME
[14:57:50.163756] [120] RADIO
[14:57:50.166751] [120] RADIO_STATUS
[14:57:50.514830] [127] HEARTBEAT
[14:57:51.083896] [128] VFR_HUD
[14:57:51.110969] [121] RADIO
[14:57:51.113891] [121] RADIO_STATUS
[14:57:51.893047] [131] VFR_HUD
[14:57:52.112068] [122] RADIO
[14:57:52.115112] [122] RADIO_STATUS
[14:57:52.459221] [132] HEARTBEAT
[14:57:52.693138] [133] VFR_HUD
[14:57:53.152213] [123] RADIO
[14:57:53.155260] [123] RADIO_STATUS
[14:57:53.635284] [136] BATTERY_STATUS
[14:57:53.643228] [137] ATTITUDE_TARGET
[14:57:53.673279] [138] VFR_HUD
[14:57:54.181373] [124] RADIO
[14:57:54.184306] [124] RADIO_STATUS
[14:57:54.220315] [139] VFR_HUD
[14:57:55.101470] [125] RADIO
[14:57:55.104425] [125] RADIO_STATUS
[14:57:55.142048] [141] VFR_HUD
[14:57:55.461622] [142] HEARTBEAT
[14:57:55.468641] [143] ATTITUDE_TARGET
[14:57:55.911602] [144] VFR_HUD
[14:57:56.140662] [126] RADIO
[14:57:56.143615] [126] RADIO_STATUS
[14:57:56.487558] [145] HEARTBEAT
[14:57:56.830778] [146] VFR_HUD
[14:57:57.173739] [127] RADIO
[14:57:57.173878] [127] RADIO_STATUS
[14:57:57.418879] [147] HEARTBEAT
[14:57:57.425908] [148] SYS_STATUS
[14:57:57.543815] [149] BATTERY_STATUS
[14:57:57.551837] [150] ATTITUDE_TARGET
[14:57:57.581926] [151] VFR_HUD
[14:57:58.210998] [152] VFR_HUD
[14:57:58.237979] [128] RADIO
[14:57:58.240923] [128] RADIO_STATUS
[14:57:58.435988] [153] HEARTBEAT
[14:57:59.130208] [129] RADIO
[14:57:59.133046] [129] RADIO_STATUS
[14:57:59.820262] [157] VFR_HUD
[14:58:00.159438] [130] RADIO
[14:58:00.162280] [130] RADIO_STATUS
[14:58:00.505348] [158] HEARTBEAT
[14:58:01.199435] [131] RADIO
[14:58:01.202369] [131] RADIO_STATUS
[14:58:01.676528] [163] ATTITUDE_TARGET
[14:58:01.681650] [164] VFR_HUD
[14:58:02.228601] [132] RADIO
[14:58:02.231574] [132] RADIO_STATUS
[14:58:02.267615] [165] VFR_HUD
[14:58:03.041850] [167] VFR_HUD
[14:58:03.148717] [133] RADIO
[14:58:03.151686] [133] RADIO_STATUS
[14:58:03.508822] [168] HEARTBEAT
[14:58:03.516861] [169] ATTITUDE_TARGET
[14:58:03.958850] [170] VFR_HUD
[14:58:04.193851] [134] RADIO
[14:58:04.196818] [134] RADIO_STATUS
[14:58:04.415159] [171] HEARTBEAT
[14:58:04.649001] [172] VFR_HUD
[14:58:05.218005] [135] RADIO
[14:58:05.220945] [135] RADIO_STATUS
[14:58:05.471057] [173] HEARTBEAT
[14:58:05.478086] [174] SYS_STATUS
[14:58:05.518148] [175] BATTERY_STATUS
[14:58:05.525190] [176] ATTITUDE_TARGET
[14:58:05.530124] [177] VFR_HUD
[14:58:06.263216] [136] RADIO
[14:58:06.266236] [136] RADIO_STATUS
[14:58:07.190375] [180] VFR_HUD
[14:58:07.211357] [137] RADIO
[14:58:07.214372] [137] RADIO_STATUS
[14:58:07.404354] [181] HEARTBEAT
[14:58:07.426396] [182] ATTITUDE_TARGET
[14:58:07.868414] [183] VFR_HUD
[14:58:08.207498] [138] RADIO
[14:58:08.210453] [138] RADIO_STATUS
[14:58:08.448540] [184] HEARTBEAT
[14:58:09.252648] [139] RADIO
[14:58:09.255643] [139] RADIO_STATUS
[14:58:10.171971] [140] RADIO
[14:58:10.174879] [140] RADIO_STATUS
[14:58:10.287819] [193] VFR_HUD
[14:58:10.888355] JAMMING_START
[14:58:11.086966] [195] VFR_HUD
[14:58:11.196012] [141] RADIO
[14:58:11.198901] [141] RADIO_STATUS
[14:58:11.446001] [196] HEARTBEAT
[14:58:11.454060] [197] ATTITUDE_TARGET
[14:58:12.241252] [142] RADIO
[14:58:12.244252] [142] RADIO_STATUS
[14:58:12.462283] [199] HEARTBEAT
[14:58:12.696330] [200] VFR_HUD
[14:58:13.265298] [143] RADIO
[14:58:13.268328] [143] RADIO_STATUS
[14:58:13.518389] [201] HEARTBEAT
[14:58:13.525400] [202] SYS_STATUS
[14:58:13.565396] [203] BATTERY_STATUS
[14:58:13.572331] [204] ATTITUDE_TARGET
[14:58:13.577335] [205] VFR_HUD
[14:58:14.185504] [144] RADIO
[14:58:14.188456] [144] RADIO_STATUS
[14:58:15.225783] [208] VFR_HUD
[14:58:15.236681] [145] RADIO
[14:58:15.239624] [145] RADIO_STATUS
[14:58:15.466022] [209] HEARTBEAT
[14:58:15.472690] [210] ATTITUDE_TARGET
[14:58:15.915782] [211] VFR_HUD
[14:58:16.254809] [146] RADIO
[14:58:16.259879] [146] RADIO_STATUS
[14:58:16.834939] [213] VFR_HUD
[14:58:17.292974] [147] RADIO
[14:58:17.295913] [147] RADIO_STATUS
[14:58:17.771292] [217] ATTITUDE_TARGET
[14:58:17.774998] [218] VFR_HUD
[14:58:18.214045] [219] VFR_HUD
[14:58:18.241068] [148] RADIO
[14:58:18.244011] [148] RADIO_STATUS
[14:58:18.439135] [220] HEARTBEAT
[14:58:19.242277] [149] RADIO
[14:58:19.245296] [149] RADIO_STATUS
[14:58:19.492262] [222] HEARTBEAT
[14:58:19.500251] [223] ATTITUDE_TARGET
[14:58:19.823314] [224] VFR_HUD
[14:58:20.392441] [150] RADIO
[14:58:20.395384] [150] RADIO_STATUS
[14:58:20.508413] [225] HEARTBEAT
[14:58:20.742452] [226] VFR_HUD
[14:58:21.311507] [151] RADIO
[14:58:21.314453] [151] RADIO_STATUS
[14:58:21.561594] [229] BATTERY_STATUS
[14:58:21.678586] [230] ATTITUDE_TARGET
[14:58:21.683646] [231] VFR_HUD
[14:58:22.231640] [152] RADIO
[14:58:22.234648] [152] RADIO_STATUS
[14:58:22.476809] [233] HEARTBEAT
[14:58:23.041801] [234] VFR_HUD
[14:58:23.273780] [153] RADIO
[14:58:23.274003] [153] RADIO_STATUS
[14:58:23.510959] [235] HEARTBEAT
[14:58:23.518975] [236] ATTITUDE_TARGET
[14:58:23.857073] [237] VFR_HUD
[14:58:24.301978] [154] RADIO
[14:58:24.302960] [154] RADIO_STATUS
[14:58:24.417058] [238] HEARTBEAT
[14:58:24.651108] [239] VFR_HUD
[14:58:25.340394] [155] RADIO
[14:58:25.343412] [155] RADIO_STATUS
[14:58:25.817341] [243] ATTITUDE_TARGET
[14:58:25.822244] [244] VFR_HUD
[14:58:26.260286] [245] VFR_HUD
[14:58:26.287414] [156] RADIO
[14:58:26.290349] [156] RADIO_STATUS
[14:58:26.485364] [246] HEARTBEAT
[14:58:27.289498] [157] RADIO
[14:58:27.292533] [157] RADIO_STATUS
[14:58:27.539764] [248] HEARTBEAT
[14:58:27.547710] [249] ATTITUDE_TARGET
[14:58:27.870644] [250] VFR_HUD
[14:58:28.328733] [158] RADIO
[14:58:28.331657] [158] RADIO_STATUS
[14:58:28.450660] [251] HEARTBEAT
[14:58:28.679685] [252] VFR_HUD
[14:58:29.358859] [159] RADIO
[14:58:29.361836] [159] RADIO_STATUS
[14:58:29.611928] [255] BATTERY_STATUS
[14:58:29.612865] [0] EXTENDED_SYS_STATE
[14:58:29.732978] [1] ATTITUDE_TARGET
[14:58:29.737900] [2] VFR_HUD
[14:58:29.740881] [3] SYSTEM_TIME
[14:58:30.278983] [160] RADIO
[14:58:30.280953] [160] RADIO_STATUS
[14:58:30.399021] [4] VFR_HUD
[14:58:30.418321] [5] HEARTBEAT
[14:58:31.089234] [6] VFR_HUD
[14:58:31.323204] [161] RADIO
[14:58:31.326196] [161] RADIO_STATUS
[14:58:31.904304] [9] VFR_HUD
[14:58:32.348349] [162] RADIO
[14:58:32.351258] [162] RADIO_STATUS
[14:58:32.464369] [10] HEARTBEAT
[14:58:32.698356] [11] VFR_HUD
[14:58:33.392426] [163] RADIO
[14:58:33.395671] [163] RADIO_STATUS
[14:58:34.312586] [164] RADIO
[14:58:34.315664] [164] RADIO_STATUS
[14:58:34.433574] [17] VFR_HUD
[14:58:34.436537] [18] HEARTBEAT
[14:58:35.336725] [165] RADIO
[14:58:35.339666] [165] RADIO_STATUS
[14:58:35.466834] [20] HEARTBEAT
[14:58:35.474783] [21] ATTITUDE_TARGET
[14:58:36.381964] [166] RADIO
[14:58:36.383911] [166] RADIO_STATUS
[14:58:36.498010] [23] HEARTBEAT
[14:58:36.727293] [24] VFR_HUD
[14:58:37.409776] [167] RADIO
[14:58:37.409953] [167] RADIO_STATUS
[14:58:37.661267] [27] BATTERY_STATUS
[14:58:37.773225] [28] ATTITUDE_TARGET
[14:58:37.778181] [29] VFR_HUD
[14:58:38.216276] [30] VFR_HUD
[14:58:38.325272] [168] RADIO
[14:58:38.328195] [168] RADIO_STATUS
[14:58:38.441307] [31] HEARTBEAT
[14:58:39.026351] [32] VFR_HUD
[14:58:39.370454] [169] RADIO
[14:58:39.373362] [169] RADIO_STATUS
[14:58:39.604543] [33] HEARTBEAT
[14:58:39.612427] [34] ATTITUDE_TARGET
[14:58:39.837640] [35] VFR_HUD
[14:58:40.394568] [170] RADIO
[14:58:40.397563] [170] RADIO_STATUS
[14:58:40.510649] [36] HEARTBEAT
[14:58:40.745677] [37] VFR_HUD
[14:58:41.442832] [38] HEARTBEAT
[14:58:41.450016] [39] SYS_STATUS
[14:58:41.461815] [171] RADIO
[14:58:41.464747] [171] RADIO_STATUS
[14:58:41.910903] [41] ATTITUDE_TARGET
[14:58:41.916111] [42] VFR_HUD
[14:58:42.250149] [43] VFR_HUD
[14:58:42.365988] [172] RADIO
[14:58:42.368938] [172] RADIO_STATUS
[14:58:42.479053] [44] HEARTBEAT
[14:58:43.045067] [45] VFR_HUD
[14:58:43.384152] [173] RADIO
[14:58:43.387094] [173] RADIO_STATUS
[14:58:43.513903] [46] HEARTBEAT
[14:58:43.521188] [47] ATTITUDE_TARGET
[14:58:43.964317] [48] VFR_HUD
[14:58:44.419410] [49] HEARTBEAT
[14:58:44.533351] [174] RADIO
[14:58:44.536270] [174] RADIO_STATUS
[14:58:44.654349] [50] VFR_HUD
[14:58:45.342448] [175] RADIO
[14:58:45.345595] [175] RADIO_STATUS
[14:58:45.634526] [55] VFR_HUD
[14:58:46.262664] [56] VFR_HUD
[14:58:46.371683] [176] RADIO
[14:58:46.374706] [176] RADIO_STATUS
[14:58:46.415713] [57] HEARTBEAT
[14:58:47.072781] [58] VFR_HUD
[14:58:47.407878] [59] HEARTBEAT
[14:58:47.430811] [60] ATTITUDE_TARGET
[14:58:47.440157] [177] RADIO
[14:58:47.442141] [177] RADIO_STATUS
[14:58:47.883857] [61] VFR_HUD
[14:58:48.440022] [178] RADIO
[14:58:48.442899] [178] RADIO_STATUS
[14:58:48.681005] [63] VFR_HUD
[14:58:49.360119] [179] RADIO
[14:58:49.363110] [179] RADIO_STATUS
[14:58:49.488124] [64] HEARTBEAT
[14:58:49.495160] [65] SYS_STATUS
[14:58:50.296303] [71] VFR_HUD
[14:58:50.409777] [72] HEARTBEAT
[14:58:50.432308] [180] RADIO
[14:58:50.435376] [180] RADIO_STATUS
[14:58:51.090403] [73] VFR_HUD
[14:58:51.429443] [181] RADIO
[14:58:51.432671] [181] RADIO_STATUS
[14:58:51.477435] [74] HEARTBEAT
[14:58:51.485498] [75] ATTITUDE_TARGET
[14:58:52.009509] [76] VFR_HUD
[14:58:52.465613] [77] HEARTBEAT
[14:58:52.578573] [182] RADIO
[14:58:52.581533] [182] RADIO_STATUS
[14:58:52.701783] [78] VFR_HUD
[14:58:53.388715] [183] RADIO
[14:58:53.391695] [183] RADIO_STATUS
[14:58:54.417916] [184] RADIO
[14:58:54.420894] [184] RADIO_STATUS
[14:58:55.118986] [86] VFR_HUD
[14:58:55.568144] [185] RADIO
[14:58:55.570996] [185] RADIO_STATUS
[14:58:55.808084] [89] VFR_HUD
[14:58:56.487245] [186] RADIO
[14:58:56.490232] [186] RADIO_STATUS
[14:58:56.608270] [91] VFR_HUD
[14:58:57.407387] [187] RADIO
[14:58:57.410348] [187] RADIO_STATUS
[14:58:57.466377] [92] HEARTBEAT
[14:58:57.473394] [93] SYS_STATUS
[14:58:57.481426] [94] BATTERY_STATUS
[14:58:57.543413] [95] ATTITUDE_TARGET
[14:58:57.548354] [96] VFR_HUD
[14:58:58.217486] [97] VFR_HUD
[14:58:58.442618] [98] HEARTBEAT
[14:58:58.556791] [188] RADIO
[14:58:58.559616] [188] RADIO_STATUS
[14:58:59.032659] [99] VFR_HUD
[14:58:59.475817] [189] RADIO
[14:58:59.478824] [189] RADIO_STATUS
[14:58:59.523764] [100] HEARTBEAT
[14:58:59.531720] [101] ATTITUDE_TARGET
[14:58:59.826903] [102] VFR_HUD
[14:59:00.515906] [190] RADIO
[14:59:00.518896] [190] RADIO_STATUS
[14:59:00.745954] [104] VFR_HUD
[14:59:01.444057] [105] HEARTBEAT
[14:59:01.451075] [106] SYS_STATUS
[14:59:01.463031] [191] RADIO
[14:59:01.465988] [191] RADIO_STATUS
[14:59:01.802173] [108] ATTITUDE_TARGET
[14:59:01.807223] [109] VFR_HUD
[14:59:02.465323] [192] RADIO
[14:59:02.468228] [192] RADIO_STATUS
[14:59:02.581320] [111] HEARTBEAT
[14:59:03.046338] [112] VFR_HUD
[14:59:03.515486] [113] HEARTBEAT
[14:59:03.522556] [114] ATTITUDE_TARGET
[14:59:03.532435] [193] RADIO
[14:59:03.535425] [193] RADIO_STATUS
[14:59:04.421631] [116] HEARTBEAT
[14:59:04.452503] [194] RADIO
[14:59:04.455503] [194] RADIO_STATUS
[14:59:04.655600] [117] VFR_HUD
[14:59:05.454672] [195] RADIO
[14:59:05.457700] [195] RADIO_STATUS
[14:59:05.585280] [118] HEARTBEAT
[14:59:05.589801] [119] SYS_STATUS
[14:59:06.264830] [123] VFR_HUD
[14:59:06.489834] [124] HEARTBEAT
[14:59:06.521865] [196] RADIO
[14:59:06.524842] [196] RADIO_STATUS
[14:59:07.524033] [197] RADIO
[14:59:07.526967] [197] RADIO_STATUS
[14:59:07.653060] [126] HEARTBEAT
[14:59:07.661051] [127] ATTITUDE_TARGET
[14:59:07.876252] [128] VFR_HUD
[14:59:08.568339] [198] RADIO
[14:59:08.571192] [198] RADIO_STATUS
[14:59:08.689353] [130] VFR_HUD
[14:59:09.491309] [131] HEARTBEAT
[14:59:09.498288] [132] SYS_STATUS
[14:59:09.511231] [199] RADIO
[14:59:09.514203] [199] RADIO_STATUS
[14:59:10.413933] [139] HEARTBEAT
[14:59:10.512563] [200] RADIO
[14:59:10.515393] [200] RADIO_STATUS
[14:59:11.093568] [140] VFR_HUD
[14:59:11.557657] [201] RADIO
[14:59:11.560547] [201] RADIO_STATUS
[14:59:12.012694] [143] VFR_HUD
[14:59:12.468781] [144] HEARTBEAT
[14:59:12.581755] [202] RADIO
[14:59:12.584737] [202] RADIO_STATUS
[14:59:12.713794] [145] VFR_HUD
[14:59:13.520008] [146] HEARTBEAT
[14:59:13.526965] [147] SYS_STATUS
[14:59:13.645074] [148] BATTERY_STATUS
[14:59:13.653064] [149] ATTITUDE_TARGET
[14:59:13.683018] [150] VFR_HUD
[14:59:13.711045] [203] RADIO
[14:59:13.713924] [203] RADIO_STATUS
[14:59:14.312070] [151] VFR_HUD
[14:59:14.433109] [152] HEARTBEAT
[14:59:14.541101] [204] RADIO
[14:59:14.544076] [204] RADIO_STATUS
[14:59:15.133272] [153] VFR_HUD
[14:59:15.571319] [205] RADIO
[14:59:15.574281] [205] RADIO_STATUS
[14:59:15.701770] [154] HEARTBEAT
[14:59:15.708316] [155] ATTITUDE_TARGET
[14:59:15.922321] [156] VFR_HUD
[14:59:16.611497] [158] VFR_HUD
[14:59:16.638900] [206] RADIO
[14:59:16.641449] [206] RADIO_STATUS
[14:59:17.530607] [207] RADIO
[14:59:17.533606] [207] RADIO_STATUS
[14:59:18.560934] [208] RADIO
[14:59:18.563756] [208] RADIO_STATUS
[14:59:19.035945] [166] VFR_HUD
[14:59:19.600019] [209] RADIO
[14:59:19.602937] [209] RADIO_STATUS
[14:59:19.831007] [169] VFR_HUD
[14:59:20.406140] [170] HEARTBEAT
[14:59:20.633172] [210] RADIO
[14:59:20.636086] [210] RADIO_STATUS
[14:59:21.448289] [172] HEARTBEAT
[14:59:21.454398] [173] SYS_STATUS
[14:59:21.549327] [211] RADIO
[14:59:21.552213] [211] RADIO_STATUS
[14:59:21.619695] [174] BATTERY_STATUS
[14:59:21.627343] [175] ATTITUDE_TARGET
[14:59:21.631288] [176] VFR_HUD
[14:59:22.595426] [177] VFR_HUD
[14:59:22.598410] [178] HEARTBEAT
[14:59:22.605409] [212] RADIO
[14:59:22.608404] [212] RADIO_STATUS
[14:59:23.049715] [179] VFR_HUD
[14:59:23.618640] [213] RADIO
[14:59:23.621578] [213] RADIO_STATUS
[14:59:23.859662] [182] VFR_HUD
[14:59:24.424781] [183] HEARTBEAT
[14:59:24.658799] [184] VFR_HUD
[14:59:24.685805] [214] RADIO
[14:59:24.688757] [214] RADIO_STATUS
[14:59:25.601968] [187] BATTERY_STATUS
[14:59:25.609930] [188] ATTITUDE_TARGET
[14:59:25.639906] [189] VFR_HUD
[14:59:25.666930] [215] RADIO
[14:59:25.669892] [215] RADIO_STATUS
[14:59:26.269066] [190] VFR_HUD
[14:59:26.494243] [191] HEARTBEAT
[14:59:26.608108] [216] RADIO
[14:59:26.611102] [216] RADIO_STATUS
[14:59:27.084221] [192] VFR_HUD
[14:59:27.427273] [193] HEARTBEAT
[14:59:27.435337] [194] ATTITUDE_TARGET
[14:59:27.647308] [217] RADIO
[14:59:27.650608] [217] RADIO_STATUS
[14:59:27.878311] [195] VFR_HUD
[14:59:28.453384] [196] HEARTBEAT
[14:59:28.677383] [218] RADIO
[14:59:28.680392] [218] RADIO_STATUS
[14:59:29.495604] [198] HEARTBEAT
[14:59:29.501578] [199] SYS_STATUS
[14:59:29.596555] [219] RADIO
[14:59:29.599558] [219] RADIO_STATUS
[14:59:29.661642] [200] BATTERY_STATUS
[14:59:29.662530] [201] EXTENDED_SYS_STATE
[14:59:29.670601] [202] ATTITUDE_TARGET
[14:59:29.675559] [203] VFR_HUD
[14:59:29.679521] [204] SYSTEM_TIME
[14:59:30.423796] [206] HEARTBEAT
[14:59:30.641821] [220] RADIO
[14:59:30.644684] [220] RADIO_STATUS
[14:59:31.096799] [207] VFR_HUD
[14:59:31.665936] [221] RADIO
[14:59:31.668884] [221] RADIO_STATUS
[14:59:31.906946] [210] VFR_HUD
[14:59:32.472033] [211] HEARTBEAT
[14:59:32.739036] [222] RADIO
[14:59:32.742007] [222] RADIO_STATUS
[14:59:33.649329] [215] BATTERY_STATUS
[14:59:33.657234] [216] ATTITUDE_TARGET
[14:59:33.687231] [217] VFR_HUD
[14:59:33.715432] [223] RADIO
[14:59:33.718244] [223] RADIO_STATUS
[14:59:34.206298] [218] VFR_HUD
[14:59:34.655360] [224] RADIO
[14:59:34.658412] [224] RADIO_STATUS
[14:59:35.126410] [220] VFR_HUD
[14:59:35.475494] [221] HEARTBEAT
[14:59:35.482458] [222] ATTITUDE_TARGET
[14:59:35.703438] [225] RADIO
[14:59:35.706463] [225] RADIO_STATUS
[14:59:35.925538] [223] VFR_HUD
[14:59:36.500839] [224] HEARTBEAT
[14:59:36.615774] [225] VFR_HUD
[14:59:36.647674] [226] RADIO
[14:59:36.650723] [226] RADIO_STATUS
[14:59:37.437873] [226] HEARTBEAT
[14:59:37.444817] [227] SYS_STATUS
[14:59:37.483922] [228] BATTERY_STATUS
[14:59:37.491870] [229] ATTITUDE_TARGET
[14:59:37.496868] [230] VFR_HUD
[14:59:37.644830] [227] RADIO
[14:59:37.647802] [227] RADIO_STATUS
[14:59:38.580097] [231] VFR_HUD
[14:59:38.583012] [232] HEARTBEAT
[14:59:38.689142] [228] RADIO
[14:59:38.693822] [228] RADIO_STATUS
[14:59:39.144174] [233] VFR_HUD
[14:59:39.714177] [229] RADIO
[14:59:39.717410] [229] RADIO_STATUS
[14:59:39.834365] [236] VFR_HUD
[14:59:40.415353] [237] HEARTBEAT
[14:59:40.863414] [230] RADIO
[14:59:40.866314] [230] RADIO_STATUS
[14:59:41.690571] [242] ATTITUDE_TARGET
[14:59:41.695763] [243] VFR_HUD
[14:59:41.701604] [231] RADIO
[14:59:41.704664] [231] RADIO_STATUS
[14:59:42.253597] [244] VFR_HUD
[14:59:42.702824] [232] RADIO
[14:59:42.705969] [232] RADIO_STATUS
[14:59:43.064976] [246] VFR_HUD
[14:59:43.397831] [247] HEARTBEAT
[14:59:43.520901] [248] ATTITUDE_TARGET
[14:59:43.741882] [233] RADIO
[14:59:43.744872] [233] RADIO_STATUS
[14:59:44.428060] [250] HEARTBEAT
[14:59:44.662058] [251] VFR_HUD
[14:59:44.689040] [234] RADIO
[14:59:44.691985] [234] RADIO_STATUS
[14:59:45.531298] [254] BATTERY_STATUS
[14:59:45.538189] [255] ATTITUDE_TARGET
[14:59:45.543185] [0] VFR_HUD
[14:59:45.691227] [235] RADIO
[14:59:45.694220] [235] RADIO_STATUS
[14:59:46.632415] [1] VFR_HUD
[14:59:46.635368] [2] HEARTBEAT
[14:59:46.730355] [236] RADIO
[14:59:46.733384] [236] RADIO_STATUS
[14:59:47.430652] [4] HEARTBEAT
[14:59:47.438481] [5] ATTITUDE_TARGET
[14:59:47.760614] [237] RADIO
[14:59:47.763517] [237] RADIO_STATUS
[14:59:47.880808] [6] VFR_HUD
[14:59:48.465702] [7] HEARTBEAT
[14:59:48.799743] [8] VFR_HUD
[14:59:48.908729] [238] RADIO
[14:59:48.911749] [238] RADIO_STATUS
[14:59:49.496865] [9] HEARTBEAT
[14:59:49.503886] [10] SYS_STATUS
[14:59:49.718902] [239] RADIO
[14:59:49.721906] [239] RADIO_STATUS
[14:59:50.299028] [16] VFR_HUD
[14:59:50.405125] [17] HEARTBEAT
[14:59:50.748065] [240] RADIO
[14:59:50.751006] [240] RADIO_STATUS
[14:59:51.099153] [18] VFR_HUD
[14:59:51.567309] [19] HEARTBEAT
[14:59:51.575298] [20] ATTITUDE_TARGET
[14:59:51.787244] [241] RADIO
[14:59:51.790198] [241] RADIO_STATUS
[14:59:52.473430] [22] HEARTBEAT
[14:59:52.708368] [23] VFR_HUD
[14:59:52.735556] [242] RADIO
[14:59:52.738446] [242] RADIO_STATUS
[14:59:53.650629] [26] BATTERY_STATUS
[14:59:53.658578] [27] ATTITUDE_TARGET
[14:59:53.688582] [28] VFR_HUD
[14:59:53.737580] [243] RADIO
[14:59:53.739534] [243] RADIO_STATUS
[14:59:54.212654] [29] VFR_HUD
[14:59:54.776751] [244] RADIO
[14:59:54.779772] [244] RADIO_STATUS
[14:59:55.007854] [31] VFR_HUD
[14:59:55.477102] [32] HEARTBEAT
[14:59:55.484084] [33] ATTITUDE_TARGET
[14:59:55.805959] [245] RADIO
[14:59:55.808915] [245] RADIO_STATUS
[14:59:55.844960] [34] VFR_HUD
[14:59:56.512079] [35] HEARTBEAT
[14:59:56.617036] [36] VFR_HUD
[14:59:56.846084] [246] RADIO
[14:59:56.849122] [246] RADIO_STATUS
[14:59:57.770251] [247] RADIO
[14:59:57.773240] [247] RADIO_STATUS
[14:59:58.461448] [42] VFR_HUD
[14:59:58.464428] [43] HEARTBEAT
[14:59:58.795458] [248] RADIO
[14:59:58.798431] [248] RADIO_STATUS
[14:59:59.617122] [45] HEARTBEAT
[14:59:59.621633] [46] ATTITUDE_TARGET
[14:59:59.836042] [47] VFR_HUD
[14:59:59.862646] [249] RADIO
[14:59:59.865567] [249] RADIO_STATUS
[15:00:00.416482] [48] HEARTBEAT
[15:00:00.644652] [49] VFR_HUD
[15:00:00.759720] [250] RADIO
[15:00:00.762628] [250] RADIO_STATUS
[15:00:01.451857] [50] HEARTBEAT
[15:00:01.458856] [51] SYS_STATUS
[15:00:01.690847] [53] ATTITUDE_TARGET
[15:00:01.695825] [54] VFR_HUD
[15:00:01.784242] [251] RADIO
[15:00:01.786889] [251] RADIO_STATUS
[15:00:02.266096] [55] VFR_HUD
[15:00:02.829018] [252] RADIO
[15:00:02.832076] [252] RADIO_STATUS
[15:00:03.054218] [57] VFR_HUD
[15:00:03.522241] [59] ATTITUDE_TARGET
[15:00:03.853163] [253] RADIO
[15:00:03.856144] [253] RADIO_STATUS
[15:00:03.892200] [60] VFR_HUD
[15:00:04.429331] [61] HEARTBEAT
[15:00:04.663287] [62] VFR_HUD
[15:00:04.773302] [254] RADIO
[15:00:04.775274] [254] RADIO_STATUS
[15:00:05.817651] [255] RADIO
[15:00:05.820467] [255] RADIO_STATUS
[15:00:06.508644] [68] VFR_HUD
[15:00:06.511615] [69] HEARTBEAT
[15:00:06.841624] [0] RADIO
[15:00:06.844661] [0] RADIO_STATUS
[15:00:07.192665] [70] VFR_HUD
[15:00:07.431740] [71] HEARTBEAT
[15:00:07.439758] [72] ATTITUDE_TARGET
[15:00:07.881851] [73] VFR_HUD
[15:00:07.914788] [1] RADIO
[15:00:07.916774] [1] RADIO_STATUS
[15:00:08.462897] [74] HEARTBEAT
[15:00:08.691917] [75] VFR_HUD
[15:00:08.800915] [2] RADIO
[15:00:08.803875] [2] RADIO_STATUS
[15:00:09.831118] [3] RADIO
[15:00:09.834095] [3] RADIO_STATUS
[15:00:10.406341] [84] HEARTBEAT
[15:00:10.870390] [4] RADIO
[15:00:10.873463] [4] RADIO_STATUS
[15:00:11.101348] [85] VFR_HUD
[15:00:11.569438] [86] HEARTBEAT
[15:00:11.577450] [87] ATTITUDE_TARGET
[15:00:11.900548] [5] RADIO
[15:00:11.903782] [5] RADIO_STATUS
[15:00:12.020646] [88] VFR_HUD
[15:00:12.476576] [89] HEARTBEAT
[15:00:12.710628] [90] VFR_HUD
[15:00:12.819593] [6] RADIO
[15:00:12.822586] [6] RADIO_STATUS
[15:00:13.395691] [91] HEARTBEAT
[15:00:13.416082] [92] SYS_STATUS
[15:00:13.859756] [7] RADIO
[15:00:13.861689] [7] RADIO_STATUS
[15:00:14.319878] [96] VFR_HUD
[15:00:14.435024] [97] HEARTBEAT
[15:00:14.888931] [8] RADIO
[15:00:14.892039] [8] RADIO_STATUS
[15:00:15.009906] [98] VFR_HUD
[15:00:15.479042] [99] HEARTBEAT
[15:00:15.486153] [100] ATTITUDE_TARGET
[15:00:15.929099] [101] VFR_HUD
[15:00:15.940117] [9] RADIO
[15:00:15.943119] [9] RADIO_STATUS
[15:00:16.504227] [102] HEARTBEAT
[15:00:16.620269] [103] VFR_HUD
[15:00:16.848337] [10] RADIO
[15:00:16.851334] [10] RADIO_STATUS
[15:00:17.611345] [108] VFR_HUD
[15:00:17.878412] [11] RADIO
[15:00:17.880354] [11] RADIO_STATUS
[15:00:18.228594] [109] VFR_HUD
[15:00:18.454476] [110] HEARTBEAT
[15:00:18.917548] [12] RADIO
[15:00:18.920506] [12] RADIO_STATUS
[15:00:19.038530] [111] VFR_HUD
[15:00:19.616695] [112] HEARTBEAT
[15:00:19.625919] [113] ATTITUDE_TARGET
[15:00:19.864929] [13] RADIO
[15:00:19.867761] [13] RADIO_STATUS
[15:00:20.757070] [116] VFR_HUD
[15:00:20.866824] [14] RADIO
[15:00:20.869817] [14] RADIO_STATUS
[15:00:21.454950] [117] HEARTBEAT
[15:00:21.461936] [118] SYS_STATUS
[15:00:21.906009] [15] RADIO
[15:00:21.908977] [15] RADIO_STATUS
[15:00:22.367102] [122] VFR_HUD
[15:00:22.482171] [123] HEARTBEAT
[15:00:22.936232] [16] RADIO
[15:00:22.939133] [16] RADIO_STATUS
[15:00:23.057265] [124] VFR_HUD
[15:00:23.409780] [125] HEARTBEAT
[15:00:23.525268] [126] ATTITUDE_TARGET
[15:00:23.976321] [127] VFR_HUD
[15:00:23.987278] [17] RADIO
[15:00:23.990315] [17] RADIO_STATUS
[15:00:24.431422] [128] HEARTBEAT
[15:00:24.666369] [129] VFR_HUD
[15:00:24.900397] [18] RADIO
[15:00:24.903374] [18] RADIO_STATUS
[15:00:25.925640] [19] RADIO
[15:00:25.928580] [19] RADIO_STATUS
[15:00:26.275597] [135] VFR_HUD
[15:00:26.405819] [136] HEARTBEAT
[15:00:26.969698] [20] RADIO
[15:00:26.972633] [20] RADIO_STATUS
[15:00:27.085701] [137] VFR_HUD
[15:00:27.994823] [21] RADIO
[15:00:27.997826] [21] RADIO_STATUS
[15:00:28.706054] [142] VFR_HUD
[15:00:28.913973] [22] RADIO
[15:00:28.917070] [22] RADIO_STATUS
[15:00:29.502282] [143] HEARTBEAT
[15:00:29.509792] [144] SYS_STATUS
[15:00:29.959295] [23] RADIO
[15:00:29.962173] [23] RADIO_STATUS
[15:00:30.316400] [150] VFR_HUD
[15:00:30.410330] [151] HEARTBEAT
[15:00:30.983372] [24] RADIO
[15:00:30.986334] [24] RADIO_STATUS
[15:00:31.022379] [152] VFR_HUD
[15:00:31.468496] [153] HEARTBEAT
[15:00:31.477862] [154] ATTITUDE_TARGET
[15:00:32.028640] [25] RADIO
[15:00:32.031614] [25] RADIO_STATUS
[15:00:32.479688] [156] HEARTBEAT
[15:00:32.608634] [157] VFR_HUD
[15:00:32.947647] [26] RADIO
[15:00:32.950632] [26] RADIO_STATUS
[15:00:33.972895] [27] RADIO
[15:00:33.975780] [27] RADIO_STATUS
[15:00:34.040893] [160] BATTERY_STATUS
[15:00:34.048871] [161] ATTITUDE_TARGET
[15:00:34.054061] [162] VFR_HUD
[15:00:34.447941] [164] HEARTBEAT
[15:00:35.013028] [165] VFR_HUD
[15:00:35.044967] [28] RADIO
[15:00:35.047976] [28] RADIO_STATUS
[15:00:36.042148] [29] RADIO
[15:00:36.045165] [29] RADIO_STATUS
[15:00:36.622314] [170] VFR_HUD
[15:00:36.961414] [30] RADIO
[15:00:36.965968] [30] RADIO_STATUS
[15:00:37.439547] [171] HEARTBEAT
[15:00:37.446339] [172] SYS_STATUS
[15:00:37.565403] [173] BATTERY_STATUS
[15:00:37.572400] [174] ATTITUDE_TARGET
[15:00:37.603406] [175] VFR_HUD
[15:00:38.001423] [31] RADIO
[15:00:38.004465] [31] RADIO_STATUS
[15:00:38.457544] [177] HEARTBEAT
[15:00:39.030607] [32] RADIO
[15:00:39.033598] [32] RADIO_STATUS
[15:00:39.151619] [178] VFR_HUD
[15:00:39.510719] [179] HEARTBEAT
[15:00:39.518721] [180] ATTITUDE_TARGET
[15:00:39.841728] [181] VFR_HUD
[15:00:40.070765] [33] RADIO
[15:00:40.073750] [33] RADIO_STATUS
[15:00:40.657989] [183] VFR_HUD
[15:00:40.991089] [34] RADIO
[15:00:40.993877] [34] RADIO_STATUS
[15:00:41.459067] [184] HEARTBEAT
[15:00:41.464983] [185] SYS_STATUS
[15:00:42.020058] [35] RADIO
[15:00:42.022989] [35] RADIO_STATUS
[15:00:42.370159] [189] VFR_HUD
[15:00:42.486160] [190] HEARTBEAT
[15:00:43.060201] [191] VFR_HUD
[15:00:43.087184] [36] RADIO
[15:00:43.090149] [36] RADIO_STATUS
[15:00:43.991350] [37] RADIO
[15:00:43.994334] [37] RADIO_STATUS
[15:00:44.435511] [195] HEARTBEAT
[15:00:44.669472] [196] VFR_HUD
[15:00:45.008530] [38] RADIO
[15:00:45.011474] [38] RADIO_STATUS
[15:00:45.612649] [199] BATTERY_STATUS
[15:00:45.619601] [200] ATTITUDE_TARGET
[15:00:45.650652] [201] VFR_HUD
[15:00:46.049885] [39] RADIO
[15:00:46.051694] [39] RADIO_STATUS
[15:00:46.399852] [203] HEARTBEAT
[15:00:47.077848] [40] RADIO
[15:00:47.080793] [40] RADIO_STATUS
[15:00:47.198946] [204] VFR_HUD
[15:00:47.888043] [207] VFR_HUD
[15:00:48.001757] [41] RADIO
[15:00:48.001897] [41] RADIO_STATUS
[15:00:48.698180] [209] VFR_HUD
[15:00:49.042413] [42] RADIO
[15:00:49.045826] [42] RADIO_STATUS
[15:00:49.505210] [210] HEARTBEAT
[15:00:49.511373] [211] SYS_STATUS
[15:00:50.066308] [43] RADIO
[15:00:50.069295] [43] RADIO_STATUS
[15:00:50.412369] [218] HEARTBEAT
[15:00:51.109751] [219] VFR_HUD
[15:00:51.134350] [44] RADIO
[15:00:51.137345] [44] RADIO_STATUS
[15:00:52.042899] [45] RADIO
[15:00:52.045635] [45] RADIO_STATUS
[15:00:52.482662] [223] HEARTBEAT
[15:00:52.716630] [224] VFR_HUD
[15:00:53.055819] [46] RADIO
[15:00:53.058739] [46] RADIO_STATUS
[15:00:53.402412] [225] HEARTBEAT
[15:00:53.421853] [226] SYS_STATUS
[15:00:53.469916] [227] BATTERY_STATUS
[15:00:53.477965] [228] ATTITUDE_TARGET
[15:00:53.482821] [229] VFR_HUD
[15:00:54.101839] [47] RADIO
[15:00:54.104914] [47] RADIO_STATUS
[15:00:54.458046] [230] VFR_HUD
[15:00:54.460935] [231] HEARTBEAT
[15:00:55.018015] [232] VFR_HUD
[15:00:55.049984] [48] RADIO
[15:00:55.052978] [48] RADIO_STATUS
[15:00:55.827201] [235] VFR_HUD
[15:00:56.046154] [49] RADIO
[15:00:56.049149] [49] RADIO_STATUS
[15:00:56.392206] [236] HEARTBEAT
[15:00:57.091337] [50] RADIO
[15:00:57.094278] [50] RADIO_STATUS
[15:00:57.569415] [240] BATTERY_STATUS
[15:00:57.577541] [241] ATTITUDE_TARGET
[15:00:57.607405] [242] VFR_HUD
[15:00:58.116415] [51] RADIO
[15:00:58.119361] [51] RADIO_STATUS
[15:00:58.236572] [243] VFR_HUD
[15:00:58.462509] [244] HEARTBEAT
[15:00:59.040633] [52] RADIO
[15:00:59.043533] [52] RADIO_STATUS
[15:00:59.074534] [245] VFR_HUD
[15:00:59.845700] [248] VFR_HUD
[15:01:00.075712] [53] RADIO
[15:01:00.078680] [53] RADIO_STATUS
[15:01:00.420781] [249] HEARTBEAT
[15:01:00.765856] [250] VFR_HUD
[15:01:01.104897] [54] RADIO
[15:01:01.107830] [54] RADIO_STATUS
[15:01:01.463019] [251] HEARTBEAT
[15:01:01.469954] [252] SYS_STATUS
[15:01:01.589966] [253] BATTERY_STATUS
[15:01:01.701941] [254] ATTITUDE_TARGET
[15:01:01.706946] [255] VFR_HUD
[15:01:02.145104] [55] RADIO
[15:01:02.148048] [55] RADIO_STATUS
[15:01:02.491315] [1] HEARTBEAT
[15:01:03.065260] [2] VFR_HUD
[15:01:03.092198] [56] RADIO
[15:01:03.095302] [56] RADIO_STATUS
[15:01:03.875368] [5] VFR_HUD
[15:01:04.094426] [57] RADIO
[15:01:04.097389] [57] RADIO_STATUS
[15:01:04.440444] [6] HEARTBEAT
[15:01:05.133630] [58] RADIO
[15:01:05.136544] [58] RADIO_STATUS
[15:01:05.616798] [10] BATTERY_STATUS
[15:01:05.624683] [11] ATTITUDE_TARGET
[15:01:05.655674] [12] VFR_HUD
[15:01:06.163862] [59] RADIO
[15:01:06.167027] [59] RADIO_STATUS
[15:01:06.213742] [13] VFR_HUD
[15:01:07.083013] [60] RADIO
[15:01:07.085987] [60] RADIO_STATUS
[15:01:07.204066] [15] VFR_HUD
[15:01:07.443048] [16] HEARTBEAT
[15:01:07.450988] [17] ATTITUDE_TARGET
[15:01:07.893102] [18] VFR_HUD
[15:01:08.122105] [61] RADIO
[15:01:08.125074] [61] RADIO_STATUS
[15:01:08.469929] [19] HEARTBEAT
[15:01:09.152295] [62] RADIO
[15:01:09.155285] [62] RADIO_STATUS
[15:01:09.393423] [21] HEARTBEAT
[15:01:09.526383] [22] SYS_STATUS
[15:01:09.533343] [23] BATTERY_STATUS
[15:01:09.535352] [24] EXTENDED_SYS_STATE
[15:01:09.559370] [25] ATTITUDE_TARGET
[15:01:09.564337] [26] VFR_HUD
[15:01:09.567316] [27] SYSTEM_TIME
[15:01:10.192526] [63] RADIO
[15:01:10.194468] [63] RADIO_STATUS
[15:01:10.429501] [29] HEARTBEAT
[15:01:11.111574] [30] VFR_HUD
[15:01:11.122607] [64] RADIO
[15:01:11.125549] [64] RADIO_STATUS
[15:01:11.801738] [33] VFR_HUD
[15:01:12.141901] [65] RADIO
[15:01:12.143816] [65] RADIO_STATUS
[15:01:12.486851] [34] HEARTBEAT
[15:01:13.180951] [66] RADIO
[15:01:13.182934] [66] RADIO_STATUS
[15:01:13.658040] [39] ATTITUDE_TARGET
[15:01:13.663027] [40] VFR_HUD
[15:01:14.210109] [67] RADIO
[15:01:14.213068] [67] RADIO_STATUS
[15:01:14.331123] [41] VFR_HUD
[15:01:14.556195] [42] HEARTBEAT
[15:01:15.129284] [68] RADIO
[15:01:15.132369] [68] RADIO_STATUS
[15:01:15.489523] [44] HEARTBEAT
[15:01:15.497415] [45] ATTITUDE_TARGET
[15:01:16.174428] [69] RADIO
[15:01:16.177337] [69] RADIO_STATUS
[15:01:16.395499] [47] HEARTBEAT
[15:01:16.630487] [48] VFR_HUD
[15:01:17.198901] [70] RADIO
[15:01:17.201606] [70] RADIO_STATUS
[15:01:17.452654] [49] HEARTBEAT
[15:01:17.458594] [50] SYS_STATUS
[15:01:17.498624] [51] BATTERY_STATUS
[15:01:17.506593] [52] ATTITUDE_TARGET
[15:01:17.511561] [53] VFR_HUD
[15:01:18.243788] [71] RADIO
[15:01:18.246707] [71] RADIO_STATUS
[15:01:19.158850] [56] VFR_HUD
[15:01:19.174838] [72] RADIO
[15:01:19.177767] [72] RADIO_STATUS
[15:01:19.848068] [59] VFR_HUD
[15:01:20.186994] [73] RADIO
[15:01:20.190097] [73] RADIO_STATUS
[15:01:20.423042] [60] HEARTBEAT
[15:01:21.232165] [74] RADIO
[15:01:21.235119] [74] RADIO_STATUS
[15:01:21.704387] [65] ATTITUDE_TARGET
[15:01:21.709292] [66] VFR_HUD
[15:01:22.152350] [75] RADIO
[15:01:22.155249] [75] RADIO_STATUS
[15:01:22.267344] [67] VFR_HUD
[15:01:23.176615] [76] RADIO
[15:01:23.179433] [76] RADIO_STATUS
[15:01:23.426569] [70] HEARTBEAT
[15:01:23.433558] [71] ATTITUDE_TARGET
[15:01:23.887590] [72] VFR_HUD
[15:01:24.220689] [77] RADIO
[15:01:24.223617] [77] RADIO_STATUS
[15:01:24.441717] [73] HEARTBEAT
[15:01:24.676722] [74] VFR_HUD
[15:01:25.245823] [78] RADIO
[15:01:25.248842] [78] RADIO_STATUS
[15:01:25.618921] [77] BATTERY_STATUS
[15:01:25.626864] [78] ATTITUDE_TARGET
[15:01:25.656869] [79] VFR_HUD
[15:01:26.164965] [79] RADIO
[15:01:26.167960] [79] RADIO_STATUS
[15:01:26.285966] [80] VFR_HUD
[15:01:27.205171] [80] RADIO
[15:01:27.208162] [80] RADIO_STATUS
[15:01:27.445269] [83] HEARTBEAT
[15:01:27.452213] [84] ATTITUDE_TARGET
[15:01:27.895297] [85] VFR_HUD
[15:01:28.234306] [81] RADIO
[15:01:28.237262] [81] RADIO_STATUS
[15:01:28.470354] [86] HEARTBEAT
[15:01:29.279471] [82] RADIO
[15:01:29.282450] [82] RADIO_STATUS
[15:01:30.194664] [83] RADIO
[15:01:30.197595] [83] RADIO_STATUS
[15:01:30.319667] [95] VFR_HUD
[15:01:30.431726] [96] HEARTBEAT
[15:01:31.223934] [84] RADIO
[15:01:31.226881] [84] RADIO_STATUS
[15:01:31.474000] [98] HEARTBEAT
[15:01:31.481897] [99] ATTITUDE_TARGET
[15:01:32.034047] [100] VFR_HUD
[15:01:32.374129] [85] RADIO
[15:01:32.376004] [85] RADIO_STATUS
[15:01:32.408190] [101] HEARTBEAT
[15:01:32.614119] [102] VFR_HUD
[15:01:33.293219] [86] RADIO
[15:01:33.296168] [86] RADIO_STATUS
[15:01:33.421243] [103] HEARTBEAT
[15:01:33.428535] [104] SYS_STATUS
[15:01:33.542356] [105] BATTERY_STATUS
[15:01:33.660471] [106] ATTITUDE_TARGET
[15:01:33.665329] [107] VFR_HUD
[15:01:34.213335] [87] RADIO
[15:01:34.216308] [87] RADIO_STATUS
[15:01:34.333389] [108] VFR_HUD
[15:01:35.023517] [110] VFR_HUD
[15:01:35.253267] [88] RADIO
[15:01:35.255475] [88] RADIO_STATUS
[15:01:35.492673] [111] HEARTBEAT
[15:01:35.500632] [112] ATTITUDE_TARGET
[15:01:35.943630] [113] VFR_HUD
[15:01:36.284410] [89] RADIO
[15:01:36.285648] [89] RADIO_STATUS
[15:01:36.398873] [114] HEARTBEAT
[15:01:36.632857] [115] VFR_HUD
[15:01:37.201860] [90] RADIO
[15:01:37.204811] [90] RADIO_STATUS
[15:01:38.242056] [91] RADIO
[15:01:38.245024] [91] RADIO_STATUS
[15:01:38.478087] [121] VFR_HUD
[15:01:38.481120] [122] HEARTBEAT
[15:01:39.271191] [92] RADIO
[15:01:39.274159] [92] RADIO_STATUS
[15:01:39.526374] [124] HEARTBEAT
[15:01:39.534363] [125] ATTITUDE_TARGET
[15:01:39.852440] [126] VFR_HUD
[15:01:40.421495] [93] RADIO
[15:01:40.424417] [93] RADIO_STATUS
[15:01:40.455438] [127] HEARTBEAT
[15:01:40.661669] [128] VFR_HUD
[15:01:41.236546] [94] RADIO
[15:01:41.238550] [94] RADIO_STATUS
[15:01:41.709370] [132] ATTITUDE_TARGET
[15:01:41.712582] [133] VFR_HUD
[15:01:42.260705] [95] RADIO
[15:01:42.263686] [95] RADIO_STATUS
[15:01:42.381756] [134] VFR_HUD
[15:01:42.399719] [135] HEARTBEAT
[15:01:43.070908] [136] VFR_HUD
[15:01:43.300888] [96] RADIO
[15:01:43.303958] [96] RADIO_STATUS
[15:01:43.539967] [137] HEARTBEAT
[15:01:43.547990] [138] ATTITUDE_TARGET
[15:01:44.329995] [97] RADIO
[15:01:44.332989] [97] RADIO_STATUS
[15:01:44.446091] [140] HEARTBEAT
[15:01:44.680059] [141] VFR_HUD
[15:01:45.249191] [98] RADIO
[15:01:45.252214] [98] RADIO_STATUS
[15:01:45.661222] [146] VFR_HUD
[15:01:46.290376] [147] VFR_HUD
[15:01:46.322314] [99] RADIO
[15:01:46.325348] [99] RADIO_STATUS
[15:01:46.405385] [148] HEARTBEAT
[15:01:47.105453] [149] VFR_HUD
[15:01:47.318442] [100] RADIO
[15:01:47.321362] [100] RADIO_STATUS
[15:01:47.447545] [150] HEARTBEAT
[15:01:47.455527] [151] ATTITUDE_TARGET
[15:01:47.898736] [152] VFR_HUD
[15:01:48.242679] [101] RADIO
[15:01:48.245688] [101] RADIO_STATUS
[15:01:48.473654] [153] HEARTBEAT
[15:01:48.713835] [154] VFR_HUD
[15:01:49.282758] [102] RADIO
[15:01:49.285768] [102] RADIO_STATUS
[15:01:50.197929] [162] VFR_HUD
[15:01:50.306934] [103] RADIO
[15:01:50.309905] [103] RADIO_STATUS
[15:01:50.423910] [163] HEARTBEAT
[15:01:51.008041] [164] VFR_HUD
[15:01:51.352209] [104] RADIO
[15:01:51.355157] [104] RADIO_STATUS
[15:01:51.586234] [165] HEARTBEAT
[15:01:51.594146] [166] ATTITUDE_TARGET
[15:01:52.266328] [105] RADIO
[15:01:52.269308] [105] RADIO_STATUS
[15:01:52.492409] [168] HEARTBEAT
[15:01:53.296445] [106] RADIO
[15:01:53.299440] [106] RADIO_STATUS
[15:01:53.424499] [170] HEARTBEAT
[15:01:53.431558] [171] SYS_STATUS
[15:01:53.892581] [173] ATTITUDE_TARGET
[15:01:53.897528] [174] VFR_HUD
[15:01:54.336585] [175] VFR_HUD
[15:01:54.347609] [107] RADIO
[15:01:54.350575] [107] RADIO_STATUS
[15:01:54.460636] [176] HEARTBEAT
[15:01:55.026718] [177] VFR_HUD
[15:01:55.365776] [108] RADIO
[15:01:55.368701] [108] RADIO_STATUS
[15:01:55.399766] [178] HEARTBEAT
[15:01:55.422768] [179] ATTITUDE_TARGET
[15:01:55.945819] [180] VFR_HUD
[15:01:56.285099] [109] RADIO
[15:01:56.287982] [109] RADIO_STATUS
[15:01:56.410910] [181] HEARTBEAT
[15:01:56.635924] [182] VFR_HUD
[15:01:57.325045] [110] RADIO
[15:01:57.327998] [110] RADIO_STATUS
[15:01:58.354213] [111] RADIO
[15:01:58.357171] [111] RADIO_STATUS
[15:01:59.055351] [190] VFR_HUD
[15:01:59.394514] [112] RADIO
[15:01:59.397329] [112] RADIO_STATUS
[15:02:00.313537] [113] RADIO
[15:02:00.316562] [113] RADIO_STATUS
[15:02:00.663646] [195] VFR_HUD
[15:02:01.342934] [114] RADIO
[15:02:01.345696] [114] RADIO_STATUS
[15:02:01.472396] [196] HEARTBEAT
[15:02:01.477743] [197] SYS_STATUS
[15:02:02.382925] [115] RADIO
[15:02:02.385920] [115] RADIO_STATUS
[15:02:02.503959] [202] HEARTBEAT
[15:02:03.073884] [203] VFR_HUD
[15:02:03.412110] [116] RADIO
[15:02:03.415138] [116] RADIO_STATUS
[15:02:03.481163] [204] HEARTBEAT
[15:02:03.489104] [205] ATTITUDE_TARGET
[15:02:04.332329] [117] RADIO
[15:02:04.335337] [117] RADIO_STATUS
[15:02:04.458361] [207] HEARTBEAT
[15:02:04.682446] [208] VFR_HUD
[15:02:05.371427] [118] RADIO
[15:02:05.374407] [118] RADIO_STATUS
[15:02:06.401062] [119] RADIO
[15:02:06.403672] [119] RADIO_STATUS
[15:02:06.527703] [214] VFR_HUD
[15:02:06.530770] [215] HEARTBEAT
[15:02:07.106755] [216] VFR_HUD
[15:02:07.320864] [120] RADIO
[15:02:07.323872] [120] RADIO_STATUS
[15:02:08.365031] [121] RADIO
[15:02:08.367965] [121] RADIO_STATUS
[15:02:08.821099] [221] VFR_HUD
[15:02:09.390123] [122] RADIO
[15:02:09.393113] [122] RADIO_STATUS
[15:02:09.518231] [222] HEARTBEAT
[15:02:09.525210] [223] SYS_STATUS
[15:02:10.425399] [230] HEARTBEAT
[15:02:10.457499] [123] RADIO
[15:02:10.460388] [123] RADIO_STATUS
[15:02:11.010397] [231] VFR_HUD
[15:02:11.354503] [124] RADIO
[15:02:11.357545] [124] RADIO_STATUS
[15:02:11.588621] [232] HEARTBEAT
[15:02:11.596551] [233] ATTITUDE_TARGET
[15:02:11.809594] [234] VFR_HUD
[15:02:12.378633] [125] RADIO
[15:02:12.381606] [125] RADIO_STATUS
[15:02:12.504624] [235] HEARTBEAT
[15:02:13.426831] [237] HEARTBEAT
[15:02:13.433777] [238] SYS_STATUS
[15:02:13.445799] [126] RADIO
[15:02:13.448723] [126] RADIO_STATUS
[15:02:13.894868] [240] ATTITUDE_TARGET
[15:02:13.899838] [241] VFR_HUD
[15:02:14.338921] [242] VFR_HUD
[15:02:14.447909] [127] RADIO
[15:02:14.450899] [127] RADIO_STATUS
[15:02:14.563963] [243] HEARTBEAT
[15:02:15.029056] [244] VFR_HUD
[15:02:15.373126] [128] RADIO
[15:02:15.376104] [128] RADIO_STATUS
[15:02:16.403395] [248] HEARTBEAT
[15:02:16.435379] [129] RADIO
[15:02:16.438302] [129] RADIO_STATUS
[15:02:16.638358] [249] VFR_HUD
[15:02:17.437440] [130] RADIO
[15:02:17.445762] [130] RADIO_STATUS
[15:02:17.496467] [250] HEARTBEAT
[15:02:17.503441] [251] SYS_STATUS
[15:02:17.511463] [252] BATTERY_STATUS
[15:02:17.573440] [253] ATTITUDE_TARGET
[15:02:17.578428] [254] VFR_HUD
[15:02:18.258620] [255] VFR_HUD
[15:02:18.472823] [0] HEARTBEAT
[15:02:18.504599] [131] RADIO
[15:02:18.507577] [131] RADIO_STATUS
[15:02:19.505763] [132] RADIO
[15:02:19.508801] [132] RADIO_STATUS
[15:02:19.635864] [2] HEARTBEAT
[15:02:19.643831] [3] ATTITUDE_TARGET
[15:02:19.856789] [4] VFR_HUD
[15:02:20.425916] [133] RADIO
[15:02:20.428849] [133] RADIO_STATUS
[15:02:20.777998] [6] VFR_HUD
[15:02:21.473190] [7] HEARTBEAT
[15:02:21.480059] [8] SYS_STATUS
[15:02:21.493104] [134] RADIO
[15:02:21.496044] [134] RADIO_STATUS
[15:02:22.495196] [135] RADIO
[15:02:22.498207] [135] RADIO_STATUS
[15:02:22.539261] [13] HEARTBEAT
[15:02:23.075361] [14] VFR_HUD
[15:02:23.415497] [136] RADIO
[15:02:23.422050] [136] RADIO_STATUS
[15:02:24.450625] [18] HEARTBEAT
[15:02:24.564500] [137] RADIO
[15:02:24.567511] [137] RADIO_STATUS
[15:02:24.685595] [19] VFR_HUD
[15:02:25.483660] [138] RADIO
[15:02:25.486659] [138] RADIO_STATUS
[15:02:25.543807] [20] HEARTBEAT
[15:02:25.550747] [21] SYS_STATUS
[15:02:25.557714] [22] BATTERY_STATUS
[15:02:25.620675] [23] ATTITUDE_TARGET
[15:02:25.625757] [24] VFR_HUD
[15:02:26.305818] [25] VFR_HUD
[15:02:26.409795] [26] HEARTBEAT
[15:02:26.523807] [139] RADIO
[15:02:26.526806] [139] RADIO_STATUS
[15:02:27.108966] [27] VFR_HUD
[15:02:27.553044] [140] RADIO
[15:02:27.556025] [140] RADIO_STATUS
[15:02:27.600027] [28] HEARTBEAT
[15:02:27.608045] [29] ATTITUDE_TARGET
[15:02:27.904102] [30] VFR_HUD
[15:02:28.472184] [141] RADIO
[15:02:28.475158] [141] RADIO_STATUS
[15:02:29.512340] [142] RADIO
[15:02:29.515354] [142] RADIO_STATUS
[15:02:30.208498] [40] VFR_HUD
[15:02:30.437517] [41] HEARTBEAT
[15:02:30.541634] [143] RADIO
[15:02:30.544569] [143] RADIO_STATUS
[15:02:31.012601] [42] VFR_HUD
[15:02:31.461667] [144] RADIO
[15:02:31.464596] [144] RADIO_STATUS
[15:02:31.812739] [45] VFR_HUD
[15:02:32.387816] [46] HEARTBEAT
[15:02:32.500847] [145] RADIO
[15:02:32.503778] [145] RADIO_STATUS
[15:02:33.428973] [48] HEARTBEAT
[15:02:33.435968] [49] SYS_STATUS
[15:02:33.530948] [146] RADIO
[15:02:33.533881] [146] RADIO_STATUS
[15:02:33.571945] [50] BATTERY_STATUS
[15:02:33.598952] [51] ATTITUDE_TARGET
[15:02:33.603945] [52] VFR_HUD
[15:02:34.570169] [147] RADIO
[15:02:34.573184] [147] RADIO_STATUS
[15:02:35.042284] [55] VFR_HUD
[15:02:35.517356] [148] RADIO
[15:02:35.520282] [148] RADIO_STATUS
[15:02:35.619388] [56] HEARTBEAT
[15:02:35.627372] [57] ATTITUDE_TARGET
[15:02:35.845424] [58] VFR_HUD
[15:02:36.405602] [59] HEARTBEAT
[15:02:36.519500] [149] RADIO
[15:02:36.522459] [149] RADIO_STATUS
[15:02:36.640499] [60] VFR_HUD
[15:02:37.582732] [63] BATTERY_STATUS
[15:02:37.590789] [64] ATTITUDE_TARGET
[15:02:37.620628] [65] VFR_HUD
[15:02:37.649866] [150] RADIO
[15:02:37.651008] [150] RADIO_STATUS
[15:02:38.249790] [66] VFR_HUD
[15:02:38.474837] [67] HEARTBEAT
[15:02:38.506838] [151] RADIO
[15:02:38.509807] [151] RADIO_STATUS
[15:02:39.058908] [68] VFR_HUD
[15:02:39.395028] [69] HEARTBEAT
[15:02:39.417035] [70] ATTITUDE_TARGET
[15:02:39.507959] [152] RADIO
[15:02:39.511087] [152] RADIO_STATUS
[15:02:39.859080] [71] VFR_HUD
[15:02:40.439152] [72] HEARTBEAT
[15:02:40.553109] [153] RADIO
[15:02:40.556095] [153] RADIO_STATUS
[15:02:41.475315] [74] HEARTBEAT
[15:02:41.482316] [75] SYS_STATUS
[15:02:41.577295] [154] RADIO
[15:02:41.580190] [154] RADIO_STATUS
[15:02:41.618269] [76] BATTERY_STATUS
[15:02:41.645291] [77] ATTITUDE_TARGET
[15:02:41.650263] [78] VFR_HUD
[15:02:42.387403] [79] VFR_HUD
[15:02:42.407343] [80] HEARTBEAT
[15:02:42.622401] [155] RADIO
[15:02:42.625422] [155] RADIO_STATUS
[15:02:43.088495] [81] VFR_HUD
[15:02:43.541825] [156] RADIO
[15:02:43.544655] [156] RADIO_STATUS
[15:02:43.996677] [84] VFR_HUD
[15:02:44.452836] [85] HEARTBEAT
[15:02:44.565816] [157] RADIO
[15:02:44.568744] [157] RADIO_STATUS
[15:02:44.686874] [86] VFR_HUD
[15:02:45.612588] [158] RADIO
[15:02:45.612897] [158] RADIO_STATUS
[15:02:46.541076] [159] RADIO
[15:02:46.544096] [159] RADIO_STATUS
[15:02:47.105294] [94] VFR_HUD
[15:02:47.454308] [95] HEARTBEAT
[15:02:47.462216] [96] ATTITUDE_TARGET
[15:02:47.554176] [160] RADIO
[15:02:47.557195] [160] RADIO_STATUS
[15:02:47.905334] [97] VFR_HUD
[15:02:48.485386] [98] HEARTBEAT
[15:02:48.594437] [161] RADIO
[15:02:48.597407] [161] RADIO_STATUS
[15:02:49.540589] [102] BATTERY_STATUS
[15:02:49.542523] [103] EXTENDED_SYS_STATE
[15:02:49.550614] [104] ATTITUDE_TARGET
[15:02:49.555536] [105] VFR_HUD
[15:02:49.558512] [106] SYSTEM_TIME
[15:02:49.581560] [162] RADIO
[15:02:49.584550] [162] RADIO_STATUS
[15:02:50.204732] [107] VFR_HUD
[15:02:50.429737] [108] HEARTBEAT
[15:02:50.666770] [163] RADIO
[15:02:50.669720] [163] RADIO_STATUS
[15:02:51.123797] [109] VFR_HUD
[15:02:51.582884] [164] RADIO
[15:02:51.585849] [164] RADIO_STATUS
[15:02:51.813972] [112] VFR_HUD
[15:02:52.399040] [113] HEARTBEAT
[15:02:52.613046] [165] RADIO
[15:02:52.616173] [165] RADIO_STATUS
[15:02:53.558263] [117] BATTERY_STATUS
[15:02:53.670277] [118] ATTITUDE_TARGET
[15:02:53.675203] [119] VFR_HUD
[15:02:53.680193] [166] RADIO
[15:02:53.683251] [166] RADIO_STATUS
[15:02:54.238448] [120] VFR_HUD
[15:02:54.572392] [167] RADIO
[15:02:54.575313] [167] RADIO_STATUS
[15:02:55.032464] [122] VFR_HUD
[15:02:55.501540] [123] HEARTBEAT
[15:02:55.509507] [124] ATTITUDE_TARGET
[15:02:55.601629] [168] RADIO
[15:02:55.604550] [168] RADIO_STATUS
[15:02:55.853554] [125] VFR_HUD
[15:02:56.409811] [126] HEARTBEAT
[15:02:56.642665] [127] VFR_HUD
[15:02:56.669669] [169] RADIO
[15:02:56.672676] [169] RADIO_STATUS
[15:02:57.584903] [130] BATTERY_STATUS
[15:02:57.592871] [131] ATTITUDE_TARGET
[15:02:57.622875] [132] VFR_HUD
[15:02:57.644818] [170] RADIO
[15:02:57.647823] [170] RADIO_STATUS
[15:02:58.251953] [133] VFR_HUD
[15:02:58.477128] [134] HEARTBEAT
[15:02:58.593368] [171] RADIO
[15:02:58.593990] [171] RADIO_STATUS
[15:02:59.397107] [136] HEARTBEAT
[15:02:59.419075] [137] ATTITUDE_TARGET
[15:02:59.740123] [172] RADIO
[15:02:59.743116] [172] RADIO_STATUS
[15:02:59.861195] [138] VFR_HUD
[15:03:00.436320] [139] HEARTBEAT
[15:03:00.660348] [173] RADIO
[15:03:00.663364] [173] RADIO_STATUS
[15:03:01.478408] [141] HEARTBEAT
[15:03:01.485439] [142] SYS_STATUS
[15:03:01.717741] [144] ATTITUDE_TARGET
[15:03:01.722423] [145] VFR_HUD
[15:03:01.727376] [174] RADIO
[15:03:01.730348] [174] RADIO_STATUS
[15:03:02.285564] [146] VFR_HUD
[15:03:02.397546] [147] HEARTBEAT
[15:03:02.625560] [175] RADIO
[15:03:02.627520] [175] RADIO_STATUS
[15:03:03.080711] [148] VFR_HUD
[15:03:03.444715] [149] HEARTBEAT
[15:03:03.451891] [150] ATTITUDE_TARGET
[15:03:03.648781] [176] RADIO
[15:03:03.651819] [176] RADIO_STATUS
[15:03:03.998839] [151] VFR_HUD
[15:03:04.454938] [152] HEARTBEAT
[15:03:04.688955] [153] VFR_HUD
[15:03:04.721966] [177] RADIO
[15:03:04.724905] [177] RADIO_STATUS
[15:03:05.506073] [154] HEARTBEAT
[15:03:05.513172] [155] SYS_STATUS
[15:03:05.632136] [156] BATTERY_STATUS
[15:03:05.640102] [157] ATTITUDE_TARGET
[15:03:05.670107] [158] VFR_HUD
[15:03:05.697110] [178] RADIO
[15:03:05.700067] [178] RADIO_STATUS
[15:03:06.298221] [159] VFR_HUD
[15:03:06.638322] [179] RADIO
[15:03:06.641256] [179] RADIO_STATUS
[15:03:07.457467] [162] HEARTBEAT
[15:03:07.465470] [163] ATTITUDE_TARGET
[15:03:07.682530] [180] RADIO
[15:03:07.685519] [180] RADIO_STATUS
[15:03:07.908524] [164] VFR_HUD
[15:03:08.498605] [165] HEARTBEAT
[15:03:08.597654] [166] VFR_HUD
[15:03:08.706781] [181] RADIO
[15:03:08.709599] [181] RADIO_STATUS
[15:03:09.757779] [182] RADIO
[15:03:09.757915] [182] RADIO_STATUS
[15:03:10.207853] [174] VFR_HUD
[15:03:10.432933] [175] HEARTBEAT
[15:03:10.671988] [183] RADIO
[15:03:10.674822] [183] RADIO_STATUS
[15:03:11.126912] [176] VFR_HUD
[15:03:11.491990] [177] HEARTBEAT
[15:03:11.499176] [178] ATTITUDE_TARGET
[15:03:11.695973] [184] RADIO
[15:03:11.698984] [184] RADIO_STATUS
[15:03:11.817037] [179] VFR_HUD
[15:03:12.502212] [180] HEARTBEAT
[15:03:12.632199] [181] VFR_HUD
[15:03:12.752182] [185] RADIO
[15:03:12.755199] [185] RADIO_STATUS
[15:03:13.672500] [185] ATTITUDE_TARGET
[15:03:13.677542] [186] VFR_HUD
[15:03:13.683442] [186] RADIO
[15:03:13.686614] [186] RADIO_STATUS
[15:03:14.247411] [187] VFR_HUD
[15:03:14.685506] [187] RADIO
[15:03:14.687525] [187] RADIO_STATUS
[15:03:15.035545] [189] VFR_HUD
[15:03:15.504665] [190] HEARTBEAT
[15:03:15.512627] [191] ATTITUDE_TARGET
[15:03:15.834657] [188] RADIO
[15:03:15.837633] [188] RADIO_STATUS
[15:03:15.955642] [192] VFR_HUD
[15:03:16.410750] [193] HEARTBEAT
[15:03:16.644762] [194] VFR_HUD
[15:03:16.671797] [189] RADIO
[15:03:16.674718] [189] RADIO_STATUS
[15:03:17.624900] [199] VFR_HUD
[15:03:17.673861] [190] RADIO
[15:03:17.676900] [190] RADIO_STATUS
[15:03:18.253998] [200] VFR_HUD
[15:03:18.480081] [201] HEARTBEAT
[15:03:18.713133] [191] RADIO
[15:03:18.716063] [191] RADIO_STATUS
[15:03:19.413287] [203] HEARTBEAT
[15:03:19.421183] [204] ATTITUDE_TARGET
[15:03:19.743241] [192] RADIO
[15:03:19.746256] [192] RADIO_STATUS
[15:03:19.863255] [205] VFR_HUD
[15:03:20.678450] [207] VFR_HUD
[15:03:20.797381] [193] RADIO
[15:03:20.800406] [193] RADIO_STATUS
[15:03:21.719601] [211] ATTITUDE_TARGET
[15:03:21.724509] [212] VFR_HUD
[15:03:21.729530] [194] RADIO
[15:03:21.732729] [194] RADIO_STATUS
[15:03:22.392697] [213] VFR_HUD
[15:03:22.399702] [214] HEARTBEAT
[15:03:22.731744] [195] RADIO
[15:03:22.734716] [195] RADIO_STATUS
[15:03:23.082839] [215] VFR_HUD
[15:03:23.553329] [216] HEARTBEAT
[15:03:23.558928] [217] ATTITUDE_TARGET
[15:03:23.772052] [196] RADIO
[15:03:23.773901] [196] RADIO_STATUS
[15:03:23.892036] [218] VFR_HUD
[15:03:24.457048] [219] HEARTBEAT
[15:03:24.692037] [220] VFR_HUD
[15:03:24.719030] [197] RADIO
[15:03:24.724429] [197] RADIO_STATUS
[15:03:25.672246] [225] VFR_HUD
[15:03:25.720216] [198] RADIO
[15:03:25.723239] [198] RADIO_STATUS
[15:03:26.301373] [226] VFR_HUD
[15:03:26.421379] [227] HEARTBEAT
[15:03:26.760400] [199] RADIO
[15:03:26.763389] [199] RADIO_STATUS
[15:03:27.459604] [229] HEARTBEAT
[15:03:27.467546] [230] ATTITUDE_TARGET
[15:03:27.789522] [200] RADIO
[15:03:27.792432] [200] RADIO_STATUS
[15:03:28.495666] [232] HEARTBEAT
[15:03:28.600815] [233] VFR_HUD
[15:03:28.829647] [201] RADIO
[15:03:28.832639] [201] RADIO_STATUS
[15:03:29.753804] [202] RADIO
[15:03:29.756783] [202] RADIO_STATUS
[15:03:30.210348] [241] VFR_HUD
[15:03:30.434921] [242] HEARTBEAT
[15:03:30.778972] [203] RADIO
[15:03:30.782022] [203] RADIO_STATUS
[15:03:31.019077] [243] VFR_HUD
[15:03:31.831171] [246] VFR_HUD
[15:03:31.928183] [204] RADIO
[15:03:31.931160] [204] RADIO_STATUS
[15:03:32.628333] [248] VFR_HUD
[15:03:32.742325] [205] RADIO
[15:03:32.745333] [205] RADIO_STATUS
[15:03:33.435367] [249] HEARTBEAT
[15:03:33.442371] [250] SYS_STATUS
[15:03:33.767412] [206] RADIO
[15:03:33.770359] [206] RADIO_STATUS
[15:03:34.237502] [254] VFR_HUD
[15:03:34.468697] [255] HEARTBEAT
[15:03:34.811580] [207] RADIO
[15:03:34.814548] [207] RADIO_STATUS
[15:03:35.037637] [0] VFR_HUD
[15:03:35.505762] [1] HEARTBEAT
[15:03:35.513738] [2] ATTITUDE_TARGET
[15:03:35.835758] [208] RADIO
[15:03:35.838741] [208] RADIO_STATUS
[15:03:35.956854] [3] VFR_HUD
[15:03:36.411895] [4] HEARTBEAT
[15:03:36.645911] [5] VFR_HUD
[15:03:36.880893] [209] RADIO
[15:03:36.883887] [209] RADIO_STATUS
[15:03:37.800074] [210] RADIO
[15:03:37.803029] [210] RADIO_STATUS
[15:03:38.491239] [11] VFR_HUD
[15:03:38.494183] [12] HEARTBEAT
[15:03:38.825242] [211] RADIO
[15:03:38.827202] [211] RADIO_STATUS
[15:03:39.070386] [13] VFR_HUD
[15:03:39.414485] [14] HEARTBEAT
[15:03:39.422377] [15] ATTITUDE_TARGET
[15:03:39.876383] [16] VFR_HUD
[15:03:39.897448] [212] RADIO
[15:03:39.900368] [212] RADIO_STATUS
[15:03:40.679622] [18] VFR_HUD
[15:03:40.800664] [213] RADIO
[15:03:40.803798] [213] RADIO_STATUS
[15:03:41.481775] [19] HEARTBEAT
[15:03:41.488729] [20] SYS_STATUS
[15:03:41.813794] [214] RADIO
[15:03:41.816785] [214] RADIO_STATUS
[15:03:41.950930] [22] ATTITUDE_TARGET
[15:03:41.954826] [23] VFR_HUD
[15:03:42.283907] [24] VFR_HUD
[15:03:42.394900] [25] HEARTBEAT
[15:03:42.858994] [215] RADIO
[15:03:42.861012] [215] RADIO_STATUS
[15:03:43.084006] [26] VFR_HUD
[15:03:43.553174] [27] HEARTBEAT
[15:03:43.560173] [28] ATTITUDE_TARGET
[15:03:43.883137] [216] RADIO
[15:03:43.886137] [216] RADIO_STATUS
[15:03:44.015156] [29] VFR_HUD
[15:03:44.459334] [30] HEARTBEAT
[15:03:44.693305] [31] VFR_HUD
[15:03:44.802339] [217] RADIO
[15:03:44.805299] [217] RADIO_STATUS
[15:03:45.842500] [218] RADIO
[15:03:45.845463] [218] RADIO_STATUS
[15:03:46.427615] [38] HEARTBEAT
[15:03:46.871680] [219] RADIO
[15:03:46.874628] [219] RADIO_STATUS
[15:03:46.997659] [39] VFR_HUD
[15:03:47.461863] [40] HEARTBEAT
[15:03:47.469727] [41] ATTITUDE_TARGET
[15:03:47.911816] [42] VFR_HUD
[15:03:48.019832] [220] RADIO
[15:03:48.022805] [220] RADIO_STATUS
[15:03:48.611949] [44] VFR_HUD
[15:03:48.829911] [221] RADIO
[15:03:48.833057] [221] RADIO_STATUS
[15:03:49.424184] [45] HEARTBEAT
[15:03:49.430049] [46] SYS_STATUS
[15:03:49.476071] [50] VFR_HUD
[15:03:49.479995] [51] SYSTEM_TIME
[15:03:49.860129] [222] RADIO
[15:03:49.863102] [222] RADIO_STATUS
[15:03:50.210138] [52] VFR_HUD
[15:03:50.436197] [53] HEARTBEAT
[15:03:50.899271] [223] RADIO
[15:03:50.902196] [223] RADIO_STATUS
[15:03:51.031274] [54] VFR_HUD
[15:03:51.598384] [55] HEARTBEAT
[15:03:51.606732] [56] ATTITUDE_TARGET
[15:03:51.819407] [57] VFR_HUD
[15:03:51.846444] [224] RADIO
[15:03:51.849394] [224] RADIO_STATUS
[15:03:52.640650] [59] VFR_HUD
[15:03:52.848566] [225] RADIO
[15:03:52.851538] [225] RADIO_STATUS
[15:03:53.436679] [60] HEARTBEAT
[15:03:53.442737] [61] SYS_STATUS
[15:03:53.887747] [226] RADIO
[15:03:53.890707] [226] RADIO_STATUS
[15:03:54.348843] [65] VFR_HUD
[15:03:54.917002] [227] RADIO
[15:03:54.919990] [227] RADIO_STATUS
[15:03:55.038035] [67] VFR_HUD
[15:03:55.968353] [228] RADIO
[15:03:55.971047] [228] RADIO_STATUS
[15:03:56.413265] [71] HEARTBEAT
[15:03:56.647188] [72] VFR_HUD
[15:03:56.876302] [229] RADIO
[15:03:56.879191] [229] RADIO_STATUS
[15:03:57.469407] [73] HEARTBEAT
[15:03:57.476300] [74] SYS_STATUS
[15:03:57.906345] [230] RADIO
[15:03:57.909315] [230] RADIO_STATUS
[15:03:58.482561] [79] HEARTBEAT
[15:03:58.950012] [231] RADIO
[15:03:58.950205] [231] RADIO_STATUS
[15:03:59.175589] [80] VFR_HUD
[15:03:59.866712] [83] VFR_HUD
[15:03:59.898899] [232] RADIO
[15:03:59.901839] [232] RADIO_STATUS
[15:04:00.675804] [85] VFR_HUD
[15:04:00.894810] [233] RADIO
[15:04:00.897782] [233] RADIO_STATUS
[15:04:01.482990] [86] HEARTBEAT
[15:04:01.490084] [87] SYS_STATUS
[15:04:01.842048] [89] ATTITUDE_TARGET
[15:04:01.847034] [90] VFR_HUD
[15:04:01.939981] [234] RADIO
[15:04:01.942954] [234] RADIO_STATUS
[15:04:02.391085] [92] HEARTBEAT
[15:04:02.965152] [235] RADIO
[15:04:02.968192] [235] RADIO_STATUS
[15:04:03.003171] [93] VFR_HUD
[15:04:04.114402] [236] RADIO
[15:04:04.117565] [236] RADIO_STATUS
[15:04:04.460436] [97] HEARTBEAT
[15:04:04.694476] [98] VFR_HUD
[15:04:04.929512] [237] RADIO
[15:04:04.932483] [237] RADIO_STATUS
[15:04:05.511595] [99] HEARTBEAT
[15:04:05.518577] [100] SYS_STATUS
[15:04:05.637585] [101] BATTERY_STATUS
[15:04:05.645573] [102] ATTITUDE_TARGET
[15:04:05.675545] [103] VFR_HUD
[15:04:05.953614] [238] RADIO
[15:04:05.956535] [238] RADIO_STATUS
[15:04:06.419704] [105] HEARTBEAT
[15:04:06.994048] [106] VFR_HUD
[15:04:07.025775] [239] RADIO
[15:04:07.028744] [239] RADIO_STATUS
[15:04:07.808923] [109] VFR_HUD
[15:04:07.929855] [240] RADIO
[15:04:07.932925] [240] RADIO_STATUS
[15:04:08.615242] [111] VFR_HUD
[15:04:08.942105] [241] RADIO
[15:04:08.945310] [241] RADIO_STATUS
[15:04:09.548266] [114] BATTERY_STATUS
[15:04:09.550227] [115] EXTENDED_SYS_STATE
[15:04:09.558232] [116] ATTITUDE_TARGET
[15:04:09.563270] [117] VFR_HUD
[15:04:09.566216] [118] SYSTEM_TIME
[15:04:09.986388] [242] RADIO
[15:04:09.989352] [242] RADIO_STATUS
[15:04:10.212414] [119] VFR_HUD
[15:04:10.437413] [120] HEARTBEAT
[15:04:11.011457] [243] RADIO
[15:04:11.014430] [243] RADIO_STATUS
[15:04:11.131495] [121] VFR_HUD
[15:04:11.821583] [124] VFR_HUD
[15:04:12.160574] [244] RADIO
[15:04:12.163669] [244] RADIO_STATUS
[15:04:12.396638] [125] HEARTBEAT
[15:04:12.970712] [245] RADIO
[15:04:12.973664] [245] RADIO_STATUS
[15:04:13.438931] [127] HEARTBEAT
[15:04:13.444794] [128] SYS_STATUS
[15:04:13.559845] [129] BATTERY_STATUS
[15:04:13.677905] [130] ATTITUDE_TARGET
[15:04:13.682923] [131] VFR_HUD
[15:04:13.999975] [246] RADIO
[15:04:14.002893] [246] RADIO_STATUS
[15:04:14.466081] [133] HEARTBEAT
[15:04:15.041030] [134] VFR_HUD
[15:04:15.068132] [247] RADIO
[15:04:15.070048] [247] RADIO_STATUS
[15:04:15.628143] [136] ATTITUDE_TARGET
[15:04:15.855149] [137] VFR_HUD
[15:04:15.970152] [248] RADIO
[15:04:15.973109] [248] RADIO_STATUS
[15:04:16.417106] [138] HEARTBEAT
[15:04:16.661361] [139] VFR_HUD
[15:04:16.988465] [249] RADIO
[15:04:16.991357] [249] RADIO_STATUS
[15:04:18.028467] [250] RADIO
[15:04:18.031504] [250] RADIO_STATUS
[15:04:18.494585] [145] VFR_HUD
[15:04:18.497510] [146] HEARTBEAT
[15:04:19.057793] [251] RADIO
[15:04:19.060629] [251] RADIO_STATUS
[15:04:19.178756] [147] VFR_HUD
[15:04:19.417656] [148] HEARTBEAT
[15:04:19.429748] [149] ATTITUDE_TARGET
[15:04:19.867734] [150] VFR_HUD
[15:04:19.976702] [252] RADIO
[15:04:19.979684] [252] RADIO_STATUS
[15:04:20.447802] [151] HEARTBEAT
[15:04:21.016872] [253] RADIO
[15:04:21.019896] [253] RADIO_STATUS
[15:04:21.485065] [153] HEARTBEAT
[15:04:21.491994] [154] SYS_STATUS
