[16:38:09.558805] [210] RADIO
[16:38:09.561900] [210] RADIO_STATUS
[16:38:10.019825] [41] VFR_HUD
[16:38:10.134956] [42] HEARTBEAT
[16:38:10.588998] [211] RADIO
[16:38:10.593351] [211] RADIO_STATUS
[16:38:10.828999] [43] VFR_HUD
[16:38:11.178103] [44] HEARTBEAT
[16:38:11.186069] [45] ATTITUDE_TARGET
[16:38:11.629192] [46] VFR_HUD
[16:38:11.656164] [212] RADIO
[16:38:11.659148] [212] RADIO_STATUS
[16:38:12.204261] [47] HEARTBEAT
[16:38:12.443269] [48] VFR_HUD
[16:38:12.559411] [213] RADIO
[16:38:12.562306] [213] RADIO_STATUS
[16:38:13.141410] [49] HEARTBEAT
[16:38:13.147530] [50] SYS_STATUS
[16:38:13.187414] [51] BATTERY_STATUS
[16:38:13.195529] [52] ATTITUDE_TARGET
[16:38:13.199411] [53] VFR_HUD
[16:38:13.577640] [214] RADIO
[16:38:13.580464] [214] RADIO_STATUS
[16:38:13.933542] [54] VFR_HUD
[16:38:14.153607] [55] HEARTBEAT
[16:38:14.616735] [215] RADIO
[16:38:14.619606] [215] RADIO_STATUS
[16:38:14.737674] [56] VFR_HUD
[16:38:15.211730] [57] HEARTBEAT
[16:38:15.219716] [58] ATTITUDE_TARGET
[16:38:15.536900] [59] VFR_HUD
[16:38:15.563775] [216] RADIO
[16:38:15.566747] [216] RADIO_STATUS
[16:38:16.221919] [60] HEARTBEAT
[16:38:16.346948] [61] VFR_HUD
[16:38:16.571020] [217] RADIO
[16:38:16.573865] [217] RADIO_STATUS
[16:38:17.154054] [62] HEARTBEAT
[16:38:17.161019] [63] SYS_STATUS
[16:38:17.275135] [64] BATTERY_STATUS
[16:38:17.393058] [65] ATTITUDE_TARGET
[16:38:17.398061] [66] VFR_HUD
[16:38:17.605192] [218] RADIO
[16:38:17.608086] [218] RADIO_STATUS
[16:38:17.956333] [67] VFR_HUD
[16:38:18.187763] [68] HEARTBEAT
[16:38:18.635476] [219] RADIO
[16:38:18.638219] [219] RADIO_STATUS
[16:38:18.756237] [69] VFR_HUD
[16:38:19.224354] [70] HEARTBEAT
[16:38:19.232325] [71] ATTITUDE_TARGET
[16:38:19.565377] [72] VFR_HUD
[16:38:19.674536] [220] RADIO
[16:38:19.677600] [220] RADIO_STATUS
[16:38:20.130517] [73] HEARTBEAT
[16:38:20.364561] [74] VFR_HUD
[16:38:20.599613] [221] RADIO
[16:38:20.602585] [221] RADIO_STATUS
[16:38:21.623734] [222] RADIO
[16:38:21.626703] [222] RADIO_STATUS
[16:38:21.692807] [77] BATTERY_STATUS
[16:38:21.699781] [78] ATTITUDE_TARGET
[16:38:21.704745] [79] VFR_HUD
[16:38:21.973818] [80] VFR_HUD
[16:38:22.199922] [81] HEARTBEAT
[16:38:22.668116] [223] RADIO
[16:38:22.670934] [223] RADIO_STATUS
[16:38:22.788978] [82] VFR_HUD
[16:38:23.258094] [83] HEARTBEAT
[16:38:23.265032] [84] ATTITUDE_TARGET
[16:38:23.583098] [85] VFR_HUD
[16:38:23.615123] [224] RADIO
[16:38:23.618140] [224] RADIO_STATUS
[16:38:24.159208] [86] HEARTBEAT
[16:38:24.342326] JAMMING_START
[16:38:24.398228] [87] VFR_HUD
[16:38:24.612216] [225] RADIO
[16:38:24.615193] [225] RADIO_STATUS
[16:38:25.200394] [88] HEARTBEAT
[16:38:25.207317] [89] SYS_STATUS
[16:38:25.327392] [90] BATTERY_STATUS
[16:38:25.439444] [91] ATTITUDE_TARGET
[16:38:25.444384] [92] VFR_HUD
[16:38:25.656480] [226] RADIO
[16:38:25.659457] [226] RADIO_STATUS
[16:38:26.002483] [93] VFR_HUD
[16:38:26.232549] [94] HEARTBEAT
[16:38:26.681567] [227] RADIO
[16:38:26.684502] [227] RADIO_STATUS
[16:38:26.802582] [95] VFR_HUD
[16:38:27.161635] [96] HEARTBEAT
[16:38:27.168591] [97] ATTITUDE_TARGET
[16:38:27.600731] [228] RADIO
[16:38:27.603682] [228] RADIO_STATUS
[16:38:27.721718] [98] VFR_HUD
[16:38:28.176742] [99] HEARTBEAT
[16:38:28.411852] [100] VFR_HUD
[16:38:28.645842] [229] RADIO
[16:38:28.648796] [229] RADIO_STATUS
[16:38:29.357055] [103] BATTERY_STATUS
[16:38:29.361676] [104] EXTENDED_SYS_STATE
[16:38:29.366940] [105] ATTITUDE_TARGET
[16:38:29.371008] [106] VFR_HUD
[16:38:29.374928] [107] SYSTEM_TIME
[16:38:29.670019] [230] RADIO
[16:38:29.674041] [230] RADIO_STATUS
[16:38:30.021024] [108] VFR_HUD
[16:38:30.136084] [109] HEARTBEAT
[16:38:30.715196] [231] RADIO
[16:38:30.718211] [231] RADIO_STATUS
[16:38:30.836183] [110] VFR_HUD
[16:38:31.179267] [111] HEARTBEAT
[16:38:31.187263] [112] ATTITUDE_TARGET
[16:38:31.630490] [113] VFR_HUD
[16:38:31.662370] [232] RADIO
[16:38:31.665850] [232] RADIO_STATUS
[16:38:32.205575] [114] HEARTBEAT
[16:38:32.550564] [115] VFR_HUD
[16:38:32.659468] [233] RADIO
[16:38:32.662565] [233] RADIO_STATUS
[16:38:33.368637] [118] BATTERY_STATUS
[16:38:33.486658] [119] ATTITUDE_TARGET
[16:38:33.490706] [120] VFR_HUD
[16:38:33.731872] [234] RADIO
[16:38:33.734670] [234] RADIO_STATUS
[16:38:33.929683] [121] VFR_HUD
[16:38:34.154787] [122] HEARTBEAT
[16:38:34.728105] [235] RADIO
[16:38:34.730871] [235] RADIO_STATUS
[16:38:34.848836] [123] VFR_HUD
[16:38:35.207943] [124] HEARTBEAT
[16:38:35.215919] [125] ATTITUDE_TARGET
[16:38:35.538929] [126] VFR_HUD
[16:38:35.647969] [236] RADIO
[16:38:35.650955] [236] RADIO_STATUS
[16:38:36.224104] [127] HEARTBEAT
[16:38:36.348084] [128] VFR_HUD
[16:38:36.687213] [237] RADIO
[16:38:36.690194] [237] RADIO_STATUS
[16:38:37.155492] [129] HEARTBEAT
[16:38:37.162440] [130] SYS_STATUS
[16:38:37.394329] [132] ATTITUDE_TARGET
[16:38:37.399347] [133] VFR_HUD
[16:38:37.716328] [238] RADIO
[16:38:37.719251] [238] RADIO_STATUS
[16:38:37.957338] [134] VFR_HUD
[16:38:38.187424] [135] HEARTBEAT
[16:38:38.641552] [239] RADIO
[16:38:38.644458] [239] RADIO_STATUS
[16:38:38.756483] [136] VFR_HUD
[16:38:39.225538] [137] HEARTBEAT
[16:38:39.233499] [138] ATTITUDE_TARGET
[16:38:39.676614] [139] VFR_HUD
[16:38:39.687678] [240] RADIO
[16:38:39.690608] [240] RADIO_STATUS
[16:38:40.131677] [140] HEARTBEAT
[16:38:40.365716] [141] VFR_HUD
[16:38:40.704729] [241] RADIO
[16:38:40.707691] [241] RADIO_STATUS
[16:38:41.187901] [142] HEARTBEAT
[16:38:41.194799] [143] SYS_STATUS
[16:38:41.234825] [144] BATTERY_STATUS
[16:38:41.241845] [145] ATTITUDE_TARGET
[16:38:41.246809] [146] VFR_HUD
[16:38:41.744891] [242] RADIO
[16:38:41.747905] [242] RADIO_STATUS
[16:38:42.211033] [147] VFR_HUD
[16:38:42.213980] [148] HEARTBEAT
[16:38:42.664084] [243] RADIO
[16:38:42.667109] [243] RADIO_STATUS
[16:38:42.790057] [149] VFR_HUD
[16:38:43.259188] [150] HEARTBEAT
[16:38:43.267182] [151] ATTITUDE_TARGET
[16:38:43.585903] [152] VFR_HUD
[16:38:43.694235] [244] RADIO
[16:38:43.697217] [244] RADIO_STATUS
[16:38:44.394410] [154] VFR_HUD
[16:38:44.733365] [245] RADIO
[16:38:44.736424] [245] RADIO_STATUS
[16:38:45.201499] [155] HEARTBEAT
[16:38:45.208544] [156] SYS_STATUS
[16:38:45.440557] [158] ATTITUDE_TARGET
[16:38:45.445493] [159] VFR_HUD
[16:38:45.763555] [246] RADIO
[16:38:45.766546] [246] RADIO_STATUS
[16:38:46.003587] [160] VFR_HUD
[16:38:46.234731] [161] HEARTBEAT
[16:38:46.682725] [247] RADIO
[16:38:46.685740] [247] RADIO_STATUS
[16:38:46.803724] [162] VFR_HUD
[16:38:47.162896] [163] HEARTBEAT
[16:38:47.169876] [164] ATTITUDE_TARGET
[16:38:47.726859] [248] RADIO
[16:38:47.729845] [248] RADIO_STATUS
[16:38:48.178208] [166] HEARTBEAT
[16:38:48.412040] [167] VFR_HUD
[16:38:48.751111] [249] RADIO
[16:38:48.754060] [249] RADIO_STATUS
[16:38:49.235302] [168] HEARTBEAT
[16:38:49.241770] [169] SYS_STATUS
[16:38:49.276262] [170] BATTERY_STATUS
[16:38:49.277233] [171] EXTENDED_SYS_STATE
[16:38:49.285256] [172] ATTITUDE_TARGET
[16:38:49.290166] [173] VFR_HUD
[16:38:49.294252] [174] SYSTEM_TIME
[16:38:49.791832] [250] RADIO
[16:38:49.794237] [250] RADIO_STATUS
[16:38:50.022278] [175] VFR_HUD
[16:38:50.137287] [176] HEARTBEAT
[16:38:50.716398] [251] RADIO
[16:38:50.719408] [251] RADIO_STATUS
[16:38:50.836489] [177] VFR_HUD
[16:38:51.180508] [178] HEARTBEAT
[16:38:51.188497] [179] ATTITUDE_TARGET
[16:38:51.631660] [180] VFR_HUD
[16:38:51.740689] [252] RADIO
[16:38:51.743573] [252] RADIO_STATUS
[16:38:52.216766] [181] HEARTBEAT
[16:38:52.446755] [182] VFR_HUD
[16:38:52.785818] [253] RADIO
[16:38:52.788781] [253] RADIO_STATUS
[16:38:53.247851] [183] HEARTBEAT
[16:38:53.254873] [184] SYS_STATUS
[16:38:53.486911] [186] ATTITUDE_TARGET
[16:38:53.491884] [187] VFR_HUD
[16:38:53.809943] [254] RADIO
[16:38:53.812901] [254] RADIO_STATUS
[16:38:54.050966] [188] VFR_HUD
[16:38:54.156051] [189] HEARTBEAT
[16:38:54.729075] [255] RADIO
[16:38:54.732024] [255] RADIO_STATUS
[16:38:54.850107] [190] VFR_HUD
[16:38:55.210041] [191] HEARTBEAT
[16:38:55.217226] [192] ATTITUDE_TARGET
[16:38:55.539178] [193] VFR_HUD
[16:38:55.774286] [0] RADIO
[16:38:55.777219] [0] RADIO_STATUS
[16:38:56.225331] [194] HEARTBEAT
[16:38:56.349366] [195] VFR_HUD
[16:38:56.798376] [1] RADIO
[16:38:56.801299] [1] RADIO_STATUS
[16:38:57.156539] [196] HEARTBEAT
[16:38:57.163708] [197] SYS_STATUS
[16:38:57.277528] [198] BATTERY_STATUS
[16:38:57.395509] [199] ATTITUDE_TARGET
[16:38:57.400442] [200] VFR_HUD
[16:38:57.842617] [2] RADIO
[16:38:57.845631] [2] RADIO_STATUS
[16:38:58.068582] [201] VFR_HUD
[16:38:58.183620] [202] HEARTBEAT
[16:38:58.757758] [203] VFR_HUD
[16:38:58.790739] [3] RADIO
[16:38:58.792681] [3] RADIO_STATUS
[16:38:59.226816] [204] HEARTBEAT
[16:38:59.234841] [205] ATTITUDE_TARGET
[16:38:59.572788] [206] VFR_HUD
[16:38:59.786834] [4] RADIO
[16:38:59.789806] [4] RADIO_STATUS
[16:39:00.132921] [207] HEARTBEAT
[16:39:00.366978] [208] VFR_HUD
[16:39:00.831001] [5] RADIO
[16:39:00.833950] [5] RADIO_STATUS
[16:39:01.189038] [209] HEARTBEAT
[16:39:01.196047] [210] SYS_STATUS
[16:39:01.236094] [211] BATTERY_STATUS
[16:39:01.244085] [212] ATTITUDE_TARGET
[16:39:01.248024] [213] VFR_HUD
[16:39:01.856273] [6] RADIO
[16:39:01.859154] [6] RADIO_STATUS
[16:39:02.212209] [214] VFR_HUD
[16:39:02.215199] [215] HEARTBEAT
[16:39:02.775317] [7] RADIO
[16:39:02.778331] [7] RADIO_STATUS
[16:39:02.898924] [216] VFR_HUD
[16:39:03.255404] [217] HEARTBEAT
[16:39:03.263336] [218] ATTITUDE_TARGET
[16:39:03.585487] [219] VFR_HUD
[16:39:03.814551] [8] RADIO
[16:39:03.817466] [8] RADIO_STATUS
[16:39:04.166515] [220] HEARTBEAT
[16:39:04.395545] [221] VFR_HUD
[16:39:04.844587] [9] RADIO
[16:39:04.847520] [9] RADIO_STATUS
[16:39:05.202682] [222] HEARTBEAT
[16:39:05.208707] [223] SYS_STATUS
[16:39:05.323661] [224] BATTERY_STATUS
[16:39:05.441715] [225] ATTITUDE_TARGET
[16:39:05.446658] [226] VFR_HUD
[16:39:05.769828] [10] RADIO
[16:39:05.771676] [10] RADIO_STATUS
[16:39:06.004790] [227] VFR_HUD
[16:39:06.234830] [228] HEARTBEAT
[16:39:06.803932] [229] VFR_HUD
[16:39:06.830874] [11] RADIO
[16:39:06.833863] [11] RADIO_STATUS
[16:39:07.619013] [232] VFR_HUD
[16:39:07.832977] [12] RADIO
[16:39:07.835964] [12] RADIO_STATUS
[16:39:08.179060] [233] HEARTBEAT
[16:39:08.414177] [234] VFR_HUD
[16:39:08.873209] [13] RADIO
[16:39:08.875203] [13] RADIO_STATUS
[16:39:09.236287] [235] HEARTBEAT
[16:39:09.242255] [236] SYS_STATUS
[16:39:09.277303] [237] BATTERY_STATUS
[16:39:09.279190] [238] EXTENDED_SYS_STATE
[16:39:09.286268] [239] ATTITUDE_TARGET
[16:39:09.291407] [240] VFR_HUD
[16:39:09.295275] [241] SYSTEM_TIME
[16:39:09.792312] [14] RADIO
[16:39:09.795913] [14] RADIO_STATUS
[16:39:10.023461] [242] VFR_HUD
[16:39:10.141845] [243] HEARTBEAT
[16:39:10.822494] [15] RADIO
[16:39:10.825484] [15] RADIO_STATUS
[16:39:10.860491] [244] VFR_HUD
[16:39:11.182611] [245] HEARTBEAT
[16:39:11.189616] [246] ATTITUDE_TARGET
[16:39:11.632624] [247] VFR_HUD
[16:39:11.861707] [16] RADIO
[16:39:11.864735] [16] RADIO_STATUS
[16:39:12.212707] [248] HEARTBEAT
[16:39:12.442689] [249] VFR_HUD
[16:39:12.891821] [17] RADIO
[16:39:12.894742] [17] RADIO_STATUS
[16:39:13.127852] [250] HEARTBEAT
[16:39:13.147926] [251] SYS_STATUS
[16:39:13.190914] [252] BATTERY_STATUS
[16:39:13.198956] [253] ATTITUDE_TARGET
[16:39:13.203856] [254] VFR_HUD
[16:39:13.810977] [18] RADIO
[16:39:13.813921] [18] RADIO_STATUS
[16:39:14.158054] [0] HEARTBEAT
[16:39:14.741162] [1] VFR_HUD
[16:39:14.851085] [19] RADIO
[16:39:14.854074] [19] RADIO_STATUS
[16:39:15.320166] [2] HEARTBEAT
[16:39:15.328241] [3] ATTITUDE_TARGET
[16:39:15.541195] [4] VFR_HUD
[16:39:15.880243] [20] RADIO
[16:39:15.883222] [20] RADIO_STATUS
[16:39:16.226358] [5] HEARTBEAT
[16:39:16.460672] [6] VFR_HUD
[16:39:16.919472] [21] RADIO
[16:39:16.922446] [21] RADIO_STATUS
[16:39:17.158633] [7] HEARTBEAT
[16:39:17.165544] [8] SYS_STATUS
[16:39:17.279553] [9] BATTERY_STATUS
[16:39:17.397872] [10] ATTITUDE_TARGET
[16:39:17.402592] [11] VFR_HUD
[16:39:17.844637] [22] RADIO
[16:39:17.847574] [22] RADIO_STATUS
[16:39:17.965602] [12] VFR_HUD
[16:39:18.185719] [13] HEARTBEAT
[16:39:18.759720] [14] VFR_HUD
[16:39:18.868787] [23] RADIO
[16:39:18.871670] [23] RADIO_STATUS
[16:39:19.228917] [15] HEARTBEAT
[16:39:19.237041] [16] ATTITUDE_TARGET
[16:39:19.574835] [17] VFR_HUD
[16:39:19.913879] [24] RADIO
[16:39:19.916897] [24] RADIO_STATUS
[16:39:20.134965] [18] HEARTBEAT
[16:39:20.373787] [19] VFR_HUD
[16:39:20.938054] [25] RADIO
[16:39:20.941069] [25] RADIO_STATUS
[16:39:21.186206] [20] HEARTBEAT
[16:39:21.193169] [21] SYS_STATUS
[16:39:21.312158] [22] BATTERY_STATUS
[16:39:21.322953] [23] ATTITUDE_TARGET
[16:39:21.350141] [24] VFR_HUD
[16:39:21.858259] [26] RADIO
[16:39:21.861286] [26] RADIO_STATUS
[16:39:21.978277] [25] VFR_HUD
[16:39:22.204276] [26] HEARTBEAT
[16:39:22.788445] [27] VFR_HUD
[16:39:22.902393] [27] RADIO
[16:39:22.905407] [27] RADIO_STATUS
[16:39:23.366578] [28] HEARTBEAT
[16:39:23.374534] [29] ATTITUDE_TARGET
[16:39:23.588472] [30] VFR_HUD
[16:39:23.926524] [28] RADIO
[16:39:23.929529] [28] RADIO_STATUS
[16:39:24.163621] [31] HEARTBEAT
[16:39:24.971691] [29] RADIO
[16:39:24.974658] [29] RADIO_STATUS
[16:39:25.204803] [33] HEARTBEAT
[16:39:25.211794] [34] SYS_STATUS
[16:39:25.326059] [35] BATTERY_STATUS
[16:39:25.443811] [36] ATTITUDE_TARGET
[16:39:25.448749] [37] VFR_HUD
[16:39:25.890851] [30] RADIO
[16:39:25.893867] [30] RADIO_STATUS
[16:39:26.011855] [38] VFR_HUD
[16:39:26.231926] [39] HEARTBEAT
[16:39:26.806023] [40] VFR_HUD
[16:39:26.915980] [31] RADIO
[16:39:26.918006] [31] RADIO_STATUS
[16:39:27.170075] [41] HEARTBEAT
[16:39:27.178062] [42] ATTITUDE_TARGET
[16:39:27.621170] [43] VFR_HUD
[16:39:27.960251] [32] RADIO
[16:39:27.963156] [32] RADIO_STATUS
[16:39:28.181260] [44] HEARTBEAT
[16:39:28.415251] [45] VFR_HUD
[16:39:28.874351] [33] RADIO
[16:39:28.877418] [33] RADIO_STATUS
[16:39:29.237434] [46] HEARTBEAT
[16:39:29.244413] [47] SYS_STATUS
[16:39:29.278416] [48] BATTERY_STATUS
[16:39:29.280410] [49] EXTENDED_SYS_STATE
[16:39:29.288357] [50] ATTITUDE_TARGET
[16:39:29.293373] [51] VFR_HUD
[16:39:29.296354] [52] SYSTEM_TIME
[16:39:29.904524] [34] RADIO
[16:39:29.907854] [34] RADIO_STATUS
[16:39:30.024596] [53] VFR_HUD
[16:39:30.154598] [54] HEARTBEAT
[16:39:30.834666] [55] VFR_HUD
[16:39:30.943638] [35] RADIO
[16:39:30.946650] [35] RADIO_STATUS
[16:39:31.183759] [56] HEARTBEAT
[16:39:31.191717] [57] ATTITUDE_TARGET
[16:39:31.634754] [58] VFR_HUD
[16:39:31.973828] [36] RADIO
[16:39:31.976993] [36] RADIO_STATUS
[16:39:32.214904] [59] HEARTBEAT
[16:39:32.893124] [37] RADIO
[16:39:32.896021] [37] RADIO_STATUS
[16:39:33.129172] [61] HEARTBEAT
[16:39:33.149096] [62] SYS_STATUS
[16:39:33.193125] [63] BATTERY_STATUS
[16:39:33.200212] [64] ATTITUDE_TARGET
[16:39:33.205146] [65] VFR_HUD
[16:39:33.933189] [38] RADIO
[16:39:33.936202] [38] RADIO_STATUS
[16:39:34.169195] [66] VFR_HUD
[16:39:34.172348] [67] HEARTBEAT
[16:39:34.853285] [68] VFR_HUD
[16:39:34.962333] [39] RADIO
[16:39:34.965329] [39] RADIO_STATUS
[16:39:35.217396] [69] HEARTBEAT
[16:39:35.225346] [70] ATTITUDE_TARGET
[16:39:35.542417] [71] VFR_HUD
[16:39:36.002670] [40] RADIO
[16:39:36.005541] [40] RADIO_STATUS
[16:39:36.228490] [72] HEARTBEAT
[16:39:36.357497] [73] VFR_HUD
[16:39:36.921594] [41] RADIO
[16:39:36.924580] [41] RADIO_STATUS
[16:39:37.159784] [74] HEARTBEAT
[16:39:37.166620] [75] SYS_STATUS
[16:39:37.286647] [76] BATTERY_STATUS
[16:39:37.398675] [77] ATTITUDE_TARGET
[16:39:37.403608] [78] VFR_HUD
[16:39:37.951686] [42] RADIO
[16:39:37.954683] [42] RADIO_STATUS
[16:39:37.989732] [79] VFR_HUD
[16:39:38.187766] [80] HEARTBEAT
[16:39:38.761894] [81] VFR_HUD
[16:39:38.990889] [43] RADIO
[16:39:38.993847] [43] RADIO_STATUS
[16:39:39.230977] [82] HEARTBEAT
[16:39:39.238979] [83] ATTITUDE_TARGET
[16:39:39.570977] [84] VFR_HUD
[16:39:40.020092] [44] RADIO
[16:39:40.023079] [44] RADIO_STATUS
[16:39:40.137088] [85] HEARTBEAT
[16:39:40.371083] [86] VFR_HUD
[16:39:40.940197] [45] RADIO
[16:39:40.943141] [45] RADIO_STATUS
[16:39:41.188337] [87] HEARTBEAT
[16:39:41.195415] [88] SYS_STATUS
[16:39:41.313335] [89] BATTERY_STATUS
[16:39:41.321282] [90] ATTITUDE_TARGET
[16:39:41.351275] [91] VFR_HUD
[16:39:41.980366] [92] VFR_HUD
[16:39:42.007352] [46] RADIO
[16:39:42.010435] [46] RADIO_STATUS
[16:39:42.205585] [93] HEARTBEAT
[16:39:43.008556] [47] RADIO
[16:39:43.011516] [47] RADIO_STATUS
[16:39:43.125739] [95] HEARTBEAT
[16:39:43.147630] [96] ATTITUDE_TARGET
[16:39:43.589675] [97] VFR_HUD
[16:39:44.048653] [48] RADIO
[16:39:44.051681] [48] RADIO_STATUS
[16:39:44.164723] [98] HEARTBEAT
[16:39:44.403755] [99] VFR_HUD
[16:39:44.972847] [49] RADIO
[16:39:44.975888] [49] RADIO_STATUS
[16:39:45.205986] [100] HEARTBEAT
[16:39:45.212989] [101] SYS_STATUS
[16:39:45.327936] [102] BATTERY_STATUS
[16:39:45.444907] [103] ATTITUDE_TARGET
[16:39:45.449889] [104] VFR_HUD
[16:39:45.998029] [50] RADIO
[16:39:46.000986] [50] RADIO_STATUS
[16:39:46.036044] [105] VFR_HUD
[16:39:46.234123] [106] HEARTBEAT
[16:39:46.808198] [107] VFR_HUD
[16:39:47.042198] [51] RADIO
[16:39:47.045178] [51] RADIO_STATUS
[16:39:47.172280] [108] HEARTBEAT
[16:39:47.180397] [109] ATTITUDE_TARGET
[16:39:47.627305] [110] VFR_HUD
[16:39:47.962377] [52] RADIO
[16:39:47.965329] [52] RADIO_STATUS
[16:39:48.183403] [111] HEARTBEAT
[16:39:48.417444] [112] VFR_HUD
[16:39:48.986588] [53] RADIO
[16:39:48.989462] [53] RADIO_STATUS
[16:39:49.234646] [113] HEARTBEAT
[16:39:49.241581] [114] SYS_STATUS
[16:39:49.363641] [115] BATTERY_STATUS
[16:39:49.366224] [116] EXTENDED_SYS_STATE
[16:39:49.372618] [117] ATTITUDE_TARGET
[16:39:49.377584] [118] VFR_HUD
[16:39:49.380529] [119] SYSTEM_TIME
[16:39:50.026727] [120] VFR_HUD
[16:39:50.059743] [54] RADIO
[16:39:50.061646] [54] RADIO_STATUS
[16:39:50.148602] [121] HEARTBEAT
[16:39:51.056117] [55] RADIO
[16:39:51.058939] [55] RADIO_STATUS
[16:39:51.185933] [123] HEARTBEAT
[16:39:51.193893] [124] ATTITUDE_TARGET
[16:39:51.637005] [125] VFR_HUD
[16:39:51.976056] [56] RADIO
[16:39:51.979046] [56] RADIO_STATUS
[16:39:52.217071] [126] HEARTBEAT
[16:39:52.446059] [127] VFR_HUD
[16:39:53.020323] [57] RADIO
[16:39:53.023128] [57] RADIO_STATUS
[16:39:54.045246] [58] RADIO
[16:39:54.048182] [58] RADIO_STATUS
[16:39:54.171293] [133] VFR_HUD
[16:39:54.174402] [134] HEARTBEAT
[16:39:54.750511] [135] VFR_HUD
[16:39:55.089591] [59] RADIO
[16:39:55.092560] [59] RADIO_STATUS
[16:39:55.219628] [136] HEARTBEAT
[16:39:55.227724] [137] ATTITUDE_TARGET
[16:39:55.544563] [138] VFR_HUD
[16:39:56.003588] [60] RADIO
[16:39:56.006622] [60] RADIO_STATUS
[16:39:56.230597] [139] HEARTBEAT
[16:39:56.359668] [140] VFR_HUD
[16:39:57.033710] [61] RADIO
[16:39:57.036673] [61] RADIO_STATUS
[16:39:57.161866] [141] HEARTBEAT
[16:39:57.168779] [142] SYS_STATUS
[16:39:57.288781] [143] BATTERY_STATUS
[16:39:57.400810] [144] ATTITUDE_TARGET
[16:39:57.409981] [145] VFR_HUD
[16:39:57.963846] [146] VFR_HUD
[16:39:58.072890] [62] RADIO
[16:39:58.075920] [62] RADIO_STATUS
[16:39:58.194021] [147] HEARTBEAT
[16:39:58.763062] [148] VFR_HUD
[16:39:59.102018] [63] RADIO
[16:39:59.105045] [63] RADIO_STATUS
[16:39:59.232071] [149] HEARTBEAT
[16:39:59.240106] [150] ATTITUDE_TARGET
[16:39:59.573094] [151] VFR_HUD
[16:40:00.022197] [64] RADIO
[16:40:00.025266] [64] RADIO_STATUS
[16:40:00.138202] [152] HEARTBEAT
[16:40:00.372257] [153] VFR_HUD
[16:40:01.061426] [65] RADIO
[16:40:01.064563] [65] RADIO_STATUS
[16:40:01.315601] [156] BATTERY_STATUS
[16:40:01.322387] [157] ATTITUDE_TARGET
[16:40:01.353436] [158] VFR_HUD
[16:40:01.981735] [159] VFR_HUD
[16:40:02.008536] [66] RADIO
[16:40:02.011506] [66] RADIO_STATUS
[16:40:02.207525] [160] HEARTBEAT
[16:40:02.797843] [161] VFR_HUD
[16:40:03.126710] [162] HEARTBEAT
[16:40:03.149664] [163] ATTITUDE_TARGET
[16:40:03.158918] [67] RADIO
[16:40:03.161634] [67] RADIO_STATUS
[16:40:03.592554] [164] VFR_HUD
[16:40:04.050869] [68] RADIO
[16:40:04.052808] [68] RADIO_STATUS
[16:40:04.167134] [165] HEARTBEAT
[16:40:04.406010] [166] VFR_HUD
[16:40:05.080163] [69] RADIO
[16:40:05.083620] [69] RADIO_STATUS
[16:40:05.208039] [167] HEARTBEAT
[16:40:05.215038] [168] SYS_STATUS
[16:40:05.330069] [169] BATTERY_STATUS
[16:40:05.447027] [170] ATTITUDE_TARGET
[16:40:05.452060] [171] VFR_HUD
[16:40:06.015113] [172] VFR_HUD
[16:40:06.127144] [173] HEARTBEAT
[16:40:06.152474] [70] RADIO
[16:40:06.155441] [70] RADIO_STATUS
[16:40:06.810453] [174] VFR_HUD
[16:40:07.039242] [71] RADIO
[16:40:07.042213] [71] RADIO_STATUS
[16:40:07.169303] [175] HEARTBEAT
[16:40:07.177459] [176] ATTITUDE_TARGET
[16:40:07.620513] [177] VFR_HUD
[16:40:08.069412] [72] RADIO
[16:40:08.072334] [72] RADIO_STATUS
[16:40:08.185471] [178] HEARTBEAT
[16:40:08.419635] [179] VFR_HUD
[16:40:09.108622] [73] RADIO
[16:40:09.111565] [73] RADIO_STATUS
[16:40:09.364655] [182] BATTERY_STATUS
[16:40:09.366533] [183] EXTENDED_SYS_STATE
[16:40:09.374601] [184] ATTITUDE_TARGET
[16:40:09.380446] [185] VFR_HUD
[16:40:09.382552] [186] SYSTEM_TIME
[16:40:10.028689] [187] VFR_HUD
[16:40:10.061680] [74] RADIO
[16:40:10.063631] [74] RADIO_STATUS
[16:40:10.149749] [188] HEARTBEAT
[16:40:10.838843] [189] VFR_HUD
[16:40:11.058225] [75] RADIO
[16:40:11.060888] [75] RADIO_STATUS
[16:40:11.187928] [190] HEARTBEAT
[16:40:11.195926] [191] ATTITUDE_TARGET
[16:40:11.638095] [192] VFR_HUD
[16:40:12.103080] [76] RADIO
[16:40:12.106000] [76] RADIO_STATUS
[16:40:12.214092] [193] HEARTBEAT
[16:40:12.328073] [194] VFR_HUD
[16:40:13.127235] [77] RADIO
[16:40:13.130159] [77] RADIO_STATUS
[16:40:13.187237] [195] HEARTBEAT
[16:40:13.193278] [196] SYS_STATUS
[16:40:13.201205] [197] BATTERY_STATUS
[16:40:13.213201] [198] ATTITUDE_TARGET
[16:40:13.218260] [199] VFR_HUD
[16:40:13.937592] [200] VFR_HUD
[16:40:14.163405] [201] HEARTBEAT
[16:40:14.194440] [78] RADIO
[16:40:14.197434] [78] RADIO_STATUS
[16:40:14.752532] [202] VFR_HUD
[16:40:15.091556] [79] RADIO
[16:40:15.094497] [79] RADIO_STATUS
[16:40:15.221559] [203] HEARTBEAT
[16:40:15.229698] [204] ATTITUDE_TARGET
[16:40:15.547659] [205] VFR_HUD
[16:40:16.116828] [80] RADIO
[16:40:16.118719] [80] RADIO_STATUS
[16:40:16.356753] [207] VFR_HUD
[16:40:17.163938] [208] HEARTBEAT
[16:40:17.171078] [209] SYS_STATUS
[16:40:17.183919] [81] RADIO
[16:40:17.186888] [81] RADIO_STATUS
[16:40:17.406155] [211] ATTITUDE_TARGET
[16:40:17.407980] [212] VFR_HUD
[16:40:17.966019] [213] VFR_HUD
[16:40:18.185116] [82] RADIO
[16:40:18.188057] [82] RADIO_STATUS
[16:40:18.220116] [214] HEARTBEAT
[16:40:18.766170] [215] VFR_HUD
[16:40:19.105250] [83] RADIO
[16:40:19.108218] [83] RADIO_STATUS
[16:40:19.154955] [216] HEARTBEAT
[16:40:19.161276] [217] ATTITUDE_TARGET
[16:40:19.587301] [218] VFR_HUD
[16:40:20.141413] [219] HEARTBEAT
[16:40:20.172388] [84] RADIO
[16:40:20.175408] [84] RADIO_STATUS
[16:40:20.375576] [220] VFR_HUD
[16:40:21.174616] [85] RADIO
[16:40:21.177564] [85] RADIO_STATUS
[16:40:21.233615] [221] HEARTBEAT
[16:40:21.240594] [222] SYS_STATUS
[16:40:21.248619] [223] BATTERY_STATUS
[16:40:21.260955] [224] ATTITUDE_TARGET
[16:40:21.265580] [225] VFR_HUD
[16:40:21.984725] [226] VFR_HUD
[16:40:22.210785] [227] HEARTBEAT
[16:40:22.241848] [86] RADIO
[16:40:22.244762] [86] RADIO_STATUS
[16:40:22.799834] [228] VFR_HUD
[16:40:23.143890] [229] HEARTBEAT
[16:40:23.151882] [230] ATTITUDE_TARGET
[16:40:23.243879] [87] RADIO
[16:40:23.246876] [87] RADIO_STATUS
[16:40:23.593975] [231] VFR_HUD
[16:40:24.162963] [88] RADIO
[16:40:24.165982] [88] RADIO_STATUS
[16:40:24.279000] [232] HEARTBEAT
[16:40:24.409041] [233] VFR_HUD
[16:40:25.211151] [234] HEARTBEAT
[16:40:25.217246] [235] SYS_STATUS
[16:40:25.230144] [89] RADIO
[16:40:25.233106] [89] RADIO_STATUS
[16:40:25.449276] [237] ATTITUDE_TARGET
[16:40:25.454395] [238] VFR_HUD
[16:40:26.013346] [239] VFR_HUD
[16:40:26.232354] [90] RADIO
[16:40:26.235297] [90] RADIO_STATUS
[16:40:26.348419] [240] HEARTBEAT
[16:40:26.812433] [241] VFR_HUD
[16:40:27.151807] [91] RADIO
[16:40:27.154541] [91] RADIO_STATUS
[16:40:27.281527] [242] HEARTBEAT
[16:40:27.289517] [243] ATTITUDE_TARGET
[16:40:28.187707] [245] HEARTBEAT
[16:40:28.300719] [92] RADIO
[16:40:28.303641] [92] RADIO_STATUS
[16:40:28.339676] [246] VFR_HUD
[16:40:29.220780] [93] RADIO
[16:40:29.223760] [93] RADIO_STATUS
[16:40:29.348888] [247] HEARTBEAT
[16:40:29.355860] [248] SYS_STATUS
[16:40:29.478873] [249] BATTERY_STATUS
[16:40:29.479771] [250] EXTENDED_SYS_STATE
[16:40:29.511873] [251] ATTITUDE_TARGET
[16:40:29.516894] [252] VFR_HUD
[16:40:29.520850] [253] SYSTEM_TIME
[16:40:30.030960] [254] VFR_HUD
[16:40:30.146986] [255] HEARTBEAT
[16:40:30.260193] [94] RADIO
[16:40:30.262971] [94] RADIO_STATUS
[16:40:30.841104] [0] VFR_HUD
[16:40:31.190196] [1] HEARTBEAT
[16:40:31.198212] [2] ATTITUDE_TARGET
[16:40:31.290160] [95] RADIO
[16:40:31.293134] [95] RADIO_STATUS
[16:40:31.535191] [3] VFR_HUD
[16:40:32.209340] [96] RADIO
[16:40:32.212237] [96] RADIO_STATUS
[16:40:32.325336] [4] HEARTBEAT
[16:40:32.348339] [5] VFR_HUD
[16:40:33.152541] [6] HEARTBEAT
[16:40:33.159551] [7] SYS_STATUS
[16:40:33.198659] [8] BATTERY_STATUS
[16:40:33.206642] [9] ATTITUDE_TARGET
[16:40:33.211553] [10] VFR_HUD
[16:40:33.248483] [97] RADIO
[16:40:33.251505] [97] RADIO_STATUS
[16:40:34.174853] [11] VFR_HUD
[16:40:34.177642] [12] HEARTBEAT
[16:40:34.185665] [98] RADIO
[16:40:34.188613] [98] RADIO_STATUS
[16:40:34.748754] [13] VFR_HUD
[16:40:35.197874] [99] RADIO
[16:40:35.200892] [99] RADIO_STATUS
[16:40:35.327855] [14] HEARTBEAT
[16:40:35.335878] [15] ATTITUDE_TARGET
[16:40:35.548884] [16] VFR_HUD
[16:40:36.128986] [17] HEARTBEAT
[16:40:36.237060] [100] RADIO
[16:40:36.239996] [100] RADIO_STATUS
[16:40:36.358104] [18] VFR_HUD
[16:40:37.165169] [19] HEARTBEAT
[16:40:37.172161] [20] SYS_STATUS
[16:40:37.267272] [101] RADIO
[16:40:37.270372] [101] RADIO_STATUS
[16:40:37.308292] [21] BATTERY_STATUS
[16:40:37.335304] [22] ATTITUDE_TARGET
[16:40:37.340269] [23] VFR_HUD
[16:40:38.192539] [102] RADIO
[16:40:38.195277] [102] RADIO_STATUS
[16:40:38.221382] [25] HEARTBEAT
[16:40:38.767393] [26] VFR_HUD
[16:40:39.236579] [27] HEARTBEAT
[16:40:39.244525] [28] ATTITUDE_TARGET
[16:40:39.254558] [103] RADIO
[16:40:39.257565] [103] RADIO_STATUS
[16:40:39.582530] [29] VFR_HUD
[16:40:40.142706] [30] HEARTBEAT
[16:40:40.256655] [104] RADIO
[16:40:40.259671] [104] RADIO_STATUS
[16:40:40.376739] [31] VFR_HUD
[16:40:41.199817] [32] HEARTBEAT
[16:40:41.205777] [33] SYS_STATUS
[16:40:41.245848] [34] BATTERY_STATUS
[16:40:41.253797] [35] ATTITUDE_TARGET
[16:40:41.258995] [36] VFR_HUD
[16:40:41.300796] [105] RADIO
[16:40:41.303753] [105] RADIO_STATUS
[16:40:42.221914] [37] VFR_HUD
[16:40:42.225174] [38] HEARTBEAT
[16:40:42.325947] [106] RADIO
[16:40:42.328877] [106] RADIO_STATUS
[16:40:42.801966] [39] VFR_HUD
[16:40:43.244996] [107] RADIO
[16:40:43.247976] [107] RADIO_STATUS
[16:40:43.293109] [40] HEARTBEAT
[16:40:43.299989] [41] ATTITUDE_TARGET
[16:40:43.596040] [42] VFR_HUD
[16:40:44.176227] [43] HEARTBEAT
[16:40:44.290237] [108] RADIO
[16:40:44.293216] [108] RADIO_STATUS
[16:40:44.405224] [44] VFR_HUD
[16:40:45.213368] [45] HEARTBEAT
[16:40:45.219324] [46] SYS_STATUS
[16:40:45.232324] [109] RADIO
[16:40:45.235311] [109] RADIO_STATUS
[16:40:45.339310] [47] BATTERY_STATUS
[16:40:45.451418] [48] ATTITUDE_TARGET
[16:40:45.456375] [49] VFR_HUD
[16:40:46.120509] [51] HEARTBEAT
[16:40:46.234554] [110] RADIO
[16:40:46.237496] [110] RADIO_STATUS
[16:40:46.814782] [52] VFR_HUD
[16:40:47.282642] [53] HEARTBEAT
[16:40:47.290620] [54] ATTITUDE_TARGET
[16:40:47.301599] [111] RADIO
[16:40:47.304578] [111] RADIO_STATUS
[16:40:47.623604] [55] VFR_HUD
[16:40:48.189913] [56] HEARTBEAT
[16:40:48.303049] [112] RADIO
[16:40:48.305793] [112] RADIO_STATUS
[16:40:49.240950] [58] HEARTBEAT
[16:40:49.247906] [59] SYS_STATUS
[16:40:49.368956] [60] BATTERY_STATUS
[16:40:49.370983] [61] EXTENDED_SYS_STATE
[16:40:49.379183] [62] ATTITUDE_TARGET
[16:40:49.383943] [63] VFR_HUD
[16:40:49.386870] [64] SYSTEM_TIME
[16:40:49.414934] [113] RADIO
[16:40:49.418111] [113] RADIO_STATUS
[16:40:49.928028] [65] VFR_HUD
[16:40:50.149044] [66] HEARTBEAT
[16:40:50.262175] [114] RADIO
[16:40:50.265099] [114] RADIO_STATUS
[16:40:50.848172] [67] VFR_HUD
[16:40:51.295248] [115] RADIO
[16:40:51.295561] [115] RADIO_STATUS
[16:40:51.339286] [68] HEARTBEAT
[16:40:51.347236] [69] ATTITUDE_TARGET
[16:40:51.532260] [70] VFR_HUD
[16:40:52.217759] [71] HEARTBEAT
[16:40:52.332392] [72] VFR_HUD
[16:40:52.364396] [116] RADIO
[16:40:52.367464] [116] RADIO_STATUS
[16:40:53.149551] [73] HEARTBEAT
[16:40:53.156604] [74] SYS_STATUS
[16:40:53.274523] [75] BATTERY_STATUS
[16:40:53.282558] [76] ATTITUDE_TARGET
[16:40:53.312512] [77] VFR_HUD
[16:40:53.334540] [117] RADIO
[16:40:53.337498] [117] RADIO_STATUS
[16:40:53.941744] [78] VFR_HUD
[16:40:54.166700] [79] HEARTBEAT
[16:40:54.280668] [118] RADIO
[16:40:54.283660] [118] RADIO_STATUS
[16:40:54.750764] [80] VFR_HUD
[16:40:55.330018] [81] HEARTBEAT
[16:40:55.336937] [82] ATTITUDE_TARGET
[16:40:55.430014] [119] RADIO
[16:40:55.432881] [119] RADIO_STATUS
[16:40:55.550876] [83] VFR_HUD
[16:40:56.131094] [84] HEARTBEAT
[16:40:56.349033] [120] RADIO
[16:40:56.352070] [120] RADIO_STATUS
[16:40:56.470045] [85] VFR_HUD
[16:40:57.167128] [86] HEARTBEAT
[16:40:57.174115] [87] SYS_STATUS
[16:40:57.289125] [88] BATTERY_STATUS
[16:40:57.407130] [89] ATTITUDE_TARGET
[16:40:57.411173] [90] VFR_HUD
[16:40:57.417173] [121] RADIO
[16:40:57.419296] [121] RADIO_STATUS
[16:40:57.974290] [91] VFR_HUD
[16:40:58.194314] [92] HEARTBEAT
[16:40:58.308418] [122] RADIO
[16:40:58.311271] [122] RADIO_STATUS
[16:40:58.769452] [93] VFR_HUD
[16:40:59.337970] [123] RADIO
[16:40:59.340600] [123] RADIO_STATUS
[16:40:59.467628] [94] HEARTBEAT
[16:40:59.475550] [95] ATTITUDE_TARGET
[16:40:59.583569] [96] VFR_HUD
[16:41:00.143703] [97] HEARTBEAT
[16:41:00.378690] [98] VFR_HUD
[16:41:00.405690] [124] RADIO
[16:41:00.407668] [124] RADIO_STATUS
[16:41:01.200852] [99] HEARTBEAT
[16:41:01.206867] [100] SYS_STATUS
[16:41:01.246813] [101] BATTERY_STATUS
[16:41:01.255252] [102] ATTITUDE_TARGET
[16:41:01.259984] [103] VFR_HUD
[16:41:01.409846] [125] RADIO
[16:41:01.410185] [125] RADIO_STATUS
[16:41:02.223025] [104] VFR_HUD
[16:41:02.226091] [105] HEARTBEAT
[16:41:02.326080] [126] RADIO
[16:41:02.329064] [126] RADIO_STATUS
[16:41:02.797087] [106] VFR_HUD
[16:41:03.146173] [107] HEARTBEAT
[16:41:03.154144] [108] ATTITUDE_TARGET
[16:41:03.366183] [127] RADIO
[16:41:03.369124] [127] RADIO_STATUS
[16:41:03.596312] [109] VFR_HUD
[16:41:04.177384] [110] HEARTBEAT
[16:41:04.395371] [128] RADIO
[16:41:04.398461] [128] RADIO_STATUS
[16:41:04.516322] [111] VFR_HUD
[16:41:05.213567] [112] HEARTBEAT
[16:41:05.220520] [113] SYS_STATUS
[16:41:05.340528] [114] BATTERY_STATUS
[16:41:05.455074] [115] ATTITUDE_TARGET
[16:41:05.458011] [116] VFR_HUD
[16:41:05.462541] [129] RADIO
[16:41:05.465480] [129] RADIO_STATUS
[16:41:06.015694] [117] VFR_HUD
[16:41:06.120594] [118] HEARTBEAT
[16:41:06.354679] [130] RADIO
[16:41:06.357627] [130] RADIO_STATUS
[16:41:06.815700] [119] VFR_HUD
[16:41:07.179761] [120] HEARTBEAT
[16:41:07.187795] [121] ATTITUDE_TARGET
[16:41:07.383768] [131] RADIO
[16:41:07.386777] [131] RADIO_STATUS
[16:41:07.624883] [122] VFR_HUD
[16:41:08.189949] [123] HEARTBEAT
[16:41:08.424042] [124] VFR_HUD
[16:41:08.451071] [132] RADIO
[16:41:08.454013] [132] RADIO_STATUS
[16:41:09.247139] [125] HEARTBEAT
[16:41:09.254841] [126] SYS_STATUS
[16:41:09.288450] [127] BATTERY_STATUS
[16:41:09.289012] [128] EXTENDED_SYS_STATE
[16:41:09.297105] [129] ATTITUDE_TARGET
[16:41:09.302087] [130] VFR_HUD
[16:41:09.306184] [131] SYSTEM_TIME
[16:41:09.348134] [133] RADIO
[16:41:09.351100] [133] RADIO_STATUS
[16:41:10.033198] [132] VFR_HUD
[16:41:10.373262] [134] RADIO
[16:41:10.377064] [134] RADIO_STATUS
[16:41:10.723380] [134] VFR_HUD
[16:41:11.192423] [135] HEARTBEAT
[16:41:11.200347] [136] ATTITUDE_TARGET
[16:41:11.417373] [135] RADIO
[16:41:11.420359] [135] RADIO_STATUS
[16:41:11.532725] [137] VFR_HUD
[16:41:12.218556] [138] HEARTBEAT
[16:41:12.332576] [139] VFR_HUD
[16:41:12.364493] [136] RADIO
[16:41:12.367470] [136] RADIO_STATUS
[16:41:13.149669] [140] HEARTBEAT
[16:41:13.156643] [141] SYS_STATUS
[16:41:13.274667] [142] BATTERY_STATUS
[16:41:13.282709] [143] ATTITUDE_TARGET
[16:41:13.312682] [144] VFR_HUD
[16:41:13.361652] [137] RADIO
[16:41:13.364624] [137] RADIO_STATUS
[16:41:13.941798] [145] VFR_HUD
[16:41:14.167822] [146] HEARTBEAT
[16:41:14.405880] [138] RADIO
[16:41:14.409757] [138] RADIO_STATUS
[16:41:15.220050] [148] HEARTBEAT
[16:41:15.227967] [149] ATTITUDE_TARGET
[16:41:15.430030] [139] RADIO
[16:41:15.433077] [139] RADIO_STATUS
[16:41:15.551184] [150] VFR_HUD
[16:41:16.126199] [151] HEARTBEAT
[16:41:16.366152] [152] VFR_HUD
[16:41:16.486172] [140] RADIO
[16:41:16.489131] [140] RADIO_STATUS
[16:41:17.167486] [153] HEARTBEAT
[16:41:17.174343] [154] SYS_STATUS
[16:41:17.289359] [155] BATTERY_STATUS
[16:41:17.406505] [156] ATTITUDE_TARGET
[16:41:17.411336] [157] VFR_HUD
[16:41:17.449391] [141] RADIO
[16:41:17.452361] [141] RADIO_STATUS
[16:41:17.975806] [158] VFR_HUD
[16:41:18.419522] [142] RADIO
[16:41:18.422455] [142] RADIO_STATUS
[16:41:18.769663] [160] VFR_HUD
[16:41:19.238691] [161] HEARTBEAT
[16:41:19.246676] [162] ATTITUDE_TARGET
[16:41:19.463688] [143] RADIO
[16:41:19.466638] [143] RADIO_STATUS
[16:41:19.584668] [163] VFR_HUD
[16:41:20.144831] [164] HEARTBEAT
[16:41:20.378854] [165] VFR_HUD
[16:41:20.405863] [144] RADIO
[16:41:20.408776] [144] RADIO_STATUS
[16:41:21.196013] [166] HEARTBEAT
[16:41:21.202957] [167] SYS_STATUS
[16:41:21.320990] [168] BATTERY_STATUS
[16:41:21.329040] [169] ATTITUDE_TARGET
[16:41:21.359039] [170] VFR_HUD
[16:41:21.409868] [145] RADIO
[16:41:21.411028] [145] RADIO_STATUS
[16:41:21.988149] [171] VFR_HUD
[16:41:22.213319] [172] HEARTBEAT
[16:41:22.447176] [146] RADIO
[16:41:22.450186] [146] RADIO_STATUS
[16:41:23.146375] [174] HEARTBEAT
[16:41:23.154303] [175] ATTITUDE_TARGET
[16:41:23.476494] [147] RADIO
[16:41:23.479393] [147] RADIO_STATUS
[16:41:23.597397] [176] VFR_HUD
[16:41:24.177616] [177] HEARTBEAT
[16:41:24.406557] [178] VFR_HUD
[16:41:24.515585] [148] RADIO
[16:41:24.518540] [148] RADIO_STATUS
[16:41:25.213660] [179] HEARTBEAT
[16:41:25.220683] [180] SYS_STATUS
[16:41:25.334670] [181] BATTERY_STATUS
[16:41:25.452738] [182] ATTITUDE_TARGET
[16:41:25.457971] [183] VFR_HUD
[16:41:25.462642] [149] RADIO
[16:41:25.465707] [149] RADIO_STATUS
[16:41:26.015817] [184] VFR_HUD
[16:41:26.120835] [185] HEARTBEAT
[16:41:26.464811] [150] RADIO
[16:41:26.467797] [150] RADIO_STATUS
[16:41:26.814829] [186] VFR_HUD
[16:41:27.179941] [187] HEARTBEAT
[16:41:27.187929] [188] ATTITUDE_TARGET
[16:41:27.503982] [151] RADIO
[16:41:27.506994] [151] RADIO_STATUS
[16:41:27.630308] [189] VFR_HUD
[16:41:28.190114] [190] HEARTBEAT
[16:41:28.425124] [191] VFR_HUD
[16:41:28.452198] [152] RADIO
[16:41:28.455198] [152] RADIO_STATUS
[16:41:29.247321] [192] HEARTBEAT
[16:41:29.254256] [193] SYS_STATUS
[16:41:29.288218] [194] BATTERY_STATUS
[16:41:29.290208] [195] EXTENDED_SYS_STATE
[16:41:29.298239] [196] ATTITUDE_TARGET
[16:41:29.302232] [197] VFR_HUD
[16:41:29.306196] [198] SYSTEM_TIME
[16:41:29.453262] [153] RADIO
[16:41:29.456363] [153] RADIO_STATUS
[16:41:30.034395] [199] VFR_HUD
[16:41:30.149432] [200] HEARTBEAT
[16:41:30.493554] [154] RADIO
[16:41:30.496406] [154] RADIO_STATUS
[16:41:30.723555] [201] VFR_HUD
[16:41:31.192627] [202] HEARTBEAT
[16:41:31.200635] [203] ATTITUDE_TARGET
[16:41:31.522595] [155] RADIO
[16:41:31.525665] [155] RADIO_STATUS
[16:41:31.643659] [204] VFR_HUD
[16:41:32.223778] [205] HEARTBEAT
[16:41:32.332774] [206] VFR_HUD
[16:41:32.459159] [156] RADIO
[16:41:32.461801] [156] RADIO_STATUS
[16:41:33.276052] [209] BATTERY_STATUS
[16:41:33.283964] [210] ATTITUDE_TARGET
[16:41:33.313967] [211] VFR_HUD
[16:41:33.481961] [157] RADIO
[16:41:33.485196] [157] RADIO_STATUS
[16:41:33.943078] [212] VFR_HUD
[16:41:34.168270] [213] HEARTBEAT
[16:41:34.511193] [158] RADIO
[16:41:34.514101] [158] RADIO_STATUS
[16:41:34.752179] [214] VFR_HUD
[16:41:35.221361] [215] HEARTBEAT
[16:41:35.229353] [216] ATTITUDE_TARGET
[16:41:35.552263] [217] VFR_HUD
[16:41:35.579329] [159] RADIO
[16:41:35.582259] [159] RADIO_STATUS
[16:41:36.127393] [218] HEARTBEAT
[16:41:36.368872] [219] VFR_HUD
[16:41:36.487411] [160] RADIO
[16:41:36.490439] [160] RADIO_STATUS
[16:41:37.290595] [222] BATTERY_STATUS
[16:41:37.409798] [223] ATTITUDE_TARGET
[16:41:37.412745] [224] VFR_HUD
[16:41:37.500640] [161] RADIO
[16:41:37.503549] [161] RADIO_STATUS
[16:41:37.975691] [225] VFR_HUD
[16:41:38.195681] [226] HEARTBEAT
[16:41:38.545589] [162] RADIO
[16:41:38.547707] [162] RADIO_STATUS
[16:41:38.770779] [227] VFR_HUD
[16:41:39.239809] [228] HEARTBEAT
[16:41:39.246845] [229] ATTITUDE_TARGET
[16:41:39.568877] [163] RADIO
[16:41:39.571933] [163] RADIO_STATUS
[16:41:39.607931] [230] VFR_HUD
[16:41:40.146005] [231] HEARTBEAT
[16:41:40.380052] [232] VFR_HUD
[16:41:40.489052] [164] RADIO
[16:41:40.492020] [164] RADIO_STATUS
[16:41:41.322186] [235] BATTERY_STATUS
[16:41:41.330158] [236] ATTITUDE_TARGET
[16:41:41.360123] [237] VFR_HUD
[16:41:41.533165] [165] RADIO
[16:41:41.536168] [165] RADIO_STATUS
[16:41:41.989280] [238] VFR_HUD
[16:41:42.214283] [239] HEARTBEAT
[16:41:42.558320] [166] RADIO
[16:41:42.562912] [166] RADIO_STATUS
[16:41:42.798362] [240] VFR_HUD
[16:41:43.147500] [241] HEARTBEAT
[16:41:43.155377] [242] ATTITUDE_TARGET
[16:41:43.600220] [243] VFR_HUD
[16:41:43.630446] [167] RADIO
[16:41:43.633408] [167] RADIO_STATUS
[16:41:44.178595] [244] HEARTBEAT
[16:41:44.408635] [245] VFR_HUD
[16:41:44.522646] [168] RADIO
[16:41:44.525639] [168] RADIO_STATUS
[16:41:45.215736] [246] HEARTBEAT
[16:41:45.221753] [247] SYS_STATUS
[16:41:45.336718] [248] BATTERY_STATUS
[16:41:45.454773] [249] ATTITUDE_TARGET
[16:41:45.458883] [250] VFR_HUD
[16:41:45.546762] [169] RADIO
[16:41:45.549704] [169] RADIO_STATUS
[16:41:46.022866] [251] VFR_HUD
[16:41:46.133855] [252] HEARTBEAT
[16:41:46.592029] [170] RADIO
[16:41:46.594900] [170] RADIO_STATUS
[16:41:46.816971] [253] VFR_HUD
[16:41:47.181118] [254] HEARTBEAT
[16:41:47.189019] [255] ATTITUDE_TARGET
[16:41:47.523099] [171] RADIO
[16:41:47.526054] [171] RADIO_STATUS
[16:41:47.632055] [0] VFR_HUD
[16:41:48.192174] [1] HEARTBEAT
[16:41:48.426184] [2] VFR_HUD
[16:41:48.535217] [172] RADIO
[16:41:48.538203] [172] RADIO_STATUS
[16:41:49.117268] [3] HEARTBEAT
[16:41:49.137287] [4] SYS_STATUS
[16:41:49.175340] [5] BATTERY_STATUS
[16:41:49.177268] [6] EXTENDED_SYS_STATE
[16:41:49.185053] [7] ATTITUDE_TARGET
[16:41:49.189278] [8] VFR_HUD
[16:41:49.193287] [9] SYSTEM_TIME
[16:41:49.575374] [173] RADIO
[16:41:49.578356] [173] RADIO_STATUS
[16:41:50.036451] [10] VFR_HUD
[16:41:50.156461] [11] HEARTBEAT
[16:41:50.605554] [174] RADIO
[16:41:50.607524] [174] RADIO_STATUS
[16:41:50.725539] [12] VFR_HUD
[16:41:51.194678] [13] HEARTBEAT
[16:41:51.202605] [14] ATTITUDE_TARGET
[16:41:51.644705] [175] RADIO
[16:41:51.647689] [175] RADIO_STATUS
[16:41:52.225937] [16] HEARTBEAT
[16:41:52.334967] [17] VFR_HUD
[16:41:52.563876] [176] RADIO
[16:41:52.566785] [176] RADIO_STATUS
[16:41:53.151901] [18] HEARTBEAT
[16:41:53.158955] [19] SYS_STATUS
[16:41:53.327017] [22] VFR_HUD
[16:41:53.594005] [177] RADIO
[16:41:53.597110] [177] RADIO_STATUS
[16:41:53.944075] [23] VFR_HUD
[16:41:54.170088] [24] HEARTBEAT
[16:41:54.633207] [178] RADIO
[16:41:54.636117] [178] RADIO_STATUS
[16:41:54.759122] [25] VFR_HUD
[16:41:55.228209] [26] HEARTBEAT
[16:41:55.236416] [27] ATTITUDE_TARGET
[16:41:55.553245] [28] VFR_HUD
[16:41:55.580214] [179] RADIO
[16:41:55.583233] [179] RADIO_STATUS
[16:41:56.368683] [30] VFR_HUD
[16:41:56.582605] [180] RADIO
[16:41:56.585496] [180] RADIO_STATUS
[16:41:57.170628] [31] HEARTBEAT
[16:41:57.176744] [32] SYS_STATUS
[16:41:57.409839] [34] ATTITUDE_TARGET
[16:41:57.414638] [35] VFR_HUD
[16:41:57.621652] [181] RADIO
[16:41:57.624637] [181] RADIO_STATUS
[16:41:57.977708] [36] VFR_HUD
[16:41:58.197818] [37] HEARTBEAT
[16:41:58.651878] [182] RADIO
[16:41:58.655532] [182] RADIO_STATUS
[16:41:58.771859] [38] VFR_HUD
[16:41:59.118606] [39] HEARTBEAT
[16:41:59.140155] [40] ATTITUDE_TARGET
[16:41:59.570996] [183] RADIO
[16:41:59.574326] [183] RADIO_STATUS
[16:41:59.692165] [41] VFR_HUD
[16:42:00.147066] [42] HEARTBEAT
[16:42:00.381208] [43] VFR_HUD
[16:42:00.610103] [184] RADIO
[16:42:00.613066] [184] RADIO_STATUS
[16:42:01.198280] [44] HEARTBEAT
[16:42:01.205237] [45] SYS_STATUS
[16:42:01.361194] [48] VFR_HUD
[16:42:01.640268] [185] RADIO
[16:42:01.643220] [185] RADIO_STATUS
[16:42:01.990250] [49] VFR_HUD
[16:42:02.215311] [50] HEARTBEAT
[16:42:02.679435] [186] RADIO
[16:42:02.682340] [186] RADIO_STATUS
[16:42:02.800466] [51] VFR_HUD
[16:42:03.149489] [52] HEARTBEAT
[16:42:03.156436] [53] ATTITUDE_TARGET
[16:42:03.599666] [54] VFR_HUD
[16:42:03.631536] [187] RADIO
[16:42:03.634478] [187] RADIO_STATUS
[16:42:04.174813] [55] HEARTBEAT
[16:42:04.414695] [56] VFR_HUD
[16:42:04.629949] [188] RADIO
[16:42:04.631768] [188] RADIO_STATUS
[16:42:05.216766] [57] HEARTBEAT
[16:42:05.223835] [58] SYS_STATUS
[16:42:05.455858] [60] ATTITUDE_TARGET
[16:42:05.461029] [61] VFR_HUD
[16:42:05.667896] [189] RADIO
[16:42:05.670931] [189] RADIO_STATUS
[16:42:06.023928] [62] VFR_HUD
[16:42:06.135929] [63] HEARTBEAT
[16:42:06.698041] [190] RADIO
[16:42:06.701043] [190] RADIO_STATUS
[16:42:06.818023] [64] VFR_HUD
[16:42:07.183134] [65] HEARTBEAT
[16:42:07.190237] [66] ATTITUDE_TARGET
[16:42:07.617243] [191] RADIO
[16:42:07.620302] [191] RADIO_STATUS
[16:42:08.193357] [68] HEARTBEAT
[16:42:08.427323] [69] VFR_HUD
[16:42:08.662380] [192] RADIO
[16:42:08.665377] [192] RADIO_STATUS
[16:42:09.118502] [70] HEARTBEAT
[16:42:09.138507] [71] SYS_STATUS
[16:42:09.176715] [72] BATTERY_STATUS
[16:42:09.178478] [73] EXTENDED_SYS_STATE
[16:42:09.185394] [74] ATTITUDE_TARGET
[16:42:09.190370] [75] VFR_HUD
[16:42:09.194374] [76] SYSTEM_TIME
[16:42:09.686536] [193] RADIO
[16:42:09.689518] [193] RADIO_STATUS
[16:42:10.158068] [78] HEARTBEAT
[16:42:10.731608] [79] VFR_HUD
[16:42:10.758650] [194] RADIO
[16:42:10.761680] [194] RADIO_STATUS
[16:42:11.195719] [80] HEARTBEAT
[16:42:11.203748] [81] ATTITUDE_TARGET
[16:42:11.536867] [82] VFR_HUD
[16:42:11.650859] [195] RADIO
[16:42:11.653748] [195] RADIO_STATUS
[16:42:12.336050] [84] VFR_HUD
[16:42:12.674982] [196] RADIO
[16:42:12.677978] [196] RADIO_STATUS
[16:42:13.158088] [85] HEARTBEAT
[16:42:13.165123] [86] SYS_STATUS
[16:42:13.205101] [87] BATTERY_STATUS
[16:42:13.213063] [88] ATTITUDE_TARGET
[16:42:13.217014] [89] VFR_HUD
[16:42:13.720080] [197] RADIO
[16:42:13.723063] [197] RADIO_STATUS
[16:42:14.181178] [90] VFR_HUD
[16:42:14.184224] [91] HEARTBEAT
[16:42:14.634448] [198] RADIO
[16:42:14.637242] [198] RADIO_STATUS
[16:42:14.760352] [92] VFR_HUD
[16:42:15.229331] [93] HEARTBEAT
[16:42:15.237337] [94] ATTITUDE_TARGET
[16:42:15.555423] [95] VFR_HUD
[16:42:15.664417] [199] RADIO
[16:42:15.667419] [199] RADIO_STATUS
[16:42:16.130585] [96] HEARTBEAT
[16:42:16.369725] [97] VFR_HUD
[16:42:16.703577] [200] RADIO
[16:42:16.706532] [200] RADIO_STATUS
[16:42:17.171663] [98] HEARTBEAT
[16:42:17.178690] [99] SYS_STATUS
[16:42:17.298961] [100] BATTERY_STATUS
[16:42:17.410714] [101] ATTITUDE_TARGET
[16:42:17.415916] [102] VFR_HUD
[16:42:17.733683] [201] RADIO
[16:42:17.736704] [201] RADIO_STATUS
[16:42:18.204764] [104] HEARTBEAT
[16:42:18.652843] [202] RADIO
[16:42:18.655772] [202] RADIO_STATUS
[16:42:18.773824] [105] VFR_HUD
[16:42:19.583038] [108] VFR_HUD
[16:42:19.693212] [203] RADIO
[16:42:19.696036] [203] RADIO_STATUS
[16:42:20.149790] [109] HEARTBEAT
[16:42:20.383155] [110] VFR_HUD
[16:42:20.722162] [204] RADIO
[16:42:20.725174] [204] RADIO_STATUS
[16:42:21.200449] [111] HEARTBEAT
[16:42:21.207353] [112] SYS_STATUS
[16:42:21.325420] [113] BATTERY_STATUS
[16:42:21.333287] [114] ATTITUDE_TARGET
[16:42:21.363307] [115] VFR_HUD
[16:42:21.762410] [205] RADIO
[16:42:21.764401] [205] RADIO_STATUS
[16:42:21.992473] [116] VFR_HUD
[16:42:22.217510] [117] HEARTBEAT
[16:42:22.681559] [206] RADIO
[16:42:22.684578] [206] RADIO_STATUS
[16:42:22.802551] [118] VFR_HUD
[16:42:23.151695] [119] HEARTBEAT
[16:42:23.158629] [120] ATTITUDE_TARGET
[16:42:23.601689] [121] VFR_HUD
[16:42:23.710700] [207] RADIO
[16:42:23.713650] [207] RADIO_STATUS
[16:42:24.176804] [122] HEARTBEAT
[16:42:24.416903] [123] VFR_HUD
[16:42:24.752211] [208] RADIO
[16:42:24.753833] [208] RADIO_STATUS
[16:42:25.219104] [124] HEARTBEAT
[16:42:25.224955] [125] SYS_STATUS
[16:42:25.339901] [126] BATTERY_STATUS
[16:42:25.780036] [209] RADIO
[16:42:25.783075] [209] RADIO_STATUS
[16:42:26.130125] [129] VFR_HUD
[16:42:26.137074] [130] HEARTBEAT
[16:42:26.699198] [210] RADIO
[16:42:26.702081] [210] RADIO_STATUS
[16:42:26.820122] [131] VFR_HUD
[16:42:27.289224] [132] HEARTBEAT
[16:42:27.296223] [133] ATTITUDE_TARGET
[16:42:27.635278] [134] VFR_HUD
[16:42:27.750297] [211] RADIO
[16:42:27.753325] [211] RADIO_STATUS
[16:42:28.195382] [135] HEARTBEAT
[16:42:28.429455] [136] VFR_HUD
[16:42:28.768488] [212] RADIO
[16:42:28.771411] [212] RADIO_STATUS
[16:42:29.114571] [137] HEARTBEAT
[16:42:29.134631] [138] SYS_STATUS
[16:42:29.178448] [139] BATTERY_STATUS
[16:42:29.179522] [140] EXTENDED_SYS_STATE
[16:42:29.187585] [141] ATTITUDE_TARGET
[16:42:29.191561] [142] VFR_HUD
[16:42:29.195522] [143] SYSTEM_TIME
[16:42:29.807653] [213] RADIO
[16:42:29.811077] [213] RADIO_STATUS
[16:42:29.928658] [144] VFR_HUD
[16:42:30.159712] [145] HEARTBEAT
[16:42:30.728810] [146] VFR_HUD
[16:42:30.760797] [214] RADIO
[16:42:30.763746] [214] RADIO_STATUS
[16:42:31.197850] [147] HEARTBEAT
[16:42:31.205912] [148] ATTITUDE_TARGET
[16:42:31.545882] [149] VFR_HUD
[16:42:31.757021] [215] RADIO
[16:42:31.760053] [215] RADIO_STATUS
[16:42:32.228075] [150] HEARTBEAT
[16:42:32.338154] [151] VFR_HUD
[16:42:32.802237] [216] RADIO
[16:42:32.805353] [216] RADIO_STATUS
[16:42:33.160213] [152] HEARTBEAT
[16:42:33.167158] [153] SYS_STATUS
[16:42:33.206311] [154] BATTERY_STATUS
[16:42:33.214185] [155] ATTITUDE_TARGET
[16:42:33.219176] [156] VFR_HUD
[16:42:33.721326] [217] RADIO
[16:42:33.724240] [217] RADIO_STATUS
[16:42:34.182397] [157] VFR_HUD
[16:42:34.185386] [158] HEARTBEAT
[16:42:34.746462] [218] RADIO
[16:42:34.749393] [218] RADIO_STATUS
[16:42:34.784496] [159] VFR_HUD
[16:42:35.556592] [162] VFR_HUD
[16:42:35.790581] [219] RADIO
[16:42:35.793581] [219] RADIO_STATUS
[16:42:36.137661] [163] HEARTBEAT
[16:42:36.815738] [220] RADIO
[16:42:36.818753] [220] RADIO_STATUS
[16:42:37.173864] [165] HEARTBEAT
[16:42:37.180811] [166] SYS_STATUS
[16:42:37.300853] [167] BATTERY_STATUS
[16:42:37.412899] [168] ATTITUDE_TARGET
[16:42:37.417931] [169] VFR_HUD
[16:42:37.740960] [221] RADIO
[16:42:37.743964] [221] RADIO_STATUS
[16:42:37.976234] [170] VFR_HUD
[16:42:38.207048] [171] HEARTBEAT
[16:42:38.775997] [172] VFR_HUD
[16:42:38.808099] [222] RADIO
[16:42:38.810990] [222] RADIO_STATUS
[16:42:39.135126] [173] HEARTBEAT
[16:42:39.142110] [174] ATTITUDE_TARGET
[16:42:39.585179] [175] VFR_HUD
[16:42:39.804229] [223] RADIO
[16:42:39.807187] [223] RADIO_STATUS
[16:42:40.150328] [176] HEARTBEAT
[16:42:40.384347] [177] VFR_HUD
[16:42:40.848403] [224] RADIO
[16:42:40.851358] [224] RADIO_STATUS
[16:42:41.201498] [178] HEARTBEAT
[16:42:41.208493] [179] SYS_STATUS
[16:42:41.327588] [180] BATTERY_STATUS
[16:42:41.334563] [181] ATTITUDE_TARGET
[16:42:41.365588] [182] VFR_HUD
[16:42:41.763559] [225] RADIO
[16:42:41.766531] [225] RADIO_STATUS
[16:42:41.993610] [183] VFR_HUD
[16:42:42.219675] [184] HEARTBEAT
[16:42:42.792766] [226] RADIO
[16:42:42.795728] [226] RADIO_STATUS
[16:42:42.831803] [185] VFR_HUD
[16:42:43.152772] [186] HEARTBEAT
[16:42:43.160790] [187] ATTITUDE_TARGET
[16:42:43.602895] [188] VFR_HUD
[16:42:43.837905] [227] RADIO
[16:42:43.840894] [227] RADIO_STATUS
[16:42:44.178037] [189] HEARTBEAT
[16:42:44.522994] [190] VFR_HUD
[16:42:44.862156] [228] RADIO
[16:42:44.865376] [228] RADIO_STATUS
[16:42:45.220128] [191] HEARTBEAT
[16:42:45.227285] [192] SYS_STATUS
[16:42:45.347204] [193] BATTERY_STATUS
[16:42:45.459254] [194] ATTITUDE_TARGET
[16:42:45.464184] [195] VFR_HUD
[16:42:45.782260] [229] RADIO
[16:42:45.784794] [229] RADIO_STATUS
[16:42:46.022270] [196] VFR_HUD
[16:42:46.128310] [197] HEARTBEAT
[16:42:46.822396] [198] VFR_HUD
[16:42:46.849641] [230] RADIO
[16:42:46.852453] [230] RADIO_STATUS
[16:42:47.181893] [199] HEARTBEAT
[16:42:47.189450] [200] ATTITUDE_TARGET
[16:42:47.631549] [201] VFR_HUD
[16:42:47.850559] [231] RADIO
[16:42:47.853556] [231] RADIO_STATUS
[16:42:48.197714] [202] HEARTBEAT
[16:42:48.433770] [203] VFR_HUD
[16:42:48.890706] [232] RADIO
[16:42:48.893772] [232] RADIO_STATUS
[16:42:49.116762] [204] HEARTBEAT
[16:42:49.136762] [205] SYS_STATUS
[16:42:49.179910] [206] BATTERY_STATUS
[16:42:49.181838] [207] EXTENDED_SYS_STATE
[16:42:49.189750] [208] ATTITUDE_TARGET
[16:42:49.194757] [209] VFR_HUD
[16:42:49.197697] [210] SYSTEM_TIME
[16:42:49.810819] [233] RADIO
[16:42:49.813731] [233] RADIO_STATUS
[16:42:49.935833] [211] VFR_HUD
[16:42:50.165855] [212] HEARTBEAT
[16:42:50.730900] [213] VFR_HUD
[16:42:50.839932] [234] RADIO
[16:42:50.843114] [234] RADIO_STATUS
[16:42:51.200031] [214] HEARTBEAT
[16:42:51.208013] [215] ATTITUDE_TARGET
[16:42:51.545097] [216] VFR_HUD
[16:42:51.879146] [235] RADIO
[16:42:51.882813] [235] RADIO_STATUS
[16:42:52.225195] [217] HEARTBEAT
[16:42:52.340227] [218] VFR_HUD
[16:42:52.909277] [236] RADIO
[16:42:52.912241] [236] RADIO_STATUS
[16:42:53.162321] [219] HEARTBEAT
[16:42:53.169360] [220] SYS_STATUS
[16:42:53.208310] [221] BATTERY_STATUS
[16:42:53.216347] [222] ATTITUDE_TARGET
[16:42:53.221394] [223] VFR_HUD
[16:42:53.828430] [237] RADIO
[16:42:53.831484] [237] RADIO_STATUS
[16:42:54.184563] [224] VFR_HUD
[16:42:54.187552] [225] HEARTBEAT
[16:42:54.770730] [226] VFR_HUD
[16:42:54.868606] [238] RADIO
[16:42:54.871556] [238] RADIO_STATUS
[16:42:55.233722] [227] HEARTBEAT
[16:42:55.240693] [228] ATTITUDE_TARGET
[16:42:55.558798] [229] VFR_HUD
[16:42:55.897824] [239] RADIO
[16:42:55.901870] [239] RADIO_STATUS
[16:42:56.138839] [230] HEARTBEAT
[16:42:56.368933] [231] VFR_HUD
[16:42:56.937935] [240] RADIO
[16:42:56.940952] [240] RADIO_STATUS
[16:42:57.176205] [232] HEARTBEAT
[16:42:57.182005] [233] SYS_STATUS
[16:42:57.297060] [234] BATTERY_STATUS
[16:42:57.415178] [235] ATTITUDE_TARGET
[16:42:57.420039] [236] VFR_HUD
[16:42:57.862098] [241] RADIO
[16:42:57.865065] [241] RADIO_STATUS
[16:42:57.978108] [237] VFR_HUD
[16:42:58.218368] [238] HEARTBEAT
[16:42:58.777279] [239] VFR_HUD
[16:42:58.886259] [242] RADIO
[16:42:58.889250] [242] RADIO_STATUS
[16:42:59.141358] [240] HEARTBEAT
[16:42:59.149337] [241] ATTITUDE_TARGET
[16:42:59.587378] [242] VFR_HUD
[16:42:59.926464] [243] RADIO
[16:42:59.929409] [243] RADIO_STATUS
[16:43:00.152554] [243] HEARTBEAT
[16:43:00.386590] [244] VFR_HUD
[16:43:00.851663] [244] RADIO
[16:43:00.854620] [244] RADIO_STATUS
[16:43:01.209718] [245] HEARTBEAT
[16:43:01.216638] [246] SYS_STATUS
[16:43:01.255647] [247] BATTERY_STATUS
[16:43:01.263687] [248] ATTITUDE_TARGET
[16:43:01.268655] [249] VFR_HUD
[16:43:01.875753] [245] RADIO
[16:43:01.878738] [245] RADIO_STATUS
[16:43:02.115784] [250] VFR_HUD
[16:43:02.139816] [251] HEARTBEAT
[16:43:02.916049] [252] VFR_HUD
[16:43:02.931930] [246] RADIO
[16:43:02.934890] [246] RADIO_STATUS
[16:43:03.155366] [253] HEARTBEAT
[16:43:03.163032] [254] ATTITUDE_TARGET
[16:43:03.606068] [255] VFR_HUD
[16:43:03.944087] [247] RADIO
[16:43:03.947035] [247] RADIO_STATUS
[16:43:04.181152] [0] HEARTBEAT
[16:43:04.420148] [1] VFR_HUD
[16:43:04.864231] [248] RADIO
[16:43:04.867198] [248] RADIO_STATUS
[16:43:05.222326] [2] HEARTBEAT
[16:43:05.229306] [3] SYS_STATUS
[16:43:05.349346] [4] BATTERY_STATUS
[16:43:05.461352] [5] ATTITUDE_TARGET
[16:43:05.466363] [6] VFR_HUD
[16:43:05.909389] [249] RADIO
[16:43:05.911325] [249] RADIO_STATUS
[16:43:06.024484] [7] VFR_HUD
[16:43:06.129461] [8] HEARTBEAT
[16:43:06.824666] [9] VFR_HUD
[16:43:06.933554] [250] RADIO
[16:43:06.936499] [250] RADIO_STATUS
[16:43:07.183680] [10] HEARTBEAT
[16:43:07.190586] [11] ATTITUDE_TARGET
[16:43:07.633671] [12] VFR_HUD
[16:43:07.977708] [251] RADIO
[16:43:07.980679] [251] RADIO_STATUS
[16:43:08.198815] [13] HEARTBEAT
[16:43:08.328784] [14] VFR_HUD
[16:43:08.895234] [252] RADIO
[16:43:08.895881] [252] RADIO_STATUS
[16:43:09.130945] [15] HEARTBEAT
[16:43:09.137938] [16] SYS_STATUS
[16:43:09.254930] [17] BATTERY_STATUS
[16:43:09.256901] [18] EXTENDED_SYS_STATE
[16:43:09.375948] [19] ATTITUDE_TARGET
[16:43:09.380934] [20] VFR_HUD
[16:43:09.384884] [21] SYSTEM_TIME
[16:43:09.922009] [253] RADIO
[16:43:09.924975] [253] RADIO_STATUS
[16:43:09.960043] [22] VFR_HUD
[16:43:10.158117] [23] HEARTBEAT
[16:43:10.732166] [24] VFR_HUD
[16:43:10.966213] [254] RADIO
[16:43:10.969155] [254] RADIO_STATUS
[16:43:11.201366] [25] HEARTBEAT
[16:43:11.209372] [26] ATTITUDE_TARGET
[16:43:11.547293] [27] VFR_HUD
[16:43:11.881297] [255] RADIO
[16:43:11.884292] [255] RADIO_STATUS
[16:43:12.227408] [28] HEARTBEAT
[16:43:12.341574] [29] VFR_HUD
[16:43:12.910500] [0] RADIO
[16:43:12.913482] [0] RADIO_STATUS
[16:43:13.284611] [32] BATTERY_STATUS
[16:43:13.292557] [33] ATTITUDE_TARGET
[16:43:13.322547] [34] VFR_HUD
[16:43:13.951681] [35] VFR_HUD
[16:43:13.978703] [1] RADIO
[16:43:13.981793] [1] RADIO_STATUS
[16:43:14.177926] [36] HEARTBEAT
[16:43:14.760855] [37] VFR_HUD
[16:43:14.979864] [2] RADIO
[16:43:14.982836] [2] RADIO_STATUS
[16:43:15.229987] [38] HEARTBEAT
[16:43:15.237954] [39] ATTITUDE_TARGET
[16:43:15.560144] [40] VFR_HUD
[16:43:15.899091] [3] RADIO
[16:43:15.902092] [3] RADIO_STATUS
[16:43:16.141149] [41] HEARTBEAT
[16:43:16.370271] [42] VFR_HUD
[16:43:16.939253] [4] RADIO
[16:43:16.942222] [4] RADIO_STATUS
[16:43:17.177305] [43] HEARTBEAT
[16:43:17.184236] [44] SYS_STATUS
[16:43:17.298275] [45] BATTERY_STATUS
[16:43:17.416430] [46] ATTITUDE_TARGET
[16:43:17.421257] [47] VFR_HUD
[16:43:17.968400] [5] RADIO
[16:43:17.971438] [5] RADIO_STATUS
[16:43:18.007399] [48] VFR_HUD
[16:43:18.204498] [49] HEARTBEAT
[16:43:18.778650] [50] VFR_HUD
[16:43:19.008638] [6] RADIO
[16:43:19.010536] [6] RADIO_STATUS
[16:43:19.143612] [51] HEARTBEAT
[16:43:19.150606] [52] ATTITUDE_TARGET
[16:43:19.593696] [53] VFR_HUD
[16:43:19.927749] [7] RADIO
[16:43:19.930754] [7] RADIO_STATUS
[16:43:20.153872] [54] HEARTBEAT
[16:43:20.387795] [55] VFR_HUD
[16:43:20.956891] [8] RADIO
[16:43:20.959905] [8] RADIO_STATUS
[16:43:21.997178] [9] RADIO
[16:43:21.999109] [9] RADIO_STATUS
[16:43:22.128192] [61] VFR_HUD
[16:43:22.131098] [62] HEARTBEAT
[16:43:22.812395] [63] VFR_HUD
[16:43:23.026330] [10] RADIO
[16:43:23.029252] [10] RADIO_STATUS
[16:43:23.156349] [64] HEARTBEAT
[16:43:23.164342] [65] ATTITUDE_TARGET
[16:43:23.606460] [66] VFR_HUD
[16:43:24.065501] [11] RADIO
[16:43:24.068433] [11] RADIO_STATUS
[16:43:24.187718] [67] HEARTBEAT
[16:43:24.416948] [68] VFR_HUD
[16:43:24.985640] [12] RADIO
[16:43:24.988707] [12] RADIO_STATUS
[16:43:25.223707] [69] HEARTBEAT
[16:43:25.230831] [70] SYS_STATUS
[16:43:25.350701] [71] BATTERY_STATUS
[16:43:25.462697] [72] ATTITUDE_TARGET
[16:43:25.467698] [73] VFR_HUD
[16:43:26.014817] [13] RADIO
[16:43:26.017807] [13] RADIO_STATUS
[16:43:26.141805] [74] VFR_HUD
[16:43:26.144784] [75] HEARTBEAT
[16:43:26.720945] [76] VFR_HUD
[16:43:27.054921] [14] RADIO
[16:43:27.057927] [14] RADIO_STATUS
[16:43:27.185793] [77] HEARTBEAT
[16:43:27.193028] [78] ATTITUDE_TARGET
[16:43:27.635138] [79] VFR_HUD
[16:43:27.980121] [15] RADIO
[16:43:27.983248] [15] RADIO_STATUS
[16:43:28.201181] [80] HEARTBEAT
[16:43:28.330128] [81] VFR_HUD
[16:43:29.004212] [16] RADIO
[16:43:29.007180] [16] RADIO_STATUS
[16:43:29.132227] [82] HEARTBEAT
[16:43:29.139205] [83] SYS_STATUS
[16:43:29.378306] [86] ATTITUDE_TARGET
[16:43:29.383254] [87] VFR_HUD
[16:43:29.386248] [88] SYSTEM_TIME
[16:43:29.939350] [89] VFR_HUD
[16:43:30.060454] [17] RADIO
[16:43:30.063614] [17] RADIO_STATUS
[16:43:30.159427] [90] HEARTBEAT
[16:43:30.733599] [91] VFR_HUD
[16:43:31.072599] [18] RADIO
[16:43:31.075556] [18] RADIO_STATUS
[16:43:31.202591] [92] HEARTBEAT
[16:43:31.210578] [93] ATTITUDE_TARGET
[16:43:31.543661] [94] VFR_HUD
[16:43:31.997799] [19] RADIO
[16:43:32.000671] [19] RADIO_STATUS
[16:43:32.113752] [95] HEARTBEAT
[16:43:32.343810] [96] VFR_HUD
[16:43:33.037974] [20] RADIO
[16:43:33.041132] [20] RADIO_STATUS
[16:43:33.160950] [97] HEARTBEAT
[16:43:33.166996] [98] SYS_STATUS
[16:43:33.286019] [99] BATTERY_STATUS
[16:43:33.293996] [100] ATTITUDE_TARGET
[16:43:33.324016] [101] VFR_HUD
[16:43:33.953106] [102] VFR_HUD
[16:43:34.062069] [21] RADIO
[16:43:34.065115] [21] RADIO_STATUS
[16:43:34.178154] [103] HEARTBEAT
[16:43:34.762218] [104] VFR_HUD
[16:43:35.106240] [22] RADIO
[16:43:35.109246] [22] RADIO_STATUS
[16:43:35.231288] [105] HEARTBEAT
[16:43:35.239408] [106] ATTITUDE_TARGET
[16:43:35.561306] [107] VFR_HUD
[16:43:36.026385] [23] RADIO
[16:43:36.029384] [23] RADIO_STATUS
[16:43:36.371486] [109] VFR_HUD
[16:43:37.050558] [24] RADIO
[16:43:37.053428] [24] RADIO_STATUS
[16:43:37.178597] [110] HEARTBEAT
[16:43:37.185639] [111] SYS_STATUS
[16:43:37.417710] [113] ATTITUDE_TARGET
[16:43:37.422529] [114] VFR_HUD
[16:43:37.985649] [115] VFR_HUD
[16:43:38.106642] [25] RADIO
[16:43:38.109646] [25] RADIO_STATUS
[16:43:38.205696] [116] HEARTBEAT
[16:43:38.779777] [117] VFR_HUD
[16:43:39.118838] [26] RADIO
[16:43:39.121812] [26] RADIO_STATUS
[16:43:39.166862] [118] HEARTBEAT
[16:43:39.175011] [119] ATTITUDE_TARGET
[16:43:39.594912] [120] VFR_HUD
[16:43:40.038979] [27] RADIO
[16:43:40.041965] [27] RADIO_STATUS
[16:43:40.155016] [121] HEARTBEAT
[16:43:40.389986] [122] VFR_HUD
[16:43:41.078120] [28] RADIO
[16:43:41.081065] [28] RADIO_STATUS
[16:43:41.212140] [123] HEARTBEAT
[16:43:41.219132] [124] SYS_STATUS
[16:43:41.258309] [125] BATTERY_STATUS
[16:43:41.266339] [126] ATTITUDE_TARGET
[16:43:41.271214] [127] VFR_HUD
[16:43:42.108285] [29] RADIO
[16:43:42.111227] [29] RADIO_STATUS
[16:43:42.152305] [128] VFR_HUD
[16:43:42.155287] [129] HEARTBEAT
[16:43:42.808450] [130] VFR_HUD
[16:43:43.158680] [131] HEARTBEAT
[16:43:43.165442] [132] ATTITUDE_TARGET
[16:43:43.175504] [30] RADIO
[16:43:43.178438] [30] RADIO_STATUS
[16:43:43.608528] [133] VFR_HUD
[16:43:44.067577] [31] RADIO
[16:43:44.070546] [31] RADIO_STATUS
[16:43:44.188668] [134] HEARTBEAT
[16:43:44.417930] [135] VFR_HUD
[16:43:45.096752] [32] RADIO
[16:43:45.099677] [32] RADIO_STATUS
[16:43:45.156852] [136] HEARTBEAT
[16:43:45.163792] [137] SYS_STATUS
[16:43:45.171722] [138] BATTERY_STATUS
[16:43:45.183755] [139] ATTITUDE_TARGET
[16:43:45.188717] [140] VFR_HUD
[16:43:46.027958] [141] VFR_HUD
[16:43:46.132896] [142] HEARTBEAT
[16:43:46.247006] [33] RADIO
[16:43:46.249978] [33] RADIO_STATUS
[16:43:46.827039] [143] VFR_HUD
[16:43:47.167074] [34] RADIO
[16:43:47.170037] [34] RADIO_STATUS
[16:43:47.214089] [144] HEARTBEAT
[16:43:47.222090] [145] ATTITUDE_TARGET
[16:43:47.517140] [146] VFR_HUD
[16:43:48.086320] [35] RADIO
[16:43:48.089191] [35] RADIO_STATUS
[16:43:48.202276] [147] HEARTBEAT
[16:43:48.332278] [148] VFR_HUD
[16:43:49.121446] [149] HEARTBEAT
[16:43:49.141482] [150] SYS_STATUS
[16:43:49.153661] [36] RADIO
[16:43:49.156416] [36] RADIO_STATUS
[16:43:49.263481] [151] BATTERY_STATUS
[16:43:49.265391] [152] EXTENDED_SYS_STATE
[16:43:49.297522] [153] ATTITUDE_TARGET
[16:43:49.302439] [154] VFR_HUD
[16:43:49.305413] [155] SYSTEM_TIME
[16:43:50.155614] [37] RADIO
[16:43:50.158635] [37] RADIO_STATUS
[16:43:50.271645] [157] HEARTBEAT
[16:43:50.735755] [158] VFR_HUD
[16:43:51.204775] [159] HEARTBEAT
[16:43:51.213540] [160] ATTITUDE_TARGET
[16:43:51.304767] [38] RADIO
[16:43:51.307747] [38] RADIO_STATUS
[16:43:51.545048] [161] VFR_HUD
[16:43:52.109948] [162] HEARTBEAT
[16:43:52.223989] [39] RADIO
[16:43:52.226930] [39] RADIO_STATUS
[16:43:52.345009] [163] VFR_HUD
[16:43:53.143227] [40] RADIO
[16:43:53.146114] [40] RADIO_STATUS
[16:43:53.271231] [164] HEARTBEAT
[16:43:53.278156] [165] SYS_STATUS
[16:43:53.510184] [167] ATTITUDE_TARGET
[16:43:53.515113] [168] VFR_HUD
[16:43:53.953211] [169] VFR_HUD
[16:43:54.179267] [170] HEARTBEAT
[16:43:54.293261] [41] RADIO
[16:43:54.295223] [41] RADIO_STATUS
[16:43:54.763363] [171] VFR_HUD
[16:43:55.107420] [42] RADIO
[16:43:55.110440] [42] RADIO_STATUS
[16:43:55.232436] [172] HEARTBEAT
[16:43:55.240425] [173] ATTITUDE_TARGET
[16:43:55.563473] [174] VFR_HUD
[16:43:56.131580] [43] RADIO
[16:43:56.134586] [43] RADIO_STATUS
