[17:24:10.679823] [73] VFR_HUD
[17:24:10.913846] [141] RADIO
[17:24:10.916839] [141] RADIO_STATUS
[17:24:11.037961] [74] HEARTBEAT
[17:24:11.045820] [75] ATTITUDE_TARGET
[17:24:11.489064] [76] VFR_HUD
[17:24:11.938072] [142] RADIO
[17:24:11.941041] [142] RADIO_STATUS
[17:24:12.053979] [77] HEARTBEAT
[17:24:12.288127] [78] VFR_HUD
[17:24:12.982296] [143] RADIO
[17:24:12.985124] [143] RADIO_STATUS
[17:24:13.105182] [79] HEARTBEAT
[17:24:13.112760] [80] SYS_STATUS
[17:24:13.231184] [81] BATTERY_STATUS
[17:24:13.238282] [82] ATTITUDE_TARGET
[17:24:13.268335] [83] VFR_HUD
[17:24:13.897362] [84] VFR_HUD
[17:24:13.924294] [144] RADIO
[17:24:13.927262] [144] RADIO_STATUS
[17:24:14.012467] [85] HEARTBEAT
[17:24:14.712372] [86] VFR_HUD
[17:24:14.926462] [145] RADIO
[17:24:14.929932] [145] RADIO_STATUS
[17:24:15.055419] [87] HEARTBEAT
[17:24:15.063417] [88] ATTITUDE_TARGET
[17:24:15.506560] [89] VFR_HUD
[17:24:15.965550] [146] RADIO
[17:24:15.968642] [146] RADIO_STATUS
[17:24:16.081649] [90] HEARTBEAT
[17:24:16.321651] [91] VFR_HUD
[17:24:16.994799] [147] RADIO
[17:24:16.997680] [147] RADIO_STATUS
[17:24:17.123765] [92] HEARTBEAT
[17:24:17.129735] [93] SYS_STATUS
[17:24:17.249980] [94] BATTERY_STATUS
[17:24:17.362754] [95] ATTITUDE_TARGET
[17:24:17.366816] [96] VFR_HUD
[17:24:17.914900] [148] RADIO
[17:24:17.917795] [148] RADIO_STATUS
[17:24:17.953838] [97] VFR_HUD
[17:24:18.030909] [98] HEARTBEAT
[17:24:18.615890] [99] VFR_HUD
[17:24:18.954990] [149] RADIO
[17:24:18.958067] [149] RADIO_STATUS
[17:24:19.085011] [100] HEARTBEAT
[17:24:19.092024] [101] ATTITUDE_TARGET
[17:24:19.415132] [102] VFR_HUD
[17:24:19.984146] [150] RADIO
[17:24:19.987141] [150] RADIO_STATUS
[17:24:20.224220] [104] VFR_HUD
[17:24:20.904252] [151] RADIO
[17:24:20.906216] [151] RADIO_STATUS
[17:24:21.032311] [105] HEARTBEAT
[17:24:21.038283] [106] SYS_STATUS
[17:24:21.153310] [107] BATTERY_STATUS
[17:24:21.671845] JAMMING_START
[17:24:21.839420] [110] VFR_HUD
[17:24:21.954426] [152] RADIO
[17:24:21.957482] [152] RADIO_STATUS
[17:24:22.068506] [111] HEARTBEAT
[17:24:22.644568] [112] VFR_HUD
[17:24:22.972688] [153] RADIO
[17:24:22.975568] [153] RADIO_STATUS
[17:24:23.020700] [113] HEARTBEAT
[17:24:23.028690] [114] ATTITUDE_TARGET
[17:24:23.448738] [115] VFR_HUD
[17:24:24.008839] [116] HEARTBEAT
[17:24:24.121773] [154] RADIO
[17:24:24.124877] [154] RADIO_STATUS
[17:24:24.242882] [117] VFR_HUD
[17:24:24.931875] [155] RADIO
[17:24:24.933858] [155] RADIO_STATUS
[17:24:25.065944] [118] HEARTBEAT
[17:24:25.072203] [119] SYS_STATUS
[17:24:25.111082] [120] BATTERY_STATUS
[17:24:25.119009] [121] ATTITUDE_TARGET
[17:24:25.125296] [122] VFR_HUD
[17:24:25.961032] [156] RADIO
[17:24:25.964051] [156] RADIO_STATUS
[17:24:26.040022] [123] VFR_HUD
[17:24:26.043119] [124] HEARTBEAT
[17:24:26.661856] [125] VFR_HUD
[17:24:27.110223] [157] RADIO
[17:24:27.113220] [157] RADIO_STATUS
[17:24:27.158290] [126] HEARTBEAT
[17:24:27.166218] [127] ATTITUDE_TARGET
[17:24:27.461267] [128] VFR_HUD
[17:24:28.030436] [158] RADIO
[17:24:28.033549] [158] RADIO_STATUS
[17:24:28.064449] [129] HEARTBEAT
[17:24:28.270418] [130] VFR_HUD
[17:24:28.949571] [159] RADIO
[17:24:28.952534] [159] RADIO_STATUS
[17:24:29.077518] [131] HEARTBEAT
[17:24:29.084536] [132] SYS_STATUS
[17:24:29.202576] [133] BATTERY_STATUS
[17:24:29.204532] [134] EXTENDED_SYS_STATE
[17:24:29.879680] [138] VFR_HUD
[17:24:29.994668] [160] RADIO
[17:24:29.997561] [160] RADIO_STATUS
[17:24:30.110663] [139] HEARTBEAT
[17:24:30.690743] [140] VFR_HUD
[17:24:31.018828] [161] RADIO
[17:24:31.021695] [161] RADIO_STATUS
[17:24:31.066816] [141] HEARTBEAT
[17:24:31.074741] [142] ATTITUDE_TARGET
[17:24:31.489835] [143] VFR_HUD
[17:24:32.054975] [144] HEARTBEAT
[17:24:32.167923] [162] RADIO
[17:24:32.170925] [162] RADIO_STATUS
[17:24:32.289046] [145] VFR_HUD
[17:24:32.983034] [163] RADIO
[17:24:32.986024] [163] RADIO_STATUS
[17:24:33.111239] [146] HEARTBEAT
[17:24:33.118110] [147] SYS_STATUS
[17:24:33.157186] [148] BATTERY_STATUS
[17:24:33.165128] [149] ATTITUDE_TARGET
[17:24:33.170073] [150] VFR_HUD
[17:24:34.007252] [164] RADIO
[17:24:34.010206] [164] RADIO_STATUS
[17:24:34.258307] [151] VFR_HUD
[17:24:34.261381] [152] HEARTBEAT
[17:24:34.713347] [153] VFR_HUD
[17:24:35.156401] [165] RADIO
[17:24:35.159392] [165] RADIO_STATUS
[17:24:35.203459] [154] HEARTBEAT
[17:24:35.211466] [155] ATTITUDE_TARGET
[17:24:35.507533] [156] VFR_HUD
[17:24:36.076505] [166] RADIO
[17:24:36.079591] [166] RADIO_STATUS
[17:24:36.110507] [157] HEARTBEAT
[17:24:36.316580] [158] VFR_HUD
[17:24:36.995677] [167] RADIO
[17:24:36.998681] [167] RADIO_STATUS
[17:24:37.123709] [159] HEARTBEAT
[17:24:37.131629] [160] SYS_STATUS
[17:24:37.250769] [161] BATTERY_STATUS
[17:24:37.482770] [162] ATTITUDE_TARGET
[17:24:37.486791] [163] VFR_HUD
[17:24:37.925790] [164] VFR_HUD
[17:24:38.031878] [165] HEARTBEAT
[17:24:38.062784] [168] RADIO
[17:24:38.065767] [168] RADIO_STATUS
[17:24:38.615913] [166] VFR_HUD
[17:24:39.064964] [169] RADIO
[17:24:39.072210] [169] RADIO_STATUS
[17:24:39.195058] [167] HEARTBEAT
[17:24:39.202991] [168] ATTITUDE_TARGET
[17:24:39.415170] [169] VFR_HUD
[17:24:40.100179] [170] HEARTBEAT
[17:24:40.132045] [170] RADIO
[17:24:40.135069] [170] RADIO_STATUS
[17:24:40.230229] [171] VFR_HUD
[17:24:41.051239] [171] RADIO
[17:24:41.054167] [171] RADIO_STATUS
[17:24:41.153317] [174] BATTERY_STATUS
[17:24:41.270333] [175] ATTITUDE_TARGET
[17:24:41.275294] [176] VFR_HUD
[17:24:41.838253] [177] VFR_HUD
[17:24:42.052336] [172] RADIO
[17:24:42.055282] [172] RADIO_STATUS
[17:24:42.168429] [178] HEARTBEAT
[17:24:42.633402] [179] VFR_HUD
[17:24:43.201515] [173] RADIO
[17:24:43.204490] [173] RADIO_STATUS
[17:24:43.447595] [182] VFR_HUD
[17:24:44.007690] [183] HEARTBEAT
[17:24:44.121610] [174] RADIO
[17:24:44.124581] [174] RADIO_STATUS
[17:24:45.040806] [175] RADIO
[17:24:45.043876] [175] RADIO_STATUS
[17:24:45.168847] [185] HEARTBEAT
[17:24:45.175945] [186] SYS_STATUS
[17:24:45.289822] [187] BATTERY_STATUS
[17:24:45.850913] [190] VFR_HUD
[17:24:46.076002] [191] HEARTBEAT
[17:24:46.190031] [176] RADIO
[17:24:46.192926] [176] RADIO_STATUS
[17:24:46.660072] [192] VFR_HUD
[17:24:47.109229] [177] RADIO
[17:24:47.112330] [177] RADIO_STATUS
[17:24:47.136253] [193] HEARTBEAT
[17:24:47.161311] [194] ATTITUDE_TARGET
[17:24:47.460227] [195] VFR_HUD
[17:24:48.040305] [196] HEARTBEAT
[17:24:48.148284] [178] RADIO
[17:24:48.151260] [178] RADIO_STATUS
[17:24:48.379347] [197] VFR_HUD
[17:24:49.178600] [179] RADIO
[17:24:49.180465] [179] RADIO_STATUS
[17:24:49.218552] [200] BATTERY_STATUS
[17:24:49.249761] [201] EXTENDED_SYS_STATE
[17:24:49.257538] [202] ATTITUDE_TARGET
[17:24:49.262585] [203] VFR_HUD
[17:24:49.265480] [204] SYSTEM_TIME
[17:24:50.097573] [180] RADIO
[17:24:50.100768] [180] RADIO_STATUS
[17:24:50.141672] [205] VFR_HUD
[17:24:50.144558] [206] HEARTBEAT
[17:24:50.678668] [207] VFR_HUD
[17:24:51.042753] [208] HEARTBEAT
[17:24:51.050792] [209] ATTITUDE_TARGET
[17:24:51.246717] [181] RADIO
[17:24:51.249703] [181] RADIO_STATUS
[17:24:51.492739] [210] VFR_HUD
[17:24:52.052889] [211] HEARTBEAT
[17:24:52.165884] [182] RADIO
[17:24:52.169020] [182] RADIO_STATUS
[17:24:53.086009] [183] RADIO
[17:24:53.089027] [183] RADIO_STATUS
[17:24:53.145061] [213] HEARTBEAT
[17:24:53.152060] [214] SYS_STATUS
[17:24:53.160067] [215] BATTERY_STATUS
[17:24:53.172046] [216] ATTITUDE_TARGET
[17:24:53.177157] [217] VFR_HUD
[17:24:53.896120] [218] VFR_HUD
[17:24:54.017161] [219] HEARTBEAT
[17:24:54.125152] [184] RADIO
[17:24:54.128107] [184] RADIO_STATUS
[17:24:54.712585] [220] VFR_HUD
[17:24:55.055421] [221] HEARTBEAT
[17:24:55.063338] [222] ATTITUDE_TARGET
[17:24:55.072305] [185] RADIO
[17:24:55.075296] [185] RADIO_STATUS
[17:24:55.505398] [223] VFR_HUD
[17:24:56.074411] [186] RADIO
[17:24:56.077378] [186] RADIO_STATUS
[17:24:56.108438] [224] HEARTBEAT
[17:24:56.314566] [225] VFR_HUD
[17:24:57.000518] [226] HEARTBEAT
[17:24:57.020848] [227] SYS_STATUS
[17:24:57.063563] [228] BATTERY_STATUS
[17:24:57.071542] [229] ATTITUDE_TARGET
[17:24:57.076519] [230] VFR_HUD
[17:24:57.118550] [187] RADIO
[17:24:57.121506] [187] RADIO_STATUS
[17:24:58.143692] [188] RADIO
[17:24:58.146697] [188] RADIO_STATUS
[17:24:58.187901] [231] VFR_HUD
[17:24:58.189711] [232] HEARTBEAT
[17:24:58.618801] [233] VFR_HUD
[17:24:59.082871] [234] HEARTBEAT
[17:24:59.090988] [235] ATTITUDE_TARGET
[17:24:59.294218] [189] RADIO
[17:24:59.295960] [189] RADIO_STATUS
[17:24:59.424897] [236] VFR_HUD
[17:25:00.099048] [237] HEARTBEAT
[17:25:00.131203] [190] RADIO
[17:25:00.133063] [190] RADIO_STATUS
[17:25:00.229346] [238] VFR_HUD
[17:25:01.031146] [239] HEARTBEAT
[17:25:01.037134] [240] SYS_STATUS
[17:25:01.132126] [191] RADIO
[17:25:01.135147] [191] RADIO_STATUS
[17:25:01.202186] [241] BATTERY_STATUS
[17:25:01.210213] [242] ATTITUDE_TARGET
[17:25:01.214184] [243] VFR_HUD
[17:25:02.068282] [244] VFR_HUD
[17:25:02.071245] [245] HEARTBEAT
[17:25:02.281335] [192] RADIO
[17:25:02.284323] [192] RADIO_STATUS
[17:25:03.101484] [247] HEARTBEAT
[17:25:03.113096] [248] ATTITUDE_TARGET
[17:25:03.119436] [193] RADIO
[17:25:03.122467] [193] RADIO_STATUS
[17:25:03.441577] [249] VFR_HUD
[17:25:04.006650] [250] HEARTBEAT
[17:25:04.120601] [194] RADIO
[17:25:04.123574] [194] RADIO_STATUS
[17:25:04.241641] [251] VFR_HUD
[17:25:05.057899] [252] HEARTBEAT
[17:25:05.064964] [253] SYS_STATUS
[17:25:05.221804] [0] VFR_HUD
[17:25:05.249118] [195] RADIO
[17:25:05.253851] [195] RADIO_STATUS
[17:25:05.849873] [1] VFR_HUD
[17:25:06.188912] [196] RADIO
[17:25:06.191885] [196] RADIO_STATUS
[17:25:06.659958] [3] VFR_HUD
[17:25:07.129135] [4] HEARTBEAT
[17:25:07.137029] [5] ATTITUDE_TARGET
[17:25:07.339073] [197] RADIO
[17:25:07.342182] [197] RADIO_STATUS
[17:25:07.459049] [6] VFR_HUD
[17:25:08.035180] [7] HEARTBEAT
[17:25:08.148196] [198] RADIO
[17:25:08.151143] [198] RADIO_STATUS
[17:25:08.269208] [8] VFR_HUD
[17:25:09.076615] [9] HEARTBEAT
[17:25:09.083336] [10] SYS_STATUS
[17:25:09.178337] [199] RADIO
[17:25:09.181291] [199] RADIO_STATUS
[17:25:09.218348] [11] BATTERY_STATUS
[17:25:09.249302] [12] EXTENDED_SYS_STATE
[17:25:09.257458] [13] ATTITUDE_TARGET
[17:25:09.262349] [14] VFR_HUD
[17:25:09.265305] [15] SYSTEM_TIME
[17:25:10.114473] [16] VFR_HUD
[17:25:10.117392] [17] HEARTBEAT
[17:25:10.327428] [200] RADIO
[17:25:10.330483] [200] RADIO_STATUS
[17:25:11.042585] [19] HEARTBEAT
[17:25:11.049529] [20] ATTITUDE_TARGET
[17:25:11.246594] [201] RADIO
[17:25:11.249589] [201] RADIO_STATUS
[17:25:11.492586] [21] VFR_HUD
[17:25:12.052705] [22] HEARTBEAT
[17:25:12.166694] [202] RADIO
[17:25:12.168650] [202] RADIO_STATUS
[17:25:12.286728] [23] VFR_HUD
[17:25:13.108916] [24] HEARTBEAT
[17:25:13.115885] [25] SYS_STATUS
[17:25:13.155898] [26] BATTERY_STATUS
[17:25:13.162916] [27] ATTITUDE_TARGET
[17:25:13.167872] [28] VFR_HUD
[17:25:13.205836] [203] RADIO
[17:25:13.208832] [203] RADIO_STATUS
[17:25:14.027081] [29] VFR_HUD
[17:25:14.029965] [30] HEARTBEAT
[17:25:14.235000] [204] RADIO
[17:25:14.238000] [204] RADIO_STATUS
[17:25:14.706107] [31] VFR_HUD
[17:25:15.055199] [32] HEARTBEAT
[17:25:15.062086] [33] ATTITUDE_TARGET
[17:25:15.384266] [205] RADIO
[17:25:15.387219] [205] RADIO_STATUS
[17:25:15.505186] [34] VFR_HUD
[17:25:16.085273] [35] HEARTBEAT
[17:25:16.194286] [206] RADIO
[17:25:16.197998] [206] RADIO_STATUS
[17:25:16.315381] [36] VFR_HUD
[17:25:17.017570] [37] HEARTBEAT
[17:25:17.024581] [38] SYS_STATUS
[17:25:17.063498] [39] BATTERY_STATUS
[17:25:17.071702] [40] ATTITUDE_TARGET
[17:25:17.076541] [41] VFR_HUD
[17:25:17.223578] [207] RADIO
[17:25:17.226854] [207] RADIO_STATUS
[17:25:18.039617] [42] VFR_HUD
[17:25:18.042669] [43] HEARTBEAT
[17:25:18.266609] [208] RADIO
[17:25:18.269566] [208] RADIO_STATUS
[17:25:18.619659] [44] VFR_HUD
[17:25:19.088718] [45] HEARTBEAT
[17:25:19.095785] [46] ATTITUDE_TARGET
[17:25:19.182754] [209] RADIO
[17:25:19.185716] [209] RADIO_STATUS
[17:25:19.413932] [47] VFR_HUD
[17:25:20.098922] [48] HEARTBEAT
[17:25:20.212890] [210] RADIO
[17:25:20.215874] [210] RADIO_STATUS
[17:25:20.250873] [49] VFR_HUD
[17:25:21.157042] [52] BATTERY_STATUS
[17:25:21.280031] [211] RADIO
[17:25:21.282972] [211] RADIO_STATUS
[17:25:21.389235] [53] ATTITUDE_TARGET
[17:25:21.394022] [54] VFR_HUD
[17:25:21.832114] [55] VFR_HUD
[17:25:22.058259] [56] HEARTBEAT
[17:25:22.281216] [212] RADIO
[17:25:22.284264] [212] RADIO_STATUS
[17:25:22.632222] [57] VFR_HUD
[17:25:23.101343] [58] HEARTBEAT
[17:25:23.109315] [59] ATTITUDE_TARGET
[17:25:23.201309] [213] RADIO
[17:25:23.204297] [213] RADIO_STATUS
[17:25:23.442327] [60] VFR_HUD
[17:25:24.007815] [61] HEARTBEAT
[17:25:24.241567] [62] VFR_HUD
[17:25:24.268952] [214] RADIO
[17:25:24.271596] [214] RADIO_STATUS
[17:25:25.058763] [63] HEARTBEAT
[17:25:25.065601] [64] SYS_STATUS
[17:25:25.183605] [65] BATTERY_STATUS
[17:25:25.191750] [66] ATTITUDE_TARGET
[17:25:25.221570] [67] VFR_HUD
[17:25:25.249911] [215] RADIO
[17:25:25.252621] [215] RADIO_STATUS
[17:25:25.850713] [68] VFR_HUD
[17:25:26.075796] [69] HEARTBEAT
[17:25:26.194796] [216] RADIO
[17:25:26.197753] [216] RADIO_STATUS
[17:25:26.659812] [70] VFR_HUD
[17:25:26.994890] [71] HEARTBEAT
[17:25:27.127876] [72] ATTITUDE_TARGET
[17:25:27.233890] [217] RADIO
[17:25:27.236938] [217] RADIO_STATUS
[17:25:27.460041] [73] VFR_HUD
[17:25:28.035063] [74] HEARTBEAT
[17:25:28.258178] [218] RADIO
[17:25:28.261124] [218] RADIO_STATUS
[17:25:28.297080] [75] VFR_HUD
[17:25:29.201319] [78] BATTERY_STATUS
[17:25:29.202211] [79] EXTENDED_SYS_STATE
[17:25:29.364328] [219] RADIO
[17:25:29.367240] [219] RADIO_STATUS
[17:25:29.883383] [83] VFR_HUD
[17:25:30.103420] [84] HEARTBEAT
[17:25:30.222444] [220] RADIO
[17:25:30.225463] [220] RADIO_STATUS
[17:25:30.678517] [85] VFR_HUD
[17:25:31.037617] [86] HEARTBEAT
[17:25:31.044613] [87] ATTITUDE_TARGET
[17:25:31.246604] [221] RADIO
[17:25:31.249774] [221] RADIO_STATUS
[17:25:31.487612] [88] VFR_HUD
[17:25:32.052727] [89] HEARTBEAT
[17:25:32.287792] [90] VFR_HUD
[17:25:32.319767] [222] RADIO
[17:25:32.322738] [222] RADIO_STATUS
[17:25:33.103945] [91] HEARTBEAT
[17:25:33.113159] [92] SYS_STATUS
[17:25:33.262227] [93] BATTERY_STATUS
[17:25:33.269963] [94] ATTITUDE_TARGET
[17:25:33.275198] [95] VFR_HUD
[17:25:33.295022] [223] RADIO
[17:25:33.298011] [223] RADIO_STATUS
[17:25:33.896113] [96] VFR_HUD
[17:25:34.017083] [97] HEARTBEAT
[17:25:34.361133] [224] RADIO
[17:25:34.364476] [224] RADIO_STATUS
[17:25:34.706227] [98] VFR_HUD
[17:25:35.055351] [99] HEARTBEAT
[17:25:35.063372] [100] ATTITUDE_TARGET
[17:25:35.275243] [225] RADIO
[17:25:35.278263] [225] RADIO_STATUS
[17:25:35.506305] [101] VFR_HUD
[17:25:36.086396] [102] HEARTBEAT
[17:25:36.305410] [226] RADIO
[17:25:36.307419] [226] RADIO_STATUS
[17:25:36.425512] [103] VFR_HUD
[17:25:37.018640] [104] HEARTBEAT
[17:25:37.024548] [105] SYS_STATUS
[17:25:37.064574] [106] BATTERY_STATUS
[17:25:37.072515] [107] ATTITUDE_TARGET
[17:25:37.076496] [108] VFR_HUD
[17:25:37.351616] [227] RADIO
[17:25:37.354576] [227] RADIO_STATUS
[17:25:38.041900] [109] VFR_HUD
[17:25:38.044747] [110] HEARTBEAT
[17:25:38.375789] [228] RADIO
[17:25:38.378729] [228] RADIO_STATUS
[17:25:38.620851] [111] VFR_HUD
[17:25:39.089930] [112] HEARTBEAT
[17:25:39.097861] [113] ATTITUDE_TARGET
[17:25:39.294911] [229] RADIO
[17:25:39.297897] [229] RADIO_STATUS
[17:25:40.100091] [115] HEARTBEAT
[17:25:40.225063] [116] VFR_HUD
[17:25:40.334105] [230] RADIO
[17:25:40.337010] [230] RADIO_STATUS
[17:25:41.032158] [117] HEARTBEAT
[17:25:41.039131] [118] SYS_STATUS
[17:25:41.159203] [119] BATTERY_STATUS
[17:25:41.271181] [120] ATTITUDE_TARGET
[17:25:41.276166] [121] VFR_HUD
[17:25:41.282173] [231] RADIO
[17:25:41.285147] [231] RADIO_STATUS
[17:25:41.834547] [122] VFR_HUD
[17:25:42.065302] [123] HEARTBEAT
[17:25:42.283332] [232] RADIO
[17:25:42.286281] [232] RADIO_STATUS
[17:25:42.634507] [124] VFR_HUD
[17:25:43.102554] [125] HEARTBEAT
[17:25:43.110515] [126] ATTITUDE_TARGET
[17:25:43.322615] [233] RADIO
[17:25:43.325481] [233] RADIO_STATUS
[17:25:43.443539] [127] VFR_HUD
[17:25:44.242716] [129] VFR_HUD
[17:25:44.352681] [234] RADIO
[17:25:44.354649] [234] RADIO_STATUS
[17:25:45.059837] [130] HEARTBEAT
[17:25:45.066788] [131] SYS_STATUS
[17:25:45.391809] [235] RADIO
[17:25:45.394793] [235] RADIO_STATUS
[17:25:45.851928] [135] VFR_HUD
[17:25:46.077910] [136] HEARTBEAT
[17:25:46.421045] [236] RADIO
[17:25:46.424040] [236] RADIO_STATUS
[17:25:46.666988] [137] VFR_HUD
[17:25:46.997124] [138] HEARTBEAT
[17:25:47.020044] [139] ATTITUDE_TARGET
[17:25:47.340110] [237] RADIO
[17:25:47.343085] [237] RADIO_STATUS
[17:25:48.036233] [141] HEARTBEAT
[17:25:48.380259] [142] VFR_HUD
[17:25:48.409834] [238] RADIO
[17:25:48.411282] [238] RADIO_STATUS
[17:25:49.078323] [143] HEARTBEAT
[17:25:49.084342] [144] SYS_STATUS
[17:25:49.207348] [145] BATTERY_STATUS
[17:25:49.209304] [146] EXTENDED_SYS_STATE
[17:25:49.241330] [147] ATTITUDE_TARGET
[17:25:49.246327] [148] VFR_HUD
[17:25:49.250302] [149] SYSTEM_TIME
[17:25:49.299385] [239] RADIO
[17:25:49.302345] [239] RADIO_STATUS
[17:25:49.885436] [150] VFR_HUD
[17:25:49.997527] [151] HEARTBEAT
[17:25:50.329806] [240] RADIO
[17:25:50.332515] [240] RADIO_STATUS
[17:25:50.679596] [152] VFR_HUD
[17:25:51.041838] [153] HEARTBEAT
[17:25:51.046635] [154] ATTITUDE_TARGET
[17:25:51.368790] [241] RADIO
[17:25:51.371833] [241] RADIO_STATUS
[17:25:51.489755] [155] VFR_HUD
[17:25:52.288804] [157] VFR_HUD
[17:25:52.321813] [242] RADIO
[17:25:52.324775] [242] RADIO_STATUS
[17:25:53.106944] [158] HEARTBEAT
[17:25:53.112930] [159] SYS_STATUS
[17:25:53.325502] [243] RADIO
[17:25:53.325902] [243] RADIO_STATUS
[17:25:53.899068] [163] VFR_HUD
[17:25:54.014231] [164] HEARTBEAT
[17:25:54.467105] [244] RADIO
[17:25:54.470065] [244] RADIO_STATUS
[17:25:54.708162] [165] VFR_HUD
[17:25:55.057215] [166] HEARTBEAT
[17:25:55.065191] [167] ATTITUDE_TARGET
[17:25:55.387346] [245] RADIO
[17:25:55.390249] [245] RADIO_STATUS
[17:25:55.425282] [168] VFR_HUD
[17:25:56.082473] [169] HEARTBEAT
[17:25:56.322415] [170] VFR_HUD
[17:25:56.442496] [246] RADIO
[17:25:56.445463] [246] RADIO_STATUS
[17:25:57.019538] [171] HEARTBEAT
[17:25:57.026517] [172] SYS_STATUS
[17:25:57.065558] [173] BATTERY_STATUS
[17:25:57.073522] [174] ATTITUDE_TARGET
[17:25:57.078807] [175] VFR_HUD
[17:25:57.350584] [247] RADIO
[17:25:57.353598] [247] RADIO_STATUS
[17:25:58.161710] [176] VFR_HUD
[17:25:58.164687] [177] HEARTBEAT
[17:25:58.375701] [248] RADIO
[17:25:58.378663] [248] RADIO_STATUS
[17:25:58.615718] [178] VFR_HUD
[17:25:59.089885] [179] HEARTBEAT
[17:25:59.097893] [180] ATTITUDE_TARGET
[17:25:59.415875] [181] VFR_HUD
[17:25:59.447867] [249] RADIO
[17:25:59.450802] [249] RADIO_STATUS
[17:25:59.995954] [182] HEARTBEAT
[17:26:00.224965] [183] VFR_HUD
[17:26:00.443943] [250] RADIO
[17:26:00.447002] [250] RADIO_STATUS
[17:26:01.033172] [184] HEARTBEAT
[17:26:01.039080] [185] SYS_STATUS
[17:26:01.154073] [186] BATTERY_STATUS
[17:26:01.364231] [251] RADIO
[17:26:01.367151] [251] RADIO_STATUS
[17:26:01.834560] [189] VFR_HUD
[17:26:02.065310] [190] HEARTBEAT
[17:26:02.513327] [252] RADIO
[17:26:02.516299] [252] RADIO_STATUS
[17:26:02.645367] [191] VFR_HUD
[17:26:03.103506] [192] HEARTBEAT
[17:26:03.110533] [193] ATTITUDE_TARGET
[17:26:03.433502] [253] RADIO
[17:26:03.435496] [253] RADIO_STATUS
[17:26:03.471497] [194] VFR_HUD
[17:26:04.009594] [195] HEARTBEAT
[17:26:04.243635] [196] VFR_HUD
[17:26:04.477657] [254] RADIO
[17:26:04.480675] [254] RADIO_STATUS
[17:26:05.065936] [197] HEARTBEAT
[17:26:05.072749] [198] SYS_STATUS
[17:26:05.111854] [199] BATTERY_STATUS
[17:26:05.119849] [200] ATTITUDE_TARGET
[17:26:05.124741] [201] VFR_HUD
[17:26:05.391776] [255] RADIO
[17:26:05.394821] [255] RADIO_STATUS
[17:26:06.212964] [202] VFR_HUD
[17:26:06.215943] [203] HEARTBEAT
[17:26:06.422045] [0] RADIO
[17:26:06.424912] [0] RADIO_STATUS
[17:26:06.667034] [204] VFR_HUD
[17:26:07.462308] [207] VFR_HUD
[17:26:07.489275] [1] RADIO
[17:26:07.492084] [1] RADIO_STATUS
[17:26:08.037279] [208] HEARTBEAT
[17:26:08.276419] [209] VFR_HUD
[17:26:08.392314] [2] RADIO
[17:26:08.395502] [2] RADIO_STATUS
[17:26:09.078360] [210] HEARTBEAT
[17:26:09.085379] [211] SYS_STATUS
[17:26:09.207406] [212] BATTERY_STATUS
[17:26:09.209351] [213] EXTENDED_SYS_STATE
[17:26:09.241355] [214] ATTITUDE_TARGET
[17:26:09.246392] [215] VFR_HUD
[17:26:09.250352] [216] SYSTEM_TIME
[17:26:09.409371] [3] RADIO
[17:26:09.412531] [3] RADIO_STATUS
[17:26:09.880558] [217] VFR_HUD
[17:26:10.110563] [218] HEARTBEAT
[17:26:10.559633] [4] RADIO
[17:26:10.561485] [4] RADIO_STATUS
[17:26:10.679603] [219] VFR_HUD
[17:26:11.038710] [220] HEARTBEAT
[17:26:11.046671] [221] ATTITUDE_TARGET
[17:26:11.478746] [5] RADIO
[17:26:11.481702] [5] RADIO_STATUS
[17:26:12.054914] [223] HEARTBEAT
[17:26:12.288840] [224] VFR_HUD
[17:26:12.517813] [6] RADIO
[17:26:12.521294] [6] RADIO_STATUS
[17:26:13.105999] [225] HEARTBEAT
[17:26:13.112968] [226] SYS_STATUS
[17:26:13.231009] [227] BATTERY_STATUS
[17:26:13.239000] [228] ATTITUDE_TARGET
[17:26:13.268987] [229] VFR_HUD
[17:26:13.437966] [7] RADIO
[17:26:13.440980] [7] RADIO_STATUS
[17:26:14.013193] [231] HEARTBEAT
[17:26:14.467174] [8] RADIO
[17:26:14.470171] [8] RADIO_STATUS
[17:26:14.713226] [232] VFR_HUD
[17:26:15.176308] [233] HEARTBEAT
[17:26:15.184382] [234] ATTITUDE_TARGET
[17:26:15.402320] [235] VFR_HUD
[17:26:15.518306] [9] RADIO
[17:26:15.520297] [9] RADIO_STATUS
[17:26:16.082413] [236] HEARTBEAT
[17:26:16.321467] [237] VFR_HUD
[17:26:16.437458] [10] RADIO
[17:26:16.440420] [10] RADIO_STATUS
[17:26:17.013582] [238] HEARTBEAT
[17:26:17.020532] [239] SYS_STATUS
[17:26:17.139588] [240] BATTERY_STATUS
[17:26:17.146593] [241] ATTITUDE_TARGET
[17:26:17.176549] [242] VFR_HUD
[17:26:17.455580] [11] RADIO
[17:26:17.458533] [11] RADIO_STATUS
[17:26:17.805633] [243] VFR_HUD
[17:26:18.031736] [244] HEARTBEAT
[17:26:18.494702] [12] RADIO
[17:26:18.497707] [12] RADIO_STATUS
[17:26:18.615720] [245] VFR_HUD
[17:26:19.084857] [246] HEARTBEAT
[17:26:19.092829] [247] ATTITUDE_TARGET
[17:26:19.415045] [248] VFR_HUD
[17:26:19.447884] [13] RADIO
[17:26:19.450858] [13] RADIO_STATUS
[17:26:19.996016] [249] HEARTBEAT
[17:26:20.225064] [250] VFR_HUD
[17:26:20.449040] [14] RADIO
[17:26:20.451989] [14] RADIO_STATUS
[17:26:21.154171] [253] BATTERY_STATUS
[17:26:21.271195] [254] ATTITUDE_TARGET
[17:26:21.276132] [255] VFR_HUD
[17:26:21.516194] [15] RADIO
[17:26:21.519210] [15] RADIO_STATUS
[17:26:21.834277] [0] VFR_HUD
[17:26:22.065352] [1] HEARTBEAT
[17:26:22.513410] [16] RADIO
[17:26:22.516308] [16] RADIO_STATUS
[17:26:22.634455] [2] VFR_HUD
[17:26:23.222433] [3] HEARTBEAT
[17:26:23.229505] [4] ATTITUDE_TARGET
[17:26:23.448506] [5] VFR_HUD
[17:26:23.569914] [17] RADIO
[17:26:23.572522] [17] RADIO_STATUS
[17:26:24.008592] [6] HEARTBEAT
[17:26:24.477623] [18] RADIO
[17:26:24.480659] [18] RADIO_STATUS
[17:26:25.065884] [8] HEARTBEAT
[17:26:25.071814] [9] SYS_STATUS
[17:26:25.111768] [10] BATTERY_STATUS
[17:26:25.119749] [11] ATTITUDE_TARGET
[17:26:25.124690] [12] VFR_HUD
[17:26:25.501960] [19] RADIO
[17:26:25.504878] [19] RADIO_STATUS
[17:26:25.852899] [13] VFR_HUD
[17:26:26.077952] [14] HEARTBEAT
[17:26:26.651017] [20] RADIO
[17:26:26.653916] [20] RADIO_STATUS
[17:26:26.689945] [15] VFR_HUD
[17:26:26.997072] [16] HEARTBEAT
[17:26:27.020045] [17] ATTITUDE_TARGET
[17:26:27.461078] [18] VFR_HUD
[17:26:27.494074] [21] RADIO
[17:26:27.497130] [21] RADIO_STATUS
[17:26:28.042193] [19] HEARTBEAT
[17:26:28.271186] [20] VFR_HUD
[17:26:28.490821] [22] RADIO
[17:26:28.493288] [22] RADIO_STATUS
[17:26:29.208408] [23] BATTERY_STATUS
[17:26:29.209292] [24] EXTENDED_SYS_STATE
[17:26:29.242404] [25] ATTITUDE_TARGET
[17:26:29.246374] [26] VFR_HUD
[17:26:29.250340] [27] SYSTEM_TIME
[17:26:29.535476] [23] RADIO
[17:26:29.538397] [23] RADIO_STATUS
[17:26:29.880559] [28] VFR_HUD
[17:26:30.111572] [29] HEARTBEAT
[17:26:30.559632] [24] RADIO
[17:26:30.562666] [24] RADIO_STATUS
[17:26:30.680660] [30] VFR_HUD
[17:26:31.039724] [31] HEARTBEAT
[17:26:31.046703] [32] ATTITUDE_TARGET
[17:26:31.489787] [33] VFR_HUD
[17:26:31.604868] [25] RADIO
[17:26:31.606844] [25] RADIO_STATUS
[17:26:32.054914] [34] HEARTBEAT
[17:26:32.520638] [26] RADIO
[17:26:32.521840] [26] RADIO_STATUS
[17:26:33.112044] [36] HEARTBEAT
[17:26:33.119044] [37] SYS_STATUS
[17:26:33.158082] [38] BATTERY_STATUS
[17:26:33.166053] [39] ATTITUDE_TARGET
[17:26:33.171009] [40] VFR_HUD
[17:26:33.548048] [27] RADIO
[17:26:33.551058] [27] RADIO_STATUS
[17:26:34.024155] [41] VFR_HUD
[17:26:34.027119] [42] HEARTBEAT
[17:26:34.697208] [28] RADIO
[17:26:34.700159] [28] RADIO_STATUS
[17:26:34.736250] [43] VFR_HUD
[17:26:35.057242] [44] HEARTBEAT
[17:26:35.065255] [45] ATTITUDE_TARGET
[17:26:35.507394] [46] VFR_HUD
[17:26:35.534254] [29] RADIO
[17:26:35.537362] [29] RADIO_STATUS
[17:26:36.083461] [47] HEARTBEAT
[17:26:36.322398] [48] VFR_HUD
[17:26:36.536482] [30] RADIO
[17:26:36.539414] [30] RADIO_STATUS
[17:26:37.014709] [49] HEARTBEAT
[17:26:37.020526] [50] SYS_STATUS
[17:26:37.188640] [53] VFR_HUD
[17:26:37.575623] [31] RADIO
[17:26:37.578516] [31] RADIO_STATUS
[17:26:37.806702] [54] VFR_HUD
[17:26:38.605711] [32] RADIO
[17:26:38.609045] [32] RADIO_STATUS
[17:26:38.725715] [56] VFR_HUD
[17:26:39.089858] [57] HEARTBEAT
[17:26:39.092838] [58] ATTITUDE_TARGET
[17:26:39.415939] [59] VFR_HUD
[17:26:39.644893] [33] RADIO
[17:26:39.649751] [33] RADIO_STATUS
[17:26:39.991010] [60] HEARTBEAT
[17:26:40.225952] [61] VFR_HUD
[17:26:40.565015] [34] RADIO
[17:26:40.567963] [34] RADIO_STATUS
[17:26:41.033086] [62] HEARTBEAT
[17:26:41.039017] [63] SYS_STATUS
[17:26:41.154056] [64] BATTERY_STATUS
[17:26:41.272089] [65] ATTITUDE_TARGET
[17:26:41.276201] [66] VFR_HUD
[17:26:41.594244] [35] RADIO
[17:26:41.597092] [35] RADIO_STATUS
[17:26:41.840120] [67] VFR_HUD
[17:26:42.060240] [68] HEARTBEAT
[17:26:42.743323] [36] RADIO
[17:26:42.746267] [36] RADIO_STATUS
[17:26:43.103391] [70] HEARTBEAT
[17:26:43.111345] [71] ATTITUDE_TARGET
[17:26:43.449425] [72] VFR_HUD
[17:26:43.569407] [37] RADIO
[17:26:43.572423] [37] RADIO_STATUS
[17:26:44.009724] [73] HEARTBEAT
[17:26:44.243586] [74] VFR_HUD
[17:26:44.582571] [38] RADIO
[17:26:44.585642] [38] RADIO_STATUS
[17:26:45.065696] [75] HEARTBEAT
[17:26:45.072609] [76] SYS_STATUS
[17:26:45.111649] [77] BATTERY_STATUS
[17:26:45.119652] [78] ATTITUDE_TARGET
[17:26:45.124635] [79] VFR_HUD
[17:26:45.621680] [39] RADIO
[17:26:45.624664] [39] RADIO_STATUS
[17:26:46.207839] [80] VFR_HUD
[17:26:46.210800] [81] HEARTBEAT
[17:26:46.651873] [40] RADIO
[17:26:46.654861] [40] RADIO_STATUS
[17:26:46.771873] [82] VFR_HUD
[17:26:46.998208] [83] HEARTBEAT
[17:26:47.019954] [84] ATTITUDE_TARGET
[17:26:47.462108] [85] VFR_HUD
[17:26:47.691083] [41] RADIO
[17:26:47.694102] [41] RADIO_STATUS
[17:26:48.042141] [86] HEARTBEAT
[17:26:48.271156] [87] VFR_HUD
[17:26:48.616309] [42] RADIO
[17:26:48.619550] [42] RADIO_STATUS
[17:26:49.078299] [88] HEARTBEAT
[17:26:49.085240] [89] SYS_STATUS
[17:26:49.203259] [90] BATTERY_STATUS
[17:26:49.205257] [91] EXTENDED_SYS_STATE
[17:26:49.324392] [92] ATTITUDE_TARGET
[17:26:49.329439] [93] VFR_HUD
[17:26:49.333811] [94] SYSTEM_TIME
[17:26:49.640389] [43] RADIO
[17:26:49.643300] [43] RADIO_STATUS
[17:26:49.880440] [95] VFR_HUD
[17:26:49.991443] [96] HEARTBEAT
[17:26:50.789577] [44] RADIO
[17:26:50.792755] [44] RADIO_STATUS
[17:26:51.044686] [98] HEARTBEAT
[17:26:51.052600] [99] ATTITUDE_TARGET
[17:26:51.495684] [100] VFR_HUD
[17:26:51.615690] [45] RADIO
[17:26:51.618898] [45] RADIO_STATUS
[17:26:52.064758] [101] HEARTBEAT
[17:26:52.289866] [102] VFR_HUD
[17:26:52.628839] [46] RADIO
[17:26:52.631820] [46] RADIO_STATUS
[17:26:53.111967] [103] HEARTBEAT
[17:26:53.118982] [104] SYS_STATUS
[17:26:53.158902] [105] BATTERY_STATUS
[17:26:53.165932] [106] ATTITUDE_TARGET
[17:26:53.170909] [107] VFR_HUD
[17:26:53.674027] [47] RADIO
[17:26:53.676987] [47] RADIO_STATUS
[17:26:54.025099] [108] VFR_HUD
[17:26:54.028115] [109] HEARTBEAT
[17:26:54.698166] [48] RADIO
[17:26:54.701137] [48] RADIO_STATUS
[17:26:54.736202] [110] VFR_HUD
[17:26:55.058229] [111] HEARTBEAT
[17:26:55.066525] [112] ATTITUDE_TARGET
[17:26:55.398315] [113] VFR_HUD
[17:26:55.743334] [49] RADIO
[17:26:55.746302] [49] RADIO_STATUS
[17:26:56.089402] [114] HEARTBEAT
[17:26:56.203342] [115] VFR_HUD
[17:26:56.662516] [50] RADIO
[17:26:56.665408] [50] RADIO_STATUS
[17:26:57.015733] [116] HEARTBEAT
[17:26:57.022698] [117] SYS_STATUS
[17:26:57.140590] [118] BATTERY_STATUS
[17:26:57.148562] [119] ATTITUDE_TARGET
[17:26:57.178665] [120] VFR_HUD
[17:26:57.686579] [51] RADIO
[17:26:57.689574] [51] RADIO_STATUS
[17:26:57.807631] [121] VFR_HUD
[17:26:58.032710] [122] HEARTBEAT
[17:26:58.616764] [123] VFR_HUD
[17:26:58.835772] [52] RADIO
[17:26:58.838769] [52] RADIO_STATUS
[17:26:59.086060] [124] HEARTBEAT
[17:26:59.093827] [125] ATTITUDE_TARGET
[17:26:59.416950] [126] VFR_HUD
[17:26:59.755940] [53] RADIO
[17:26:59.759023] [53] RADIO_STATUS
[17:26:59.992132] [127] HEARTBEAT
[17:27:00.232004] [128] VFR_HUD
[17:27:00.676059] [54] RADIO
[17:27:00.678268] [54] RADIO_STATUS
[17:27:01.155164] [131] BATTERY_STATUS
[17:27:01.715279] [55] RADIO
[17:27:01.718199] [55] RADIO_STATUS
[17:27:01.841392] [134] VFR_HUD
[17:27:02.061257] [135] HEARTBEAT
[17:27:02.635307] [136] VFR_HUD
[17:27:02.662349] [56] RADIO
[17:27:02.665341] [56] RADIO_STATUS
[17:27:03.105976] [137] HEARTBEAT
[17:27:03.112395] [138] ATTITUDE_TARGET
[17:27:03.554590] [139] VFR_HUD
[17:27:03.663539] [57] RADIO
[17:27:03.666413] [57] RADIO_STATUS
[17:27:04.009626] [140] HEARTBEAT
[17:27:04.244535] [141] VFR_HUD
[17:27:04.703747] [58] RADIO
[17:27:04.705624] [58] RADIO_STATUS
[17:27:05.061660] [142] HEARTBEAT
[17:27:05.067647] [143] SYS_STATUS
[17:27:05.186759] [144] BATTERY_STATUS
[17:27:05.194749] [145] ATTITUDE_TARGET
[17:27:05.224656] [146] VFR_HUD
[17:27:05.732774] [59] RADIO
[17:27:05.735728] [59] RADIO_STATUS
[17:27:05.853786] [147] VFR_HUD
[17:27:06.078863] [148] HEARTBEAT
[17:27:06.662949] [149] VFR_HUD
[17:27:06.881939] [60] RADIO
[17:27:06.884883] [60] RADIO_STATUS
[17:27:06.997943] [150] HEARTBEAT
[17:27:07.044034] [151] ATTITUDE_TARGET
[17:27:07.463027] [152] VFR_HUD
[17:27:07.692016] [61] RADIO
[17:27:07.693970] [61] RADIO_STATUS
[17:27:08.043121] [153] HEARTBEAT
[17:27:08.272119] [154] VFR_HUD
[17:27:08.721206] [62] RADIO
[17:27:08.724158] [62] RADIO_STATUS
[17:27:09.203305] [157] BATTERY_STATUS
[17:27:09.205191] [158] EXTENDED_SYS_STATE
[17:27:09.760659] [63] RADIO
[17:27:09.763869] [63] RADIO_STATUS
[17:27:09.886424] [162] VFR_HUD
[17:27:09.998501] [163] HEARTBEAT
[17:27:10.680486] [164] VFR_HUD
[17:27:10.713528] [64] RADIO
[17:27:10.715491] [64] RADIO_STATUS
[17:27:11.045639] [165] HEARTBEAT
[17:27:11.052565] [166] ATTITUDE_TARGET
[17:27:11.495663] [167] VFR_HUD
[17:27:11.709620] [65] RADIO
[17:27:11.712669] [65] RADIO_STATUS
[17:27:12.055790] [168] HEARTBEAT
[17:27:12.289904] [169] VFR_HUD
[17:27:12.748788] [66] RADIO
[17:27:12.751733] [66] RADIO_STATUS
[17:27:13.111878] [170] HEARTBEAT
[17:27:13.118849] [171] SYS_STATUS
[17:27:13.158963] [172] BATTERY_STATUS
[17:27:13.166837] [173] ATTITUDE_TARGET
[17:27:13.170833] [174] VFR_HUD
[17:27:13.778944] [67] RADIO
[17:27:13.781928] [67] RADIO_STATUS
[17:27:14.030011] [175] VFR_HUD
[17:27:14.033009] [176] HEARTBEAT
[17:27:14.709095] [177] VFR_HUD
[17:27:14.928103] [68] RADIO
[17:27:14.931148] [68] RADIO_STATUS
[17:27:15.058172] [178] HEARTBEAT
[17:27:15.066168] [179] ATTITUDE_TARGET
[17:27:15.398358] [180] VFR_HUD
[17:27:15.743224] [69] RADIO
[17:27:15.746246] [69] RADIO_STATUS
[17:27:16.089380] [181] HEARTBEAT
[17:27:16.203358] [182] VFR_HUD
[17:27:16.767470] [70] RADIO
[17:27:16.769422] [70] RADIO_STATUS
[17:27:17.015698] [183] HEARTBEAT
[17:27:17.022500] [184] SYS_STATUS
[17:27:17.807618] [188] VFR_HUD
[17:27:17.840401] [71] RADIO
[17:27:17.842601] [71] RADIO_STATUS
[17:27:18.032654] [189] HEARTBEAT
[17:27:18.621726] [190] VFR_HUD
[17:27:18.742880] [72] RADIO
[17:27:18.745745] [72] RADIO_STATUS
[17:27:19.090790] [191] HEARTBEAT
[17:27:19.098847] [192] ATTITUDE_TARGET
[17:27:19.754863] [73] RADIO
[17:27:19.757871] [73] RADIO_STATUS
[17:27:19.991967] [194] HEARTBEAT
[17:27:20.231014] [195] VFR_HUD
[17:27:20.800058] [74] RADIO
[17:27:20.803027] [74] RADIO_STATUS
[17:27:21.033113] [196] HEARTBEAT
[17:27:21.040083] [197] SYS_STATUS
[17:27:21.159136] [198] BATTERY_STATUS
[17:27:21.272141] [199] ATTITUDE_TARGET
[17:27:21.277679] [200] VFR_HUD
[17:27:21.824293] [75] RADIO
[17:27:21.827178] [75] RADIO_STATUS
[17:27:21.863274] [201] VFR_HUD
[17:27:22.060278] [202] HEARTBEAT
[17:27:22.634312] [203] VFR_HUD
[17:27:22.743321] [76] RADIO
[17:27:22.746363] [76] RADIO_STATUS
[17:27:23.228557] [204] HEARTBEAT
[17:27:23.236504] [205] ATTITUDE_TARGET
[17:27:23.444460] [206] VFR_HUD
[17:27:23.788547] [77] RADIO
[17:27:23.791531] [77] RADIO_STATUS
[17:27:24.243606] [208] VFR_HUD
[17:27:24.812661] [78] RADIO
[17:27:24.815695] [78] RADIO_STATUS
[17:27:25.060943] [209] HEARTBEAT
[17:27:25.067716] [210] SYS_STATUS
[17:27:25.852858] [214] VFR_HUD
[17:27:25.884849] [79] RADIO
[17:27:25.887773] [79] RADIO_STATUS
[17:27:26.078836] [215] HEARTBEAT
[17:27:26.662949] [216] VFR_HUD
[17:27:26.771920] [80] RADIO
[17:27:26.774902] [80] RADIO_STATUS
[17:27:26.998056] [217] HEARTBEAT
[17:27:27.020988] [218] ATTITUDE_TARGET
[17:27:27.801131] [81] RADIO
[17:27:27.804080] [81] RADIO_STATUS
[17:27:28.037166] [220] HEARTBEAT
[17:27:28.277197] [221] VFR_HUD
[17:27:28.840236] [82] RADIO
[17:27:28.843137] [82] RADIO_STATUS
[17:27:29.078289] [222] HEARTBEAT
[17:27:29.085271] [223] SYS_STATUS
[17:27:29.203299] [224] BATTERY_STATUS
[17:27:29.205242] [225] EXTENDED_SYS_STATE
[17:27:29.324303] [226] ATTITUDE_TARGET
[17:27:29.329410] [227] VFR_HUD
[17:27:29.332320] [228] SYSTEM_TIME
[17:27:29.870407] [83] RADIO
[17:27:29.873403] [83] RADIO_STATUS
[17:27:29.908365] [229] VFR_HUD
[17:27:29.986484] [230] HEARTBEAT
[17:27:30.680730] [231] VFR_HUD
[17:27:30.789536] [84] RADIO
[17:27:30.792569] [84] RADIO_STATUS
[17:27:31.039640] [232] HEARTBEAT
[17:27:31.047619] [233] ATTITUDE_TARGET
[17:27:31.495698] [234] VFR_HUD
[17:27:31.828701] [85] RADIO
[17:27:31.831680] [85] RADIO_STATUS
[17:27:32.859084] [86] RADIO
[17:27:32.861989] [86] RADIO_STATUS
[17:27:33.106907] [237] HEARTBEAT
[17:27:33.113933] [238] SYS_STATUS
[17:27:33.898999] [242] VFR_HUD
[17:27:33.925971] [87] RADIO
[17:27:33.929151] [87] RADIO_STATUS
[17:27:34.019040] [243] HEARTBEAT
[17:27:34.708143] [244] VFR_HUD
[17:27:34.817092] [88] RADIO
[17:27:34.820075] [88] RADIO_STATUS
[17:27:35.057196] [245] HEARTBEAT
[17:27:35.065183] [246] ATTITUDE_TARGET
[17:27:35.398193] [247] VFR_HUD
[17:27:35.846347] [89] RADIO
[17:27:35.849554] [89] RADIO_STATUS
[17:27:36.088312] [248] HEARTBEAT
[17:27:36.197305] [249] VFR_HUD
[17:27:36.886388] [90] RADIO
[17:27:36.889389] [90] RADIO_STATUS
[17:27:37.019505] [250] HEARTBEAT
[17:27:37.026382] [251] SYS_STATUS
[17:27:37.065438] [252] BATTERY_STATUS
[17:27:37.073420] [253] ATTITUDE_TARGET
[17:27:37.078394] [254] VFR_HUD
[17:27:37.916611] [91] RADIO
[17:27:37.918495] [91] RADIO_STATUS
[17:27:38.166558] [255] VFR_HUD
[17:27:38.169569] [0] HEARTBEAT
[17:27:38.621617] [1] VFR_HUD
[17:27:38.835652] [92] RADIO
[17:27:38.838630] [92] RADIO_STATUS
[17:27:39.089750] [2] HEARTBEAT
[17:27:39.097678] [3] ATTITUDE_TARGET
[17:27:39.415784] [4] VFR_HUD
[17:27:39.874807] [93] RADIO
[17:27:39.877739] [93] RADIO_STATUS
[17:27:39.990807] [5] HEARTBEAT
[17:27:40.230858] [6] VFR_HUD
[17:27:40.903975] [94] RADIO
[17:27:40.906929] [94] RADIO_STATUS
[17:27:41.031999] [7] HEARTBEAT
[17:27:41.038991] [8] SYS_STATUS
[17:27:41.159132] [9] BATTERY_STATUS
[17:27:41.834100] [12] VFR_HUD
[17:27:41.943099] [95] RADIO
[17:27:41.946071] [95] RADIO_STATUS
[17:27:42.065125] [13] HEARTBEAT
[17:27:42.634235] [14] VFR_HUD
[17:27:42.868268] [96] RADIO
[17:27:42.871231] [96] RADIO_STATUS
[17:27:43.103260] [15] HEARTBEAT
[17:27:43.111247] [16] ATTITUDE_TARGET
[17:27:43.443361] [17] VFR_HUD
[17:27:43.892357] [97] RADIO
[17:27:43.895377] [97] RADIO_STATUS
[17:27:44.008372] [18] HEARTBEAT
[17:27:44.242523] [19] VFR_HUD
[17:27:44.936525] [98] RADIO
[17:27:44.939536] [98] RADIO_STATUS
[17:27:45.059533] [20] HEARTBEAT
[17:27:45.066578] [21] SYS_STATUS
[17:27:45.185614] [22] BATTERY_STATUS
[17:27:45.193562] [23] ATTITUDE_TARGET
[17:27:45.223582] [24] VFR_HUD
[17:27:45.965810] [99] RADIO
[17:27:45.965976] [99] RADIO_STATUS
[17:27:46.077676] [26] HEARTBEAT
[17:27:46.666727] [27] VFR_HUD
[17:27:46.880731] [100] RADIO
[17:27:46.883700] [100] RADIO_STATUS
[17:27:47.460854] [30] VFR_HUD
[17:27:47.924845] [101] RADIO
[17:27:47.927804] [101] RADIO_STATUS
[17:27:48.036916] [31] HEARTBEAT
[17:27:48.275898] [32] VFR_HUD
[17:27:48.948950] [102] RADIO
[17:27:48.951934] [102] RADIO_STATUS
[17:27:49.078049] [33] HEARTBEAT
[17:27:49.083981] [34] SYS_STATUS
[17:27:49.202014] [35] BATTERY_STATUS
[17:27:49.203998] [36] EXTENDED_SYS_STATE
[17:27:49.885765] [40] VFR_HUD
[17:27:49.996182] [41] HEARTBEAT
[17:27:50.027140] [103] RADIO
[17:27:50.030346] [103] RADIO_STATUS
[17:27:50.679241] [42] VFR_HUD
[17:27:50.913265] [104] RADIO
[17:27:50.916395] [104] RADIO_STATUS
[17:27:51.038285] [43] HEARTBEAT
[17:27:51.046451] [44] ATTITUDE_TARGET
[17:27:51.489378] [45] VFR_HUD
[17:27:51.938463] [105] RADIO
[17:27:51.941376] [105] RADIO_STATUS
[17:27:52.054554] [46] HEARTBEAT
[17:27:52.288577] [47] VFR_HUD
[17:27:52.982636] [106] RADIO
[17:27:52.985629] [106] RADIO_STATUS
[17:27:53.105666] [48] HEARTBEAT
[17:27:53.112625] [49] SYS_STATUS
[17:27:53.230673] [50] BATTERY_STATUS
[17:27:53.238623] [51] ATTITUDE_TARGET
[17:27:53.268633] [52] VFR_HUD
[17:27:54.006805] [107] RADIO
[17:27:54.009771] [107] RADIO_STATUS
[17:27:54.040818] [54] HEARTBEAT
[17:27:54.706883] [55] VFR_HUD
[17:27:54.925903] [108] RADIO
[17:27:54.928914] [108] RADIO_STATUS
[17:27:55.175958] [56] HEARTBEAT
[17:27:55.182966] [57] ATTITUDE_TARGET
[17:27:55.409785] [58] VFR_HUD
[17:27:55.966060] [109] RADIO
[17:27:55.969914] [109] RADIO_STATUS
[17:27:56.082102] [59] HEARTBEAT
[17:27:56.995229] [110] RADIO
[17:27:56.998201] [110] RADIO_STATUS
[17:27:57.055315] [61] HEARTBEAT
[17:27:57.061233] [62] SYS_STATUS
[17:27:57.069265] [63] BATTERY_STATUS
[17:27:57.081242] [64] ATTITUDE_TARGET
[17:27:57.089749] [65] VFR_HUD
[17:27:57.805456] [66] VFR_HUD
[17:27:57.914394] [111] RADIO
[17:27:57.917354] [111] RADIO_STATUS
[17:27:58.030403] [67] HEARTBEAT
[17:27:58.620452] [68] VFR_HUD
[17:27:58.954463] [112] RADIO
[17:27:58.957442] [112] RADIO_STATUS
[17:27:59.089603] [69] HEARTBEAT
[17:27:59.096607] [70] ATTITUDE_TARGET
[17:27:59.414720] [71] VFR_HUD
[17:27:59.983650] [113] RADIO
[17:27:59.986595] [113] RADIO_STATUS
[17:28:00.017646] [72] HEARTBEAT
[17:28:00.224669] [73] VFR_HUD
[17:28:01.132818] [114] RADIO
[17:28:01.135981] [114] RADIO_STATUS
[17:28:01.202785] [76] BATTERY_STATUS
[17:28:01.210975] [77] ATTITUDE_TARGET
[17:28:01.216048] [78] VFR_HUD
[17:28:02.052906] [115] RADIO
[17:28:02.054973] [115] RADIO_STATUS
[17:28:02.098145] [79] VFR_HUD
[17:28:02.099890] [80] HEARTBEAT
[17:28:02.633063] [81] VFR_HUD
[17:28:02.972021] [116] RADIO
[17:28:02.975042] [116] RADIO_STATUS
[17:28:03.020085] [82] HEARTBEAT
[17:28:03.028067] [83] ATTITUDE_TARGET
[17:28:03.442105] [84] VFR_HUD
[17:28:04.008447] [85] HEARTBEAT
[17:28:04.121173] [117] RADIO
[17:28:04.124176] [117] RADIO_STATUS
[17:28:05.041528] [118] RADIO
[17:28:05.044386] [118] RADIO_STATUS
[17:28:05.100396] [87] HEARTBEAT
[17:28:05.107352] [88] SYS_STATUS
[17:28:05.115414] [89] BATTERY_STATUS
[17:28:05.127391] [90] ATTITUDE_TARGET
[17:28:05.132400] [91] VFR_HUD
[17:28:05.851487] [92] VFR_HUD
[17:28:05.960458] [119] RADIO
[17:28:05.963506] [119] RADIO_STATUS
[17:28:06.076602] [93] HEARTBEAT
[17:28:06.665612] [94] VFR_HUD
[17:28:06.995731] [95] HEARTBEAT
[17:28:07.018706] [96] ATTITUDE_TARGET
[17:28:07.027643] [120] RADIO
[17:28:07.030637] [120] RADIO_STATUS
[17:28:07.459792] [97] VFR_HUD
[17:28:08.028917] [121] RADIO
[17:28:08.031792] [121] RADIO_STATUS
[17:28:08.144927] [98] HEARTBEAT
[17:28:08.273895] [99] VFR_HUD
[17:28:09.178034] [122] RADIO
[17:28:09.181041] [122] RADIO_STATUS
[17:28:09.242082] [102] BATTERY_STATUS
[17:28:09.244091] [103] EXTENDED_SYS_STATE
[17:28:09.252067] [104] ATTITUDE_TARGET
[17:28:09.257058] [105] VFR_HUD
[17:28:09.260050] [106] SYSTEM_TIME
[17:28:09.878261] [107] VFR_HUD
[17:28:10.097231] [123] RADIO
[17:28:10.100220] [123] RADIO_STATUS
[17:28:10.678302] [109] VFR_HUD
[17:28:11.017317] [124] RADIO
[17:28:11.020338] [124] RADIO_STATUS
[17:28:11.271527] [110] HEARTBEAT
[17:28:11.279511] [111] ATTITUDE_TARGET
[17:28:11.487449] [112] VFR_HUD
[17:28:12.052539] [113] HEARTBEAT
[17:28:12.084569] [125] RADIO
[17:28:12.087487] [125] RADIO_STATUS
[17:28:13.085663] [126] RADIO
[17:28:13.088636] [126] RADIO_STATUS
[17:28:13.213688] [115] HEARTBEAT
[17:28:13.220684] [116] SYS_STATUS
[17:28:13.340943] [117] BATTERY_STATUS
[17:28:13.895815] [120] VFR_HUD
[17:28:14.005808] [127] RADIO
[17:28:14.008781] [127] RADIO_STATUS
[17:28:14.121937] [121] HEARTBEAT
[17:28:14.706039] [122] VFR_HUD
[17:28:15.055326] [123] HEARTBEAT
[17:28:15.062987] [124] ATTITUDE_TARGET
[17:28:15.073105] [128] RADIO
[17:28:15.075933] [128] RADIO_STATUS
[17:28:15.505069] [125] VFR_HUD
[17:28:16.074189] [129] RADIO
[17:28:16.077124] [129] RADIO_STATUS
[17:28:16.199152] [126] HEARTBEAT
[17:28:16.203106] [127] VFR_HUD
[17:28:17.017304] [128] HEARTBEAT
[17:28:17.024311] [129] SYS_STATUS
[17:28:17.063285] [130] BATTERY_STATUS
[17:28:17.071252] [131] ATTITUDE_TARGET
[17:28:17.076539] [132] VFR_HUD
[17:28:17.118239] [130] RADIO
[17:28:17.121265] [130] RADIO_STATUS
[17:28:18.143378] [131] RADIO
[17:28:18.146388] [131] RADIO_STATUS
[17:28:18.613508] [135] VFR_HUD
[17:28:19.062643] [132] RADIO
[17:28:19.065545] [132] RADIO_STATUS
[17:28:19.311583] [136] HEARTBEAT
[17:28:19.319639] [137] ATTITUDE_TARGET
[17:28:19.412700] [138] VFR_HUD
[17:28:19.993712] [139] HEARTBEAT
[17:28:20.106654] [133] RADIO
[17:28:20.109616] [133] RADIO_STATUS
[17:28:20.222806] [140] VFR_HUD
[17:28:21.028881] [141] HEARTBEAT
[17:28:21.035873] [142] SYS_STATUS
[17:28:21.130910] [134] RADIO
[17:28:21.133843] [134] RADIO_STATUS
[17:28:21.171832] [143] BATTERY_STATUS
[17:28:21.198826] [144] ATTITUDE_TARGET
[17:28:21.203821] [145] VFR_HUD
[17:28:21.831024] [146] VFR_HUD
[17:28:22.050000] [135] RADIO
[17:28:22.052946] [135] RADIO_STATUS
[17:28:22.083971] [147] HEARTBEAT
[17:28:23.100143] [149] HEARTBEAT
[17:28:23.107111] [150] ATTITUDE_TARGET
[17:28:23.118127] [136] RADIO
[17:28:23.120096] [136] RADIO_STATUS
[17:28:23.445321] [151] VFR_HUD
[17:28:24.005262] [152] HEARTBEAT
[17:28:24.119281] [137] RADIO
[17:28:24.122256] [137] RADIO_STATUS
[17:28:24.241888] [153] VFR_HUD
[17:28:25.062426] [154] HEARTBEAT
[17:28:25.069454] [155] SYS_STATUS
[17:28:25.108443] [156] BATTERY_STATUS
[17:28:25.116517] [157] ATTITUDE_TARGET
[17:28:25.121420] [158] VFR_HUD
[17:28:25.164472] [138] RADIO
[17:28:25.167458] [138] RADIO_STATUS
[17:28:26.095582] [139] RADIO
[17:28:26.098644] [139] RADIO_STATUS
[17:28:26.209608] [159] VFR_HUD
[17:28:26.212733] [160] HEARTBEAT
[17:28:26.663661] [161] VFR_HUD
[17:28:26.993746] [162] HEARTBEAT
[17:28:27.016690] [163] ATTITUDE_TARGET
[17:28:27.107716] [140] RADIO
[17:28:27.110677] [140] RADIO_STATUS
[17:28:27.457787] [164] VFR_HUD
[17:28:28.039099] [165] HEARTBEAT
[17:28:28.146958] [141] RADIO
[17:28:28.149918] [141] RADIO_STATUS
[17:28:28.267960] [166] VFR_HUD
[17:28:29.075139] [167] HEARTBEAT
[17:28:29.082642] [168] SYS_STATUS
[17:28:29.177163] [142] RADIO
[17:28:29.180171] [142] RADIO_STATUS
[17:28:29.241188] [169] BATTERY_STATUS
[17:28:29.243138] [170] EXTENDED_SYS_STATE
[17:28:29.251363] [171] ATTITUDE_TARGET
[17:28:29.256223] [172] VFR_HUD
[17:28:29.259135] [173] SYSTEM_TIME
[17:28:29.877207] [174] VFR_HUD
[17:28:30.096291] [143] RADIO
[17:28:30.099565] [143] RADIO_STATUS
[17:28:30.130275] [175] HEARTBEAT
[17:28:31.035587] [177] HEARTBEAT
[17:28:31.043381] [178] ATTITUDE_TARGET
[17:28:31.245314] [144] RADIO
[17:28:31.248665] [144] RADIO_STATUS
[17:28:31.486015] [179] VFR_HUD
[17:28:32.051682] [180] HEARTBEAT
[17:28:32.164572] [145] RADIO
[17:28:32.167715] [145] RADIO_STATUS
[17:28:32.203822] [181] VFR_HUD
[17:28:33.105790] [182] HEARTBEAT
[17:28:33.109848] [183] SYS_STATUS
[17:28:33.288687] [146] RADIO
[17:28:33.291650] [146] RADIO_STATUS
[17:28:33.894891] [187] VFR_HUD
[17:28:34.009799] [188] HEARTBEAT
[17:28:34.123831] [147] RADIO
[17:28:34.126753] [147] RADIO_STATUS
[17:28:34.709841] [189] VFR_HUD
[17:28:35.053935] [190] HEARTBEAT
[17:28:35.062128] [191] ATTITUDE_TARGET
[17:28:35.154033] [148] RADIO
[17:28:35.156936] [148] RADIO_STATUS
[17:28:35.504057] [192] VFR_HUD
[17:28:36.081931] [193] HEARTBEAT
[17:28:36.194358] [194] VFR_HUD
[17:28:36.221419] [149] RADIO
[17:28:36.224123] [149] RADIO_STATUS
[17:28:37.011409] [195] HEARTBEAT
[17:28:37.018398] [196] SYS_STATUS
[17:28:37.136176] [197] BATTERY_STATUS
[17:28:37.144193] [198] ATTITUDE_TARGET
[17:28:37.174163] [199] VFR_HUD
[17:28:37.202340] [150] RADIO
[17:28:37.205177] [150] RADIO_STATUS
[17:28:37.803292] [200] VFR_HUD
[17:28:38.028332] [201] HEARTBEAT
[17:28:38.142335] [151] RADIO
[17:28:38.145319] [151] RADIO_STATUS
[17:28:38.612407] [202] VFR_HUD
[17:28:39.081583] [203] HEARTBEAT
[17:28:39.089608] [204] ATTITUDE_TARGET
[17:28:39.209444] [152] RADIO
[17:28:39.212481] [152] RADIO_STATUS
[17:28:39.414011] [205] VFR_HUD
[17:28:39.992596] [206] HEARTBEAT
[17:28:40.211556] [153] RADIO
[17:28:40.217021] [153] RADIO_STATUS
[17:28:40.331653] [207] VFR_HUD
[17:28:41.130784] [154] RADIO
[17:28:41.133710] [154] RADIO_STATUS
[17:28:41.171767] [210] BATTERY_STATUS
[17:28:41.198960] [211] ATTITUDE_TARGET
[17:28:41.202869] [212] VFR_HUD
[17:28:41.835806] [213] VFR_HUD
[17:28:42.055928] [214] HEARTBEAT
[17:28:42.280056] [155] RADIO
[17:28:42.282835] [155] RADIO_STATUS
[17:28:42.629980] [215] VFR_HUD
[17:28:43.099478] [216] HEARTBEAT
[17:28:43.107035] [217] ATTITUDE_TARGET
[17:28:43.116992] [156] RADIO
[17:28:43.119954] [156] RADIO_STATUS
[17:28:43.445067] [218] VFR_HUD
[17:28:44.005176] [219] HEARTBEAT
[17:28:44.240234] [220] VFR_HUD
[17:28:44.272200] [157] RADIO
[17:28:44.275353] [157] RADIO_STATUS
[17:28:45.062348] [221] HEARTBEAT
[17:28:45.068344] [222] SYS_STATUS
[17:28:45.108321] [223] BATTERY_STATUS
[17:28:45.116510] [224] ATTITUDE_TARGET
[17:28:45.121313] [225] VFR_HUD
[17:28:45.163490] [158] RADIO
[17:28:45.166473] [158] RADIO_STATUS
[17:28:46.084479] [226] VFR_HUD
[17:28:46.087463] [227] HEARTBEAT
[17:28:46.187449] [159] RADIO
[17:28:46.190435] [159] RADIO_STATUS
[17:28:46.658600] [228] VFR_HUD
[17:28:46.993686] [229] HEARTBEAT
[17:28:47.130693] [230] ATTITUDE_TARGET
[17:28:47.232641] [160] RADIO
[17:28:47.234654] [160] RADIO_STATUS
[17:28:47.457711] [231] VFR_HUD
[17:28:48.037835] [232] HEARTBEAT
[17:28:48.146833] [161] RADIO
[17:28:48.149972] [161] RADIO_STATUS
[17:28:48.266881] [233] VFR_HUD
[17:28:49.175929] [162] RADIO
[17:28:49.178894] [162] RADIO_STATUS
[17:28:49.239986] [236] BATTERY_STATUS
[17:28:49.241946] [237] EXTENDED_SYS_STATE
[17:28:49.249955] [238] ATTITUDE_TARGET
[17:28:49.255008] [239] VFR_HUD
[17:28:49.258010] [240] SYSTEM_TIME
[17:28:49.876772] [241] VFR_HUD
[17:28:50.107096] [242] HEARTBEAT
[17:28:50.325100] [163] RADIO
[17:28:50.328068] [163] RADIO_STATUS
[17:28:50.676144] [243] VFR_HUD
[17:28:51.040215] [244] HEARTBEAT
[17:28:51.048221] [245] ATTITUDE_TARGET
[17:28:51.245229] [164] RADIO
[17:28:51.247260] [164] RADIO_STATUS
[17:28:51.485374] [246] VFR_HUD
[17:28:52.050371] [247] HEARTBEAT
[17:28:52.164407] [165] RADIO
[17:28:52.167344] [165] RADIO_STATUS
[17:28:52.202361] [248] VFR_HUD
[17:28:53.106613] [249] HEARTBEAT
[17:28:53.113589] [250] SYS_STATUS
[17:28:53.153780] [251] BATTERY_STATUS
[17:28:53.161758] [252] ATTITUDE_TARGET
[17:28:53.165535] [253] VFR_HUD
[17:28:53.204049] [166] RADIO
[17:28:53.206613] [166] RADIO_STATUS
[17:28:54.019619] [254] VFR_HUD
[17:28:54.022615] [255] HEARTBEAT
[17:28:54.232737] [167] RADIO
[17:28:54.235706] [167] RADIO_STATUS
[17:28:54.708855] [0] VFR_HUD
[17:28:55.157794] [168] RADIO
[17:28:55.160847] [168] RADIO_STATUS
[17:28:55.201870] [1] HEARTBEAT
[17:28:55.207787] [2] ATTITUDE_TARGET
[17:28:55.502856] [3] VFR_HUD
[17:28:56.078090] [4] HEARTBEAT
[17:28:56.192965] [5] VFR_HUD
[17:28:56.219950] [169] RADIO
[17:28:56.222908] [169] RADIO_STATUS
[17:28:57.010149] [6] HEARTBEAT
[17:28:57.017226] [7] SYS_STATUS
[17:28:57.221966] [170] RADIO
[17:28:57.224082] [170] RADIO_STATUS
[17:28:57.802254] [11] VFR_HUD
[17:28:58.027355] [12] HEARTBEAT
[17:28:58.370259] [171] RADIO
[17:28:58.373204] [171] RADIO_STATUS
[17:28:58.611437] [13] VFR_HUD
[17:28:59.080543] [14] HEARTBEAT
[17:28:59.088443] [15] ATTITUDE_TARGET
[17:28:59.290586] [172] RADIO
[17:28:59.293419] [172] RADIO_STATUS
[17:29:00.095718] [17] HEARTBEAT
[17:29:00.209642] [173] RADIO
[17:29:00.212727] [173] RADIO_STATUS
[17:29:00.248788] [18] VFR_HUD
[17:29:01.027711] [19] HEARTBEAT
[17:29:01.034670] [20] SYS_STATUS
[17:29:01.148711] [21] BATTERY_STATUS
[17:29:01.266707] [22] ATTITUDE_TARGET
[17:29:01.271723] [23] VFR_HUD
[17:29:01.277227] [174] RADIO
[17:29:01.279809] [174] RADIO_STATUS
[17:29:01.834844] [24] VFR_HUD
[17:29:02.054991] [25] HEARTBEAT
[17:29:02.280318] [175] RADIO
[17:29:02.281807] [175] RADIO_STATUS
[17:29:02.628921] [26] VFR_HUD
[17:29:03.197996] [176] RADIO
[17:29:03.201034] [176] RADIO_STATUS
[17:29:03.328040] [27] HEARTBEAT
[17:29:03.334991] [28] ATTITUDE_TARGET
[17:29:03.549063] [29] VFR_HUD
[17:29:04.250165] [31] VFR_HUD
[17:29:04.270158] [177] RADIO
[17:29:04.273058] [177] RADIO_STATUS
[17:29:05.055208] [32] HEARTBEAT
[17:29:05.062245] [33] SYS_STATUS
[17:29:05.267232] [178] RADIO
[17:29:05.270183] [178] RADIO_STATUS
[17:29:05.847370] [37] VFR_HUD
[17:29:06.072354] [38] HEARTBEAT
[17:29:06.417938] [179] RADIO
[17:29:06.419344] [179] RADIO_STATUS
[17:29:06.657900] [39] VFR_HUD
[17:29:07.125469] [40] HEARTBEAT
[17:29:07.133488] [41] ATTITUDE_TARGET
[17:29:07.231462] [180] RADIO
[17:29:07.234402] [180] RADIO_STATUS
[17:29:08.036666] [43] HEARTBEAT
[17:29:08.255705] [181] RADIO
[17:29:08.258568] [181] RADIO_STATUS
[17:29:08.375735] [44] VFR_HUD
[17:29:09.072735] [45] HEARTBEAT
[17:29:09.079804] [46] SYS_STATUS
[17:29:09.197776] [47] BATTERY_STATUS
[17:29:09.199702] [48] EXTENDED_SYS_STATE
[17:29:09.318869] [49] ATTITUDE_TARGET
[17:29:09.323757] [50] VFR_HUD
[17:29:09.326701] [51] SYSTEM_TIME
[17:29:09.361740] [182] RADIO
[17:29:09.364719] [182] RADIO_STATUS
[17:29:09.874812] [52] VFR_HUD
[17:29:10.105892] [53] HEARTBEAT
[17:29:10.323876] [183] RADIO
[17:29:10.326844] [183] RADIO_STATUS
[17:29:10.674923] [54] VFR_HUD
[17:29:11.039053] [55] HEARTBEAT
[17:29:11.047082] [56] ATTITUDE_TARGET
[17:29:11.243017] [184] RADIO
[17:29:11.246067] [184] RADIO_STATUS
[17:29:11.489011] [57] VFR_HUD
[17:29:12.283180] [59] VFR_HUD
[17:29:12.316124] [185] RADIO
[17:29:12.319093] [185] RADIO_STATUS
[17:29:13.106365] [60] HEARTBEAT
[17:29:13.112305] [61] SYS_STATUS
[17:29:13.152358] [62] BATTERY_STATUS
[17:29:13.160299] [63] ATTITUDE_TARGET
[17:29:13.165361] [64] VFR_HUD
[17:29:13.314325] [186] RADIO
[17:29:13.317311] [186] RADIO_STATUS
[17:29:14.025471] [65] VFR_HUD
[17:29:14.028431] [66] HEARTBEAT
[17:29:14.463746] [187] RADIO
[17:29:14.466565] [187] RADIO_STATUS
[17:29:14.709613] [67] VFR_HUD
[17:29:15.053685] [68] HEARTBEAT
[17:29:15.060611] [69] ATTITUDE_TARGET
[17:29:15.273679] [188] RADIO
[17:29:15.276619] [188] RADIO_STATUS
[17:29:16.084884] [71] HEARTBEAT
[17:29:16.302789] [189] RADIO
[17:29:16.305827] [189] RADIO_STATUS
[17:29:16.423882] [72] VFR_HUD
[17:29:17.010945] [73] HEARTBEAT
[17:29:17.018027] [74] SYS_STATUS
[17:29:17.135982] [75] BATTERY_STATUS
[17:29:17.144014] [76] ATTITUDE_TARGET
[17:29:17.173965] [77] VFR_HUD
[17:29:17.341980] [190] RADIO
[17:29:17.344957] [190] RADIO_STATUS
[17:29:18.028135] [79] HEARTBEAT
[17:29:18.262110] [191] RADIO
[17:29:18.264143] [191] RADIO_STATUS
[17:29:18.617173] [80] VFR_HUD
[17:29:19.081295] [81] HEARTBEAT
[17:29:19.089228] [82] ATTITUDE_TARGET
[17:29:19.291326] [192] RADIO
[17:29:19.294338] [192] RADIO_STATUS
[17:29:19.411352] [83] VFR_HUD
[17:29:19.987415] [84] HEARTBEAT
[17:29:20.226432] [85] VFR_HUD
[17:29:20.342514] [193] RADIO
[17:29:20.344484] [193] RADIO_STATUS
[17:29:21.028689] [86] HEARTBEAT
[17:29:21.035629] [87] SYS_STATUS
[17:29:21.149620] [88] BATTERY_STATUS
[17:29:21.359618] [194] RADIO
[17:29:21.362603] [194] RADIO_STATUS
[17:29:21.414642] [89] ATTITUDE_TARGET
[17:29:21.419589] [90] VFR_HUD
[17:29:21.835741] [91] VFR_HUD
[17:29:22.055876] [92] HEARTBEAT
[17:29:22.279776] [195] RADIO
[17:29:22.282709] [195] RADIO_STATUS
[17:29:22.641843] [93] VFR_HUD
[17:29:23.098901] [94] HEARTBEAT
[17:29:23.107132] [95] ATTITUDE_TARGET
[17:29:23.318946] [196] RADIO
[17:29:23.321882] [196] RADIO_STATUS
[17:29:23.440867] [96] VFR_HUD
[17:29:24.005201] [97] HEARTBEAT
[17:29:24.239139] [98] VFR_HUD
[17:29:24.348130] [197] RADIO
[17:29:24.351071] [197] RADIO_STATUS
[17:29:25.056208] [99] HEARTBEAT
[17:29:25.065259] [100] SYS_STATUS
[17:29:25.182301] [101] BATTERY_STATUS
[17:29:25.190307] [102] ATTITUDE_TARGET
[17:29:25.220297] [103] VFR_HUD
[17:29:25.388254] [198] RADIO
[17:29:25.391253] [198] RADIO_STATUS
[17:29:26.074465] [105] HEARTBEAT
[17:29:26.308384] [199] RADIO
[17:29:26.311341] [199] RADIO_STATUS
[17:29:26.658430] [106] VFR_HUD
[17:29:27.126667] [107] HEARTBEAT
[17:29:27.134634] [108] ATTITUDE_TARGET
[17:29:27.337675] [200] RADIO
[17:29:27.340626] [200] RADIO_STATUS
[17:29:27.458681] [109] VFR_HUD
[17:29:28.033750] [110] HEARTBEAT
[17:29:28.267702] [111] VFR_HUD
[17:29:28.376760] [201] RADIO
[17:29:28.380412] [201] RADIO_STATUS
[17:29:29.074871] [112] HEARTBEAT
[17:29:29.081812] [113] SYS_STATUS
[17:29:29.199893] [114] BATTERY_STATUS
[17:29:29.201814] [115] EXTENDED_SYS_STATE
[17:29:29.406928] [202] RADIO
[17:29:29.409913] [202] RADIO_STATUS
[17:29:29.882014] [119] VFR_HUD
[17:29:29.993953] [120] HEARTBEAT
[17:29:30.326020] [203] RADIO
[17:29:30.329021] [203] RADIO_STATUS
[17:29:30.688219] [121] VFR_HUD
[17:29:31.041170] [122] HEARTBEAT
[17:29:31.049160] [123] ATTITUDE_TARGET
[17:29:31.371326] [204] RADIO
[17:29:31.374159] [204] RADIO_STATUS
[17:29:31.491243] [124] VFR_HUD
[17:29:32.051360] [125] HEARTBEAT
[17:29:32.288229] [126] VFR_HUD
[17:29:32.395408] [205] RADIO
[17:29:32.398418] [205] RADIO_STATUS
[17:29:33.108738] [127] HEARTBEAT
[17:29:33.114538] [128] SYS_STATUS
[17:29:33.154720] [129] BATTERY_STATUS
[17:29:33.162581] [130] ATTITUDE_TARGET
[17:29:33.167501] [131] VFR_HUD
[17:29:33.438541] [206] RADIO
[17:29:33.440650] [206] RADIO_STATUS
[17:29:34.025627] [132] VFR_HUD
[17:29:34.028642] [133] HEARTBEAT
[17:29:34.359666] [207] RADIO
[17:29:34.362650] [207] RADIO_STATUS
[17:29:34.704672] [134] VFR_HUD
[17:29:35.178803] [135] HEARTBEAT
[17:29:35.186837] [136] ATTITUDE_TARGET
[17:29:35.383835] [208] RADIO
[17:29:35.386773] [208] RADIO_STATUS
[17:29:35.504812] [137] VFR_HUD
[17:29:36.085107] [138] HEARTBEAT
[17:29:36.314205] [139] VFR_HUD
[17:29:36.428026] [209] RADIO
[17:29:36.431069] [209] RADIO_STATUS
[17:29:37.016112] [140] HEARTBEAT
[17:29:37.023066] [141] SYS_STATUS
[17:29:37.063185] [142] BATTERY_STATUS
[17:29:37.070106] [143] ATTITUDE_TARGET
[17:29:37.075114] [144] VFR_HUD
[17:29:37.453098] [210] RADIO
[17:29:37.455272] [210] RADIO_STATUS
[17:29:38.039215] [145] VFR_HUD
[17:29:38.042205] [146] HEARTBEAT
[17:29:38.372275] [211] RADIO
[17:29:38.375200] [211] RADIO_STATUS
[17:29:38.618459] [147] VFR_HUD
[17:29:39.086685] [148] HEARTBEAT
[17:29:39.094729] [149] ATTITUDE_TARGET
[17:29:39.412547] [150] VFR_HUD
[17:29:39.444599] [212] RADIO
[17:29:39.447519] [212] RADIO_STATUS
[17:29:39.987661] [151] HEARTBEAT
[17:29:40.226647] [152] VFR_HUD
[17:29:40.440621] [213] RADIO
[17:29:40.443567] [213] RADIO_STATUS
[17:29:41.155821] [155] BATTERY_STATUS
[17:29:41.267793] [156] ATTITUDE_TARGET
[17:29:41.272745] [157] VFR_HUD
[17:29:41.485787] [214] RADIO
[17:29:41.488750] [214] RADIO_STATUS
[17:29:41.830808] [158] VFR_HUD
[17:29:42.055851] [159] HEARTBEAT
[17:29:42.399937] [215] RADIO
[17:29:42.402906] [215] RADIO_STATUS
[17:29:42.630957] [160] VFR_HUD
[17:29:43.224234] [161] HEARTBEAT
[17:29:43.232291] [162] ATTITUDE_TARGET
[17:29:43.429192] [216] RADIO
[17:29:43.432028] [216] RADIO_STATUS
[17:29:43.550127] [163] VFR_HUD
[17:29:44.005266] [164] HEARTBEAT
[17:29:44.476352] [217] RADIO
[17:29:44.477167] [217] RADIO_STATUS
[17:29:45.057509] [166] HEARTBEAT
[17:29:45.063353] [167] SYS_STATUS
[17:29:45.182318] [168] BATTERY_STATUS
[17:29:45.190323] [169] ATTITUDE_TARGET
[17:29:45.220282] [170] VFR_HUD
[17:29:45.498394] [218] RADIO
[17:29:45.501380] [218] RADIO_STATUS
[17:29:45.848428] [171] VFR_HUD
[17:29:46.074528] [172] HEARTBEAT
[17:29:46.417538] [219] RADIO
[17:29:46.420672] [219] RADIO_STATUS
[17:29:46.658635] [173] VFR_HUD
[17:29:47.007620] [174] HEARTBEAT
[17:29:47.015607] [175] ATTITUDE_TARGET
[17:29:47.457896] [176] VFR_HUD
[17:29:47.484692] [220] RADIO
[17:29:47.487693] [220] RADIO_STATUS
[17:29:48.032744] [177] HEARTBEAT
[17:29:48.272766] [178] VFR_HUD
[17:29:48.494862] [221] RADIO
[17:29:48.497801] [221] RADIO_STATUS
[17:29:49.199211] [181] BATTERY_STATUS
[17:29:49.200984] [182] EXTENDED_SYS_STATE
[17:29:49.319932] [183] ATTITUDE_TARGET
[17:29:49.324944] [184] VFR_HUD
[17:29:49.328954] [185] SYSTEM_TIME
[17:29:49.405958] [222] RADIO
[17:29:49.408871] [222] RADIO_STATUS
[17:29:49.882116] [186] VFR_HUD
[17:29:50.446103] [223] RADIO
[17:29:50.449082] [223] RADIO_STATUS
[17:29:50.676188] [188] VFR_HUD
[17:29:51.035430] [189] HEARTBEAT
[17:29:51.043208] [190] ATTITUDE_TARGET
[17:29:51.475318] [224] RADIO
[17:29:51.478342] [224] RADIO_STATUS
[17:29:51.514311] [191] VFR_HUD
[17:29:52.051372] [192] HEARTBEAT
[17:29:52.515404] [225] RADIO
[17:29:52.517407] [225] RADIO_STATUS
[17:29:53.102575] [194] HEARTBEAT
[17:29:53.109570] [195] SYS_STATUS
[17:29:53.228523] [196] BATTERY_STATUS
[17:29:53.236968] [197] ATTITUDE_TARGET
[17:29:53.266637] [198] VFR_HUD
[17:29:53.544617] [226] RADIO
[17:29:53.547602] [226] RADIO_STATUS
[17:29:53.895618] [199] VFR_HUD
[17:29:54.015616] [200] HEARTBEAT
[17:29:54.463664] [227] RADIO
[17:29:54.466686] [227] RADIO_STATUS
[17:29:54.704702] [201] VFR_HUD
[17:29:55.053776] [202] HEARTBEAT
[17:29:55.061836] [203] ATTITUDE_TARGET
[17:29:55.399819] [204] VFR_HUD
[17:29:55.517840] [228] RADIO
[17:29:55.518085] [228] RADIO_STATUS
[17:29:56.084974] [205] HEARTBEAT
[17:29:56.314052] [206] VFR_HUD
[17:29:56.533147] [229] RADIO
[17:29:56.536025] [229] RADIO_STATUS
[17:29:57.016202] [207] HEARTBEAT
[17:29:57.023066] [208] SYS_STATUS
[17:29:57.062134] [209] BATTERY_STATUS
[17:29:57.070132] [210] ATTITUDE_TARGET
[17:29:57.075125] [211] VFR_HUD
[17:29:57.452192] [230] RADIO
[17:29:57.455282] [230] RADIO_STATUS
[17:29:57.803254] [212] VFR_HUD
[17:29:58.497401] [231] RADIO
[17:29:58.500367] [231] RADIO_STATUS
[17:29:58.617438] [214] VFR_HUD
[17:29:59.086473] [215] HEARTBEAT
[17:29:59.094437] [216] ATTITUDE_TARGET
[17:29:59.423478] [217] VFR_HUD
[17:29:59.520548] [232] RADIO
[17:29:59.523463] [232] RADIO_STATUS
[17:29:59.991593] [218] HEARTBEAT
[17:30:00.221653] [219] VFR_HUD
[17:30:00.670666] [233] RADIO
[17:30:00.672629] [233] RADIO_STATUS
[17:30:01.028727] [220] HEARTBEAT
[17:30:01.035678] [221] SYS_STATUS
[17:30:01.154708] [222] BATTERY_STATUS
[17:30:01.267746] [223] ATTITUDE_TARGET
[17:30:01.272727] [224] VFR_HUD
[17:30:01.589784] [234] RADIO
[17:30:01.592715] [234] RADIO_STATUS
[17:30:01.830814] [225] VFR_HUD
[17:30:02.060828] [226] HEARTBEAT
[17:30:02.508977] [235] RADIO
[17:30:02.511914] [235] RADIO_STATUS
[17:30:03.099107] [228] HEARTBEAT
[17:30:03.107020] [229] ATTITUDE_TARGET
[17:30:03.549113] [230] VFR_HUD
[17:30:03.581139] [236] RADIO
[17:30:03.584237] [236] RADIO_STATUS
[17:30:04.004137] [231] HEARTBEAT
[17:30:04.239204] [232] VFR_HUD
[17:30:04.473202] [237] RADIO
[17:30:04.476146] [237] RADIO_STATUS
[17:30:05.056356] [233] HEARTBEAT
[17:30:05.062322] [234] SYS_STATUS
[17:30:05.219376] [237] VFR_HUD
[17:30:05.497398] [238] RADIO
[17:30:05.500413] [238] RADIO_STATUS
[17:30:05.847500] [238] VFR_HUD
[17:30:06.541559] [239] RADIO
[17:30:06.544497] [239] RADIO_STATUS
[17:30:06.662722] [240] VFR_HUD
[17:30:06.992618] [241] HEARTBEAT
[17:30:07.014609] [242] ATTITUDE_TARGET
[17:30:07.467676] [243] VFR_HUD
[17:30:07.483674] [240] RADIO
