[17:07:23.148154] [24] HEARTBEAT
[17:07:23.156133] [25] ATTITUDE_TARGET
[17:07:23.473203] [26] VFR_HUD
[17:07:24.042287] [164] RADIO
[17:07:24.045290] [164] RADIO_STATUS
[17:07:24.076413] [27] HEARTBEAT
[17:07:24.283408] [28] VFR_HUD
[17:07:24.962425] [165] RADIO
[17:07:24.965354] [165] RADIO_STATUS
[17:07:25.090425] [29] HEARTBEAT
[17:07:25.097427] [30] SYS_STATUS
[17:07:25.216443] [31] BATTERY_STATUS
[17:07:25.329553] [32] ATTITUDE_TARGET
[17:07:25.334492] [33] VFR_HUD
[17:07:25.892569] [34] VFR_HUD
[17:07:26.001674] [166] RADIO
[17:07:26.004605] [166] RADIO_STATUS
[17:07:26.122770] [35] HEARTBEAT
[17:07:26.691829] [36] VFR_HUD
[17:07:27.031893] [167] RADIO
[17:07:27.033807] [167] RADIO_STATUS
[17:07:27.160809] [37] HEARTBEAT
[17:07:27.168911] [38] ATTITUDE_TARGET
[17:07:27.501870] [39] VFR_HUD
[17:07:28.066956] [40] HEARTBEAT
[17:07:28.098947] [168] RADIO
[17:07:28.101876] [168] RADIO_STATUS
[17:07:28.301097] [41] VFR_HUD
[17:07:28.990624] [169] RADIO
[17:07:28.993179] [169] RADIO_STATUS
[17:07:29.119463] [42] HEARTBEAT
[17:07:29.125265] [43] SYS_STATUS
[17:07:29.247289] [44] BATTERY_STATUS
[17:07:29.249208] [45] EXTENDED_SYS_STATE
[17:07:29.256301] [46] ATTITUDE_TARGET
[17:07:29.261277] [47] VFR_HUD
[17:07:29.269932] [48] SYSTEM_TIME
[17:07:29.911319] [49] VFR_HUD
[17:07:30.020224] [170] RADIO
[17:07:30.023301] [170] RADIO_STATUS
[17:07:30.136301] [50] HEARTBEAT
[17:07:30.725461] [51] VFR_HUD
[17:07:31.056417] [52] HEARTBEAT
[17:07:31.078581] [53] ATTITUDE_TARGET
[17:07:31.087372] [171] RADIO
[17:07:31.090353] [171] RADIO_STATUS
[17:07:31.520592] [54] VFR_HUD
[17:07:32.089616] [172] RADIO
[17:07:32.092521] [172] RADIO_STATUS
[17:07:32.205553] [55] HEARTBEAT
[17:07:32.439568] [56] VFR_HUD
[17:07:33.025722] [173] RADIO
[17:07:33.027648] [173] RADIO_STATUS
[17:07:33.042809] [57] HEARTBEAT
[17:07:33.062787] [58] SYS_STATUS
[17:07:33.094683] [59] BATTERY_STATUS
[17:07:33.102727] [60] ATTITUDE_TARGET
[17:07:33.161651] [61] VFR_HUD
[17:07:33.943865] [62] VFR_HUD
[17:07:34.055892] [63] HEARTBEAT
[17:07:34.080905] [174] RADIO
[17:07:34.084109] [174] RADIO_STATUS
[17:07:34.737941] [64] VFR_HUD
[17:07:35.076984] [175] RADIO
[17:07:35.079973] [175] RADIO_STATUS
[17:07:35.207042] [65] HEARTBEAT
[17:07:35.215056] [66] ATTITUDE_TARGET
[17:07:35.548127] [67] VFR_HUD
[17:07:36.113222] [68] HEARTBEAT
[17:07:36.227225] [176] RADIO
[17:07:36.230183] [176] RADIO_STATUS
[17:07:36.347228] [69] VFR_HUD
[17:07:37.036308] [177] RADIO
[17:07:37.041619] [177] RADIO_STATUS
[17:07:37.164390] [70] HEARTBEAT
[17:07:37.171396] [71] SYS_STATUS
[17:07:37.290503] [72] BATTERY_STATUS
[17:07:37.297389] [73] ATTITUDE_TARGET
[17:07:37.328453] [74] VFR_HUD
[17:07:37.956482] [75] VFR_HUD
[17:07:38.066432] [178] RADIO
[17:07:38.069454] [178] RADIO_STATUS
[17:07:38.182543] [76] HEARTBEAT
[17:07:38.766582] [77] VFR_HUD
[17:07:39.115662] [78] HEARTBEAT
[17:07:39.123636] [79] ATTITUDE_TARGET
[17:07:39.215672] [179] RADIO
[17:07:39.218632] [179] RADIO_STATUS
[17:07:39.461686] [80] VFR_HUD
[17:07:40.134772] [180] RADIO
[17:07:40.137760] [180] RADIO_STATUS
[17:07:40.259877] [81] HEARTBEAT
[17:07:40.263830] [82] VFR_HUD
[17:07:41.055015] [181] RADIO
[17:07:41.058257] [181] RADIO_STATUS
[17:07:41.114017] [83] HEARTBEAT
[17:07:41.121023] [84] SYS_STATUS
[17:07:41.128999] [85] BATTERY_STATUS
[17:07:41.140984] [86] ATTITUDE_TARGET
[17:07:41.146039] [87] VFR_HUD
[17:07:41.865118] [88] VFR_HUD
[17:07:42.090193] [89] HEARTBEAT
[17:07:42.204211] [182] RADIO
[17:07:42.207185] [182] RADIO_STATUS
[17:07:43.123348] [183] RADIO
[17:07:43.126292] [183] RADIO_STATUS
[17:07:43.171404] [91] HEARTBEAT
[17:07:43.179321] [92] ATTITUDE_TARGET
[17:07:43.474366] [93] VFR_HUD
[17:07:44.054490] [94] HEARTBEAT
[17:07:44.163469] [184] RADIO
[17:07:44.166430] [184] RADIO_STATUS
[17:07:44.284626] [95] VFR_HUD
[17:07:45.091690] [96] HEARTBEAT
[17:07:45.097653] [97] SYS_STATUS
[17:07:45.110652] [185] RADIO
[17:07:45.113627] [185] RADIO_STATUS
[17:07:45.212663] [98] BATTERY_STATUS
[17:07:45.330705] [99] ATTITUDE_TARGET
[17:07:45.334633] [100] VFR_HUD
[17:07:45.599099] JAMMING_START
[17:07:45.893004] [101] VFR_HUD
[17:07:46.111836] [186] RADIO
[17:07:46.114825] [186] RADIO_STATUS
[17:07:46.692990] [103] VFR_HUD
[17:07:47.161995] [104] HEARTBEAT
[17:07:47.169986] [105] ATTITUDE_TARGET
[17:07:47.179944] [187] RADIO
[17:07:47.182942] [187] RADIO_STATUS
[17:07:47.503001] [106] VFR_HUD
[17:07:48.068146] [107] HEARTBEAT
[17:07:48.099116] [188] RADIO
[17:07:48.102097] [188] RADIO_STATUS
[17:07:48.302129] [108] VFR_HUD
[17:07:49.101229] [189] RADIO
[17:07:49.104176] [189] RADIO_STATUS
[17:07:49.164353] [109] HEARTBEAT
[17:07:49.171303] [110] SYS_STATUS
[17:07:49.179288] [111] BATTERY_STATUS
[17:07:49.180189] [112] EXTENDED_SYS_STATE
[17:07:49.197252] [113] ATTITUDE_TARGET
[17:07:49.202191] [114] VFR_HUD
[17:07:49.206272] [115] SYSTEM_TIME
[17:07:49.911658] [116] VFR_HUD
[17:07:50.136505] [117] HEARTBEAT
[17:07:50.168412] [190] RADIO
[17:07:50.171832] [190] RADIO_STATUS
[17:07:50.830500] [118] VFR_HUD
[17:07:51.056575] [119] HEARTBEAT
[17:07:51.078560] [120] ATTITUDE_TARGET
[17:07:51.109514] [191] RADIO
[17:07:51.112511] [191] RADIO_STATUS
[17:07:51.520644] [121] VFR_HUD
[17:07:52.095872] [122] HEARTBEAT
[17:07:52.214781] [192] RADIO
[17:07:52.217886] [192] RADIO_STATUS
[17:07:52.335810] [123] VFR_HUD
[17:07:53.136924] [124] HEARTBEAT
[17:07:53.143857] [125] SYS_STATUS
[17:07:53.156874] [193] RADIO
[17:07:53.159904] [193] RADIO_STATUS
[17:07:53.263923] [126] BATTERY_STATUS
[17:07:53.375913] [127] ATTITUDE_TARGET
[17:07:53.380930] [128] VFR_HUD
[17:07:53.938995] [129] VFR_HUD
[17:07:54.045030] [130] HEARTBEAT
[17:07:54.159051] [194] RADIO
[17:07:54.160979] [194] RADIO_STATUS
[17:07:54.739114] [131] VFR_HUD
[17:07:55.098158] [132] HEARTBEAT
[17:07:55.106151] [133] ATTITUDE_TARGET
[17:07:55.226107] [195] RADIO
[17:07:55.229158] [195] RADIO_STATUS
[17:07:55.549180] [134] VFR_HUD
[17:07:56.114300] [135] HEARTBEAT
[17:07:56.228330] [196] RADIO
[17:07:56.231344] [196] RADIO_STATUS
[17:07:56.266485] [136] VFR_HUD
[17:07:57.147414] [197] RADIO
[17:07:57.150382] [197] RADIO_STATUS
[17:07:57.275544] [137] HEARTBEAT
[17:07:57.282419] [138] SYS_STATUS
[17:07:57.402474] [139] BATTERY_STATUS
[17:07:57.514493] [140] ATTITUDE_TARGET
[17:07:57.519458] [141] VFR_HUD
[17:07:57.957623] [142] VFR_HUD
[17:07:58.073569] [143] HEARTBEAT
[17:07:58.187668] [198] RADIO
[17:07:58.189640] [198] RADIO_STATUS
[17:07:58.878329] [144] VFR_HUD
[17:07:59.116735] [145] HEARTBEAT
[17:07:59.124714] [146] ATTITUDE_TARGET
[17:07:59.217101] [199] RADIO
[17:07:59.219683] [199] RADIO_STATUS
[17:07:59.462780] [147] VFR_HUD
[17:08:00.137075] [200] RADIO
[17:08:00.139811] [200] RADIO_STATUS
[17:08:00.260920] [148] HEARTBEAT
[17:08:00.265889] [149] VFR_HUD
[17:08:01.201801] [152] BATTERY_STATUS
[17:08:01.207013] [153] ATTITUDE_TARGET
[17:08:01.238008] [154] VFR_HUD
[17:08:01.260044] [201] RADIO
[17:08:01.263025] [201] RADIO_STATUS
[17:08:01.866158] [155] VFR_HUD
[17:08:02.092178] [156] HEARTBEAT
[17:08:02.205831] [202] RADIO
[17:08:02.208193] [202] RADIO_STATUS
[17:08:02.676244] [157] VFR_HUD
[17:08:03.145396] [158] HEARTBEAT
[17:08:03.152360] [159] ATTITUDE_TARGET
[17:08:03.354332] [203] RADIO
[17:08:03.357534] [203] RADIO_STATUS
[17:08:03.475366] [160] VFR_HUD
[17:08:04.056528] [161] HEARTBEAT
[17:08:04.164488] [204] RADIO
[17:08:04.167450] [204] RADIO_STATUS
[17:08:04.285485] [162] VFR_HUD
[17:08:05.092647] [163] HEARTBEAT
[17:08:05.099619] [164] SYS_STATUS
[17:08:05.194672] [205] RADIO
[17:08:05.197726] [205] RADIO_STATUS
[17:08:05.234622] [165] BATTERY_STATUS
[17:08:05.261950] [166] ATTITUDE_TARGET
[17:08:05.266599] [167] VFR_HUD
[17:08:05.894718] [168] VFR_HUD
[17:08:06.125826] [169] HEARTBEAT
[17:08:06.233779] [206] RADIO
[17:08:06.236781] [206] RADIO_STATUS
[17:08:06.694908] [170] VFR_HUD
[17:08:07.044958] [171] HEARTBEAT
[17:08:07.162909] [172] ATTITUDE_TARGET
[17:08:07.262929] [207] RADIO
[17:08:07.265934] [207] RADIO_STATUS
[17:08:07.508998] [173] VFR_HUD
[17:08:08.069175] [174] HEARTBEAT
[17:08:08.182138] [208] RADIO
[17:08:08.185073] [208] RADIO_STATUS
[17:08:08.303143] [175] VFR_HUD
[17:08:09.227247] [209] RADIO
[17:08:09.230252] [209] RADIO_STATUS
[17:08:09.912397] [183] VFR_HUD
[17:08:10.138426] [184] HEARTBEAT
[17:08:10.169415] [210] RADIO
[17:08:10.172418] [210] RADIO_STATUS
[17:08:10.727475] [185] VFR_HUD
[17:08:11.071581] [186] HEARTBEAT
[17:08:11.079592] [187] ATTITUDE_TARGET
[17:08:11.171605] [211] RADIO
[17:08:11.174626] [211] RADIO_STATUS
[17:08:11.521671] [188] VFR_HUD
[17:08:12.102807] [189] HEARTBEAT
[17:08:12.215684] [212] RADIO
[17:08:12.218644] [212] RADIO_STATUS
[17:08:12.333768] [190] VFR_HUD
[17:08:13.138848] [191] HEARTBEAT
[17:08:13.145927] [192] SYS_STATUS
[17:08:13.240870] [213] RADIO
[17:08:13.243890] [213] RADIO_STATUS
[17:08:13.309898] [193] BATTERY_STATUS
[17:08:13.317908] [194] ATTITUDE_TARGET
[17:08:13.322877] [195] VFR_HUD
[17:08:14.056999] [196] VFR_HUD
[17:08:14.059971] [197] HEARTBEAT
[17:08:14.286024] [214] RADIO
[17:08:14.288938] [214] RADIO_STATUS
[17:08:14.741039] [198] VFR_HUD
[17:08:15.100152] [199] HEARTBEAT
[17:08:15.108143] [200] ATTITUDE_TARGET
[17:08:15.228147] [215] RADIO
[17:08:15.231112] [215] RADIO_STATUS
[17:08:15.551176] [201] VFR_HUD
[17:08:16.116315] [202] HEARTBEAT
[17:08:16.229282] [216] RADIO
[17:08:16.232263] [216] RADIO_STATUS
[17:08:16.268340] [203] VFR_HUD
[17:08:17.274568] [217] RADIO
[17:08:17.277484] [217] RADIO_STATUS
[17:08:18.085689] [209] VFR_HUD
[17:08:18.088646] [210] HEARTBEAT
[17:08:18.298644] [218] RADIO
[17:08:18.301607] [218] RADIO_STATUS
[17:08:18.774845] [211] VFR_HUD
[17:08:19.118792] [212] HEARTBEAT
[17:08:19.126752] [213] ATTITUDE_TARGET
[17:08:19.218768] [219] RADIO
[17:08:19.221804] [219] RADIO_STATUS
[17:08:19.470963] [214] VFR_HUD
[17:08:20.144042] [215] HEARTBEAT
[17:08:20.258989] [216] VFR_HUD
[17:08:20.290970] [220] RADIO
[17:08:20.293930] [220] RADIO_STATUS
[17:08:21.076188] [217] HEARTBEAT
[17:08:21.083139] [218] SYS_STATUS
[17:08:21.201169] [219] BATTERY_STATUS
[17:08:21.209122] [220] ATTITUDE_TARGET
[17:08:21.239325] [221] VFR_HUD
[17:08:21.262101] [221] RADIO
[17:08:21.265089] [221] RADIO_STATUS
[17:08:21.868222] [222] VFR_HUD
[17:08:22.093260] [223] HEARTBEAT
[17:08:22.332328] [222] RADIO
[17:08:22.335264] [222] RADIO_STATUS
[17:08:22.677579] [224] VFR_HUD
[17:08:23.146439] [225] HEARTBEAT
[17:08:23.154435] [226] ATTITUDE_TARGET
[17:08:23.356504] [223] RADIO
[17:08:23.359552] [223] RADIO_STATUS
[17:08:23.477505] [227] VFR_HUD
[17:08:24.052578] [228] HEARTBEAT
[17:08:24.276621] [224] RADIO
[17:08:24.279586] [224] RADIO_STATUS
[17:08:24.314608] [229] VFR_HUD
[17:08:25.093714] [230] HEARTBEAT
[17:08:25.100726] [231] SYS_STATUS
[17:08:25.332783] [233] ATTITUDE_TARGET
[17:08:25.337720] [234] VFR_HUD
[17:08:25.343709] [225] RADIO
[17:08:25.346870] [225] RADIO_STATUS
[17:08:25.901831] [235] VFR_HUD
[17:08:26.121833] [236] HEARTBEAT
[17:08:26.344852] [226] RADIO
[17:08:26.347857] [226] RADIO_STATUS
[17:08:26.695957] [237] VFR_HUD
[17:08:27.047017] [238] HEARTBEAT
[17:08:27.164029] [239] ATTITUDE_TARGET
[17:08:27.265002] [227] RADIO
[17:08:27.267981] [227] RADIO_STATUS
[17:08:27.615123] [240] VFR_HUD
[17:08:28.070148] [241] HEARTBEAT
[17:08:28.305257] [242] VFR_HUD
[17:08:28.332229] [228] RADIO
[17:08:28.335170] [228] RADIO_STATUS
[17:08:29.129828] [243] HEARTBEAT
[17:08:29.133350] [244] SYS_STATUS
[17:08:29.168298] [245] BATTERY_STATUS
[17:08:29.170338] [246] EXTENDED_SYS_STATE
[17:08:29.177365] [247] ATTITUDE_TARGET
[17:08:29.182319] [248] VFR_HUD
[17:08:29.186349] [249] SYSTEM_TIME
[17:08:29.333314] [229] RADIO
[17:08:29.336300] [229] RADIO_STATUS
[17:08:29.913452] [250] VFR_HUD
[17:08:30.139450] [251] HEARTBEAT
[17:08:30.373451] [230] RADIO
[17:08:30.375436] [230] RADIO_STATUS
[17:08:30.723568] [252] VFR_HUD
[17:08:31.072620] [253] HEARTBEAT
[17:08:31.080599] [254] ATTITUDE_TARGET
[17:08:31.292648] [231] RADIO
[17:08:31.295616] [231] RADIO_STATUS
[17:08:31.523680] [255] VFR_HUD
[17:08:32.103737] [0] HEARTBEAT
[17:08:32.321804] [232] RADIO
[17:08:32.324776] [232] RADIO_STATUS
[17:08:32.442957] [1] VFR_HUD
[17:08:33.139954] [2] HEARTBEAT
[17:08:33.146944] [3] SYS_STATUS
[17:08:33.379046] [5] ATTITUDE_TARGET
[17:08:33.384061] [6] VFR_HUD
[17:08:33.390072] [233] RADIO
[17:08:33.393958] [233] RADIO_STATUS
[17:08:33.942056] [7] VFR_HUD
[17:08:34.048106] [8] HEARTBEAT
[17:08:34.281271] [234] RADIO
[17:08:34.284165] [234] RADIO_STATUS
[17:08:34.742113] [9] VFR_HUD
[17:08:35.106336] [10] HEARTBEAT
[17:08:35.114242] [11] ATTITUDE_TARGET
[17:08:35.311344] [235] RADIO
[17:08:35.314215] [235] RADIO_STATUS
[17:08:35.557289] [12] VFR_HUD
[17:08:36.117403] [13] HEARTBEAT
[17:08:36.351458] [14] VFR_HUD
[17:08:36.378412] [236] RADIO
[17:08:36.381384] [236] RADIO_STATUS
[17:08:37.173637] [15] HEARTBEAT
[17:08:37.180508] [16] SYS_STATUS
[17:08:37.220580] [17] BATTERY_STATUS
[17:08:37.227515] [18] ATTITUDE_TARGET
[17:08:37.232468] [19] VFR_HUD
[17:08:37.380544] [237] RADIO
[17:08:37.382507] [237] RADIO_STATUS
[17:08:38.085683] [20] VFR_HUD
[17:08:38.088598] [21] HEARTBEAT
[17:08:38.299678] [238] RADIO
[17:08:38.302593] [238] RADIO_STATUS
[17:08:38.775741] [22] VFR_HUD
[17:08:39.119783] [23] HEARTBEAT
[17:08:39.127825] [24] ATTITUDE_TARGET
[17:08:39.344867] [239] RADIO
[17:08:39.347846] [239] RADIO_STATUS
[17:08:39.459899] [25] VFR_HUD
[17:08:40.150071] [26] HEARTBEAT
[17:08:40.259985] [27] VFR_HUD
[17:08:40.368978] [240] RADIO
[17:08:40.371981] [240] RADIO_STATUS
[17:08:41.077188] [28] HEARTBEAT
[17:08:41.084158] [29] SYS_STATUS
[17:08:41.202139] [30] BATTERY_STATUS
[17:08:41.210165] [31] ATTITUDE_TARGET
[17:08:41.240152] [32] VFR_HUD
[17:08:41.408202] [241] RADIO
[17:08:41.413055] [241] RADIO_STATUS
[17:08:41.869266] [33] VFR_HUD
[17:08:42.094535] [34] HEARTBEAT
[17:08:42.333313] [242] RADIO
[17:08:42.336445] [242] RADIO_STATUS
[17:08:42.678408] [35] VFR_HUD
[17:08:43.148421] [36] HEARTBEAT
[17:08:43.155424] [37] ATTITUDE_TARGET
[17:08:43.357431] [243] RADIO
[17:08:43.360367] [243] RADIO_STATUS
[17:08:43.478750] [38] VFR_HUD
[17:08:44.053608] [39] HEARTBEAT
[17:08:44.293529] [40] VFR_HUD
[17:08:44.414677] [244] RADIO
[17:08:44.417741] [244] RADIO_STATUS
[17:08:45.095738] [41] HEARTBEAT
[17:08:45.101739] [42] SYS_STATUS
[17:08:45.216704] [43] BATTERY_STATUS
[17:08:45.334715] [44] ATTITUDE_TARGET
[17:08:45.338720] [45] VFR_HUD
[17:08:45.372690] [245] RADIO
[17:08:45.375677] [245] RADIO_STATUS
[17:08:46.006814] [46] VFR_HUD
[17:08:46.122891] [47] HEARTBEAT
[17:08:46.346902] [246] RADIO
[17:08:46.349852] [246] RADIO_STATUS
[17:08:46.696979] [48] VFR_HUD
[17:08:47.391036] [247] RADIO
[17:08:47.394215] [247] RADIO_STATUS
[17:08:47.512112] [51] VFR_HUD
[17:08:48.072188] [52] HEARTBEAT
[17:08:48.306186] [53] VFR_HUD
[17:08:48.415249] [248] RADIO
[17:08:48.418193] [248] RADIO_STATUS
[17:08:49.123376] [54] HEARTBEAT
[17:08:49.130379] [55] SYS_STATUS
[17:08:49.251366] [56] BATTERY_STATUS
[17:08:49.253301] [57] EXTENDED_SYS_STATE
[17:08:49.261372] [58] ATTITUDE_TARGET
[17:08:49.266359] [59] VFR_HUD
[17:08:49.269565] [60] SYSTEM_TIME
[17:08:49.460370] [249] RADIO
[17:08:49.465805] [249] RADIO_STATUS
[17:08:49.915440] [61] VFR_HUD
[17:08:50.140605] [62] HEARTBEAT
[17:08:50.374518] [250] RADIO
[17:08:50.377528] [250] RADIO_STATUS
[17:08:50.725646] [63] VFR_HUD
[17:08:51.074726] [64] HEARTBEAT
[17:08:51.082858] [65] ATTITUDE_TARGET
[17:08:51.403728] [251] RADIO
[17:08:51.406736] [251] RADIO_STATUS
[17:08:51.524737] [66] VFR_HUD
[17:08:52.105808] [67] HEARTBEAT
[17:08:52.334904] [68] VFR_HUD
[17:08:52.443860] [252] RADIO
[17:08:52.446828] [252] RADIO_STATUS
[17:08:53.141979] [69] HEARTBEAT
[17:08:53.148973] [70] SYS_STATUS
[17:08:53.263171] [71] BATTERY_STATUS
[17:08:53.381051] [72] ATTITUDE_TARGET
[17:08:53.385997] [73] VFR_HUD
[17:08:53.390984] [253] RADIO
[17:08:53.393992] [253] RADIO_STATUS
[17:08:54.054170] [74] VFR_HUD
[17:08:54.061803] [75] HEARTBEAT
[17:08:54.393175] [254] RADIO
[17:08:54.396321] [254] RADIO_STATUS
[17:08:54.745897] [76] VFR_HUD
[17:08:55.433340] [255] RADIO
[17:08:55.436280] [255] RADIO_STATUS
[17:08:55.559376] [79] VFR_HUD
[17:08:56.119456] [80] HEARTBEAT
[17:08:56.353454] [81] VFR_HUD
[17:08:56.462532] [0] RADIO
[17:08:56.465488] [0] RADIO_STATUS
[17:08:57.038564] [82] HEARTBEAT
[17:08:57.058753] [83] SYS_STATUS
[17:08:57.177608] [84] BATTERY_STATUS
[17:08:57.289655] [85] ATTITUDE_TARGET
[17:08:57.296026] [86] VFR_HUD
[17:08:57.502691] [1] RADIO
[17:08:57.505612] [1] RADIO_STATUS
[17:08:57.852774] [87] VFR_HUD
[17:08:58.083760] [88] HEARTBEAT
[17:08:58.421842] [2] RADIO
[17:08:58.424806] [2] RADIO_STATUS
[17:08:58.652881] [89] VFR_HUD
[17:08:59.122072] [90] HEARTBEAT
[17:08:59.129965] [91] ATTITUDE_TARGET
[17:08:59.451019] [3] RADIO
[17:08:59.454208] [3] RADIO_STATUS
[17:08:59.572022] [92] VFR_HUD
[17:09:00.152159] [93] HEARTBEAT
[17:09:00.262375] [94] VFR_HUD
[17:09:00.491175] [4] RADIO
[17:09:00.494169] [4] RADIO_STATUS
[17:09:01.079331] [95] HEARTBEAT
[17:09:01.086234] [96] SYS_STATUS
[17:09:01.204953] [97] BATTERY_STATUS
[17:09:01.212368] [98] ATTITUDE_TARGET
[17:09:01.242393] [99] VFR_HUD
[17:09:01.520354] [5] RADIO
[17:09:01.523339] [5] RADIO_STATUS
[17:09:01.871338] [100] VFR_HUD
[17:09:02.096447] [101] HEARTBEAT
[17:09:02.440486] [6] RADIO
[17:09:02.443490] [6] RADIO_STATUS
[17:09:02.685529] [102] VFR_HUD
[17:09:03.259642] [103] HEARTBEAT
[17:09:03.267585] [104] ATTITUDE_TARGET
[17:09:03.480637] [105] VFR_HUD
[17:09:03.507666] [7] RADIO
[17:09:03.510637] [7] RADIO_STATUS
[17:09:04.055881] [106] HEARTBEAT
[17:09:04.294757] [107] VFR_HUD
[17:09:04.508854] [8] RADIO
[17:09:04.511842] [8] RADIO_STATUS
[17:09:05.096939] [108] HEARTBEAT
[17:09:05.105688] [109] SYS_STATUS
[17:09:05.223934] [110] BATTERY_STATUS
[17:09:05.335980] [111] ATTITUDE_TARGET
[17:09:05.340933] [112] VFR_HUD
[17:09:05.549013] [9] RADIO
[17:09:05.550979] [9] RADIO_STATUS
[17:09:05.904043] [113] VFR_HUD
[17:09:06.125055] [114] HEARTBEAT
[17:09:06.473092] [10] RADIO
[17:09:06.476084] [10] RADIO_STATUS
[17:09:06.699217] [115] VFR_HUD
[17:09:07.044230] [116] HEARTBEAT
[17:09:07.067436] [117] ATTITUDE_TARGET
[17:09:07.497307] [11] RADIO
[17:09:07.500268] [11] RADIO_STATUS
[17:09:07.618237] [118] VFR_HUD
[17:09:08.073346] [119] HEARTBEAT
[17:09:08.308413] [120] VFR_HUD
[17:09:08.542406] [12] RADIO
[17:09:08.545370] [12] RADIO_STATUS
[17:09:09.125458] [121] HEARTBEAT
[17:09:09.131508] [122] SYS_STATUS
[17:09:09.253485] [123] BATTERY_STATUS
[17:09:09.255498] [124] EXTENDED_SYS_STATE
[17:09:09.263610] [125] ATTITUDE_TARGET
[17:09:09.267605] [126] VFR_HUD
[17:09:09.271694] [127] SYSTEM_TIME
[17:09:09.462570] [13] RADIO
[17:09:09.464538] [13] RADIO_STATUS
[17:09:09.917668] [128] VFR_HUD
[17:09:10.142636] [129] HEARTBEAT
[17:09:10.486720] [14] RADIO
[17:09:10.489648] [14] RADIO_STATUS
[17:09:10.729792] [130] VFR_HUD
[17:09:11.075755] [131] HEARTBEAT
[17:09:11.083797] [132] ATTITUDE_TARGET
[17:09:11.526849] [133] VFR_HUD
[17:09:11.558833] [15] RADIO
[17:09:11.561917] [15] RADIO_STATUS
[17:09:12.101941] [134] HEARTBEAT
[17:09:12.348029] [135] VFR_HUD
[17:09:12.555997] [16] RADIO
[17:09:12.559007] [16] RADIO_STATUS
[17:09:13.143179] [136] HEARTBEAT
[17:09:13.150227] [137] SYS_STATUS
[17:09:13.265192] [138] BATTERY_STATUS
[17:09:13.382178] [139] ATTITUDE_TARGET
[17:09:13.387110] [140] VFR_HUD
[17:09:13.628200] [17] RADIO
[17:09:13.632734] [17] RADIO_STATUS
[17:09:13.951498] [141] VFR_HUD
[17:09:14.062436] [142] HEARTBEAT
[17:09:14.520484] [18] RADIO
[17:09:14.523225] [18] RADIO_STATUS
[17:09:14.745342] [143] VFR_HUD
[17:09:15.109389] [144] HEARTBEAT
[17:09:15.117384] [145] ATTITUDE_TARGET
[17:09:15.544488] [19] RADIO
[17:09:15.547491] [19] RADIO_STATUS
[17:09:15.582460] [146] VFR_HUD
[17:09:16.120537] [147] HEARTBEAT
[17:09:16.354719] [148] VFR_HUD
[17:09:16.588626] [20] RADIO
[17:09:16.591585] [20] RADIO_STATUS
[17:09:17.039833] [149] HEARTBEAT
[17:09:17.059686] [150] SYS_STATUS
[17:09:17.108773] [151] BATTERY_STATUS
[17:09:17.115718] [152] ATTITUDE_TARGET
[17:09:17.120663] [153] VFR_HUD
[17:09:17.504803] [21] RADIO
[17:09:17.507705] [21] RADIO_STATUS
[17:09:18.201850] [154] VFR_HUD
[17:09:18.203800] [155] HEARTBEAT
[17:09:18.534905] [22] RADIO
[17:09:18.538107] [22] RADIO_STATUS
[17:09:18.654929] [156] VFR_HUD
[17:09:19.124045] [157] HEARTBEAT
[17:09:19.131972] [158] ATTITUDE_TARGET
[17:09:19.465183] [159] VFR_HUD
[17:09:19.574164] [23] RADIO
[17:09:19.577003] [23] RADIO_STATUS
[17:09:20.155369] [160] HEARTBEAT
[17:09:20.264157] [161] VFR_HUD
[17:09:20.604162] [24] RADIO
[17:09:20.606105] [24] RADIO_STATUS
[17:09:21.087281] [162] HEARTBEAT
[17:09:21.093251] [163] SYS_STATUS
[17:09:21.133348] [164] BATTERY_STATUS
[17:09:21.141340] [165] ATTITUDE_TARGET
[17:09:21.146272] [166] VFR_HUD
[17:09:21.523370] [25] RADIO
[17:09:21.526603] [25] RADIO_STATUS
[17:09:21.873415] [167] VFR_HUD
[17:09:22.099446] [168] HEARTBEAT
[17:09:22.562458] [26] RADIO
[17:09:22.565387] [26] RADIO_STATUS
[17:09:22.793554] [169] VFR_HUD
[17:09:23.157602] [170] HEARTBEAT
[17:09:23.165600] [171] ATTITUDE_TARGET
[17:09:23.483730] [172] VFR_HUD
[17:09:23.592629] [27] RADIO
[17:09:23.595604] [27] RADIO_STATUS
[17:09:24.059790] [173] HEARTBEAT
[17:09:24.297699] [174] VFR_HUD
[17:09:24.631840] [28] RADIO
[17:09:24.634796] [28] RADIO_STATUS
[17:09:25.099940] [175] HEARTBEAT
[17:09:25.106929] [176] SYS_STATUS
[17:09:25.226933] [177] BATTERY_STATUS
[17:09:25.338990] [178] ATTITUDE_TARGET
[17:09:25.344012] [179] VFR_HUD
[17:09:25.551978] [29] RADIO
[17:09:25.554895] [29] RADIO_STATUS
[17:09:25.902079] [180] VFR_HUD
[17:09:26.137090] [181] HEARTBEAT
[17:09:26.581266] [30] RADIO
[17:09:26.584149] [30] RADIO_STATUS
[17:09:26.702139] [182] VFR_HUD
[17:09:27.047235] [183] HEARTBEAT
[17:09:27.070184] [184] ATTITUDE_TARGET
[17:09:27.511346] [185] VFR_HUD
[17:09:27.620283] [31] RADIO
[17:09:27.623221] [31] RADIO_STATUS
[17:09:28.076587] [186] HEARTBEAT
[17:09:28.311377] [187] VFR_HUD
[17:09:28.650413] [32] RADIO
[17:09:28.653331] [32] RADIO_STATUS
[17:09:29.128527] [188] HEARTBEAT
[17:09:29.135524] [189] SYS_STATUS
[17:09:29.256514] [190] BATTERY_STATUS
[17:09:29.258484] [191] EXTENDED_SYS_STATE
[17:09:29.266583] [192] ATTITUDE_TARGET
[17:09:29.271734] [193] VFR_HUD
[17:09:29.274532] [194] SYSTEM_TIME
[17:09:29.569638] [33] RADIO
[17:09:29.572536] [33] RADIO_STATUS
[17:09:29.920650] [195] VFR_HUD
[17:09:30.145713] [196] HEARTBEAT
[17:09:30.614786] [34] RADIO
[17:09:30.617849] [34] RADIO_STATUS
[17:09:31.079856] [198] HEARTBEAT
[17:09:31.086807] [199] ATTITUDE_TARGET
[17:09:31.529848] [200] VFR_HUD
[17:09:31.638868] [35] RADIO
[17:09:31.641841] [35] RADIO_STATUS
[17:09:32.104947] [201] HEARTBEAT
[17:09:32.344963] [202] VFR_HUD
[17:09:32.679273] [36] RADIO
[17:09:32.681997] [36] RADIO_STATUS
[17:09:33.603159] [37] RADIO
[17:09:33.606131] [37] RADIO_STATUS
[17:09:34.064336] [208] VFR_HUD
[17:09:34.067274] [209] HEARTBEAT
[17:09:34.627376] [38] RADIO
[17:09:34.630420] [38] RADIO_STATUS
[17:09:34.748384] [210] VFR_HUD
[17:09:35.107464] [211] HEARTBEAT
[17:09:35.115475] [212] ATTITUDE_TARGET
[17:09:35.563501] [213] VFR_HUD
[17:09:35.684539] [39] RADIO
[17:09:35.687730] [39] RADIO_STATUS
[17:09:36.123608] [214] HEARTBEAT
[17:09:36.247617] [215] VFR_HUD
[17:09:36.696737] [40] RADIO
[17:09:36.699632] [40] RADIO_STATUS
[17:09:37.048795] [216] HEARTBEAT
[17:09:37.068811] [217] SYS_STATUS
[17:09:37.111765] [218] BATTERY_STATUS
[17:09:37.119837] [219] ATTITUDE_TARGET
[17:09:37.124894] [220] VFR_HUD
[17:09:37.618860] [41] RADIO
[17:09:37.620840] [41] RADIO_STATUS
[17:09:38.099919] [221] VFR_HUD
[17:09:38.102887] [222] HEARTBEAT
[17:09:38.659049] [223] VFR_HUD
[17:09:38.690986] [42] RADIO
[17:09:38.694018] [42] RADIO_STATUS
[17:09:39.128175] [224] HEARTBEAT
[17:09:39.136186] [225] ATTITUDE_TARGET
[17:09:39.474196] [226] VFR_HUD
[17:09:39.688142] [43] RADIO
[17:09:39.691088] [43] RADIO_STATUS
[17:09:40.159264] [227] HEARTBEAT
[17:09:40.268267] [228] VFR_HUD
[17:09:40.732287] [44] RADIO
[17:09:40.735280] [44] RADIO_STATUS
[17:09:41.647443] [45] RADIO
[17:09:41.650553] [45] RADIO_STATUS
[17:09:42.113952] [234] VFR_HUD
[17:09:42.116606] [235] HEARTBEAT
[17:09:42.676601] [46] RADIO
[17:09:42.679618] [46] RADIO_STATUS
[17:09:42.715616] [236] VFR_HUD
[17:09:43.161742] [237] HEARTBEAT
[17:09:43.169716] [238] ATTITUDE_TARGET
[17:09:43.486774] [239] VFR_HUD
[17:09:43.721948] [47] RADIO
[17:09:43.723804] [47] RADIO_STATUS
[17:09:44.066880] [240] HEARTBEAT
[17:09:44.297195] [241] VFR_HUD
[17:09:44.746023] [48] RADIO
[17:09:44.748969] [48] RADIO_STATUS
[17:09:45.104028] [242] HEARTBEAT
[17:09:45.110182] [243] SYS_STATUS
[17:09:45.230077] [244] BATTERY_STATUS
[17:09:45.343044] [245] ATTITUDE_TARGET
[17:09:45.347105] [246] VFR_HUD
[17:09:45.665147] [49] RADIO
[17:09:45.668177] [49] RADIO_STATUS
[17:09:45.906274] [247] VFR_HUD
[17:09:46.136219] [248] HEARTBEAT
[17:09:46.705284] [249] VFR_HUD
[17:09:46.732267] [50] RADIO
[17:09:46.735224] [50] RADIO_STATUS
[17:09:47.066063] [250] HEARTBEAT
[17:09:47.072315] [251] ATTITUDE_TARGET
[17:09:47.515405] [252] VFR_HUD
[17:09:47.734668] [51] RADIO
[17:09:47.737458] [51] RADIO_STATUS
[17:09:48.080502] [253] HEARTBEAT
[17:09:48.314575] [254] VFR_HUD
[17:09:48.773564] [52] RADIO
[17:09:48.776546] [52] RADIO_STATUS
[17:09:49.260827] [1] BATTERY_STATUS
[17:09:49.261647] [2] EXTENDED_SYS_STATE
[17:09:49.273804] [3] ATTITUDE_TARGET
[17:09:49.274654] [4] VFR_HUD
[17:09:49.278645] [5] SYSTEM_TIME
[17:09:49.693708] [53] RADIO
[17:09:49.696692] [53] RADIO_STATUS
[17:09:49.923805] [6] VFR_HUD
[17:09:50.039802] [7] HEARTBEAT
[17:09:50.722907] [54] RADIO
[17:09:50.725900] [54] RADIO_STATUS
[17:09:50.761892] [8] VFR_HUD
[17:09:51.082973] [9] HEARTBEAT
[17:09:51.090982] [10] ATTITUDE_TARGET
[17:09:51.533971] [11] VFR_HUD
[17:09:51.765912] [55] RADIO
[17:09:51.766325] [55] RADIO_STATUS
[17:09:52.109146] [12] HEARTBEAT
[17:09:52.348200] [13] VFR_HUD
[17:09:52.792796] [56] RADIO
[17:09:52.795376] [56] RADIO_STATUS
[17:09:53.150352] [14] HEARTBEAT
[17:09:53.157252] [15] SYS_STATUS
[17:09:53.278077] [16] BATTERY_STATUS
[17:09:53.389890] [17] ATTITUDE_TARGET
[17:09:53.394298] [18] VFR_HUD
[17:09:53.711450] [57] RADIO
[17:09:53.714349] [57] RADIO_STATUS
[17:09:53.952453] [19] VFR_HUD
[17:09:54.057434] [20] HEARTBEAT
[17:09:54.752731] [21] VFR_HUD
[17:09:54.779573] [58] RADIO
[17:09:54.782508] [58] RADIO_STATUS
[17:09:55.220580] [22] HEARTBEAT
[17:09:55.228593] [23] ATTITUDE_TARGET
[17:09:55.561666] [24] VFR_HUD
[17:09:55.781635] [59] RADIO
[17:09:55.783748] [59] RADIO_STATUS
[17:09:56.127733] [25] HEARTBEAT
[17:09:56.251768] [26] VFR_HUD
[17:09:56.820993] [60] RADIO
[17:09:56.823852] [60] RADIO_STATUS
[17:09:57.046900] [27] HEARTBEAT
[17:09:57.066928] [28] SYS_STATUS
[17:09:57.114968] [29] BATTERY_STATUS
[17:09:57.122893] [30] ATTITUDE_TARGET
[17:09:57.127965] [31] VFR_HUD
[17:09:57.742101] [61] RADIO
[17:09:57.745099] [61] RADIO_STATUS
[17:09:58.101780] [32] VFR_HUD
[17:09:58.101942] [33] HEARTBEAT
[17:09:58.662228] [34] VFR_HUD
[17:09:58.771256] [62] RADIO
[17:09:58.774243] [62] RADIO_STATUS
[17:09:59.131294] [35] HEARTBEAT
[17:09:59.139283] [36] ATTITUDE_TARGET
[17:09:59.477314] [37] VFR_HUD
[17:09:59.811550] [63] RADIO
[17:09:59.814453] [63] RADIO_STATUS
[17:10:00.037454] [38] HEARTBEAT
[17:10:00.271497] [39] VFR_HUD
[17:10:00.840616] [64] RADIO
[17:10:00.843618] [64] RADIO_STATUS
[17:10:01.093663] [40] HEARTBEAT
[17:10:01.100585] [41] SYS_STATUS
[17:10:01.140665] [42] BATTERY_STATUS
[17:10:01.147760] [43] ATTITUDE_TARGET
[17:10:01.152645] [44] VFR_HUD
[17:10:01.759693] [65] RADIO
[17:10:01.762697] [65] RADIO_STATUS
[17:10:02.116763] [45] VFR_HUD
[17:10:02.119778] [46] HEARTBEAT
[17:10:02.690816] [47] VFR_HUD
[17:10:02.805076] [66] RADIO
[17:10:02.807875] [66] RADIO_STATUS
[17:10:03.164869] [48] HEARTBEAT
[17:10:03.172830] [49] ATTITUDE_TARGET
[17:10:03.489881] [50] VFR_HUD
[17:10:03.829043] [67] RADIO
[17:10:03.833423] [67] RADIO_STATUS
[17:10:04.300088] [52] VFR_HUD
[17:10:04.874078] [68] RADIO
[17:10:04.877062] [68] RADIO_STATUS
[17:10:05.107249] [53] HEARTBEAT
[17:10:05.114245] [54] SYS_STATUS
[17:10:05.346230] [56] ATTITUDE_TARGET
[17:10:05.351170] [57] VFR_HUD
[17:10:05.794329] [69] RADIO
[17:10:05.797288] [69] RADIO_STATUS
[17:10:05.909251] [58] VFR_HUD
[17:10:06.141167] [59] HEARTBEAT
[17:10:06.709363] [60] VFR_HUD
[17:10:06.818408] [70] RADIO
[17:10:06.821952] [70] RADIO_STATUS
[17:10:07.073572] [61] HEARTBEAT
[17:10:07.085344] [62] ATTITUDE_TARGET
[17:10:07.529956] [63] VFR_HUD
[17:10:07.862584] [71] RADIO
[17:10:07.865570] [71] RADIO_STATUS
[17:10:08.083615] [64] HEARTBEAT
[17:10:08.318724] [65] VFR_HUD
[17:10:08.782699] [72] RADIO
[17:10:08.785692] [72] RADIO_STATUS
[17:10:09.140853] [66] HEARTBEAT
[17:10:09.149848] [67] SYS_STATUS
[17:10:09.181839] [68] BATTERY_STATUS
[17:10:09.183785] [69] EXTENDED_SYS_STATE
[17:10:09.191810] [70] ATTITUDE_TARGET
[17:10:09.195802] [71] VFR_HUD
[17:10:09.199778] [72] SYSTEM_TIME
[17:10:09.806916] [73] RADIO
[17:10:09.813767] [73] RADIO_STATUS
[17:10:09.929819] [73] VFR_HUD
[17:10:10.042963] [74] HEARTBEAT
[17:10:10.742078] [75] VFR_HUD
[17:10:10.862999] [74] RADIO
[17:10:10.866030] [74] RADIO_STATUS
[17:10:11.086351] [76] HEARTBEAT
[17:10:11.094344] [77] ATTITUDE_TARGET
[17:10:11.537203] [78] VFR_HUD
[17:10:11.876223] [75] RADIO
[17:10:11.879209] [75] RADIO_STATUS
[17:10:12.351624] [80] VFR_HUD
[17:10:12.795355] [76] RADIO
[17:10:12.798332] [76] RADIO_STATUS
[17:10:13.153373] [81] HEARTBEAT
[17:10:13.160416] [82] SYS_STATUS
[17:10:13.392475] [84] ATTITUDE_TARGET
[17:10:13.397397] [85] VFR_HUD
[17:10:13.834557] [77] RADIO
[17:10:13.837510] [77] RADIO_STATUS
[17:10:13.955586] [86] VFR_HUD
[17:10:14.060555] [87] HEARTBEAT
[17:10:14.755623] [88] VFR_HUD
[17:10:14.864636] [78] RADIO
[17:10:14.867602] [78] RADIO_STATUS
[17:10:15.114691] [89] HEARTBEAT
[17:10:15.121746] [90] ATTITUDE_TARGET
[17:10:15.564728] [91] VFR_HUD
[17:10:15.908827] [79] RADIO
[17:10:15.911790] [79] RADIO_STATUS
[17:10:16.129944] [92] HEARTBEAT
[17:10:16.259871] [93] VFR_HUD
[17:10:16.823700] [80] RADIO
[17:10:16.826021] [80] RADIO_STATUS
[17:10:17.061984] [94] HEARTBEAT
[17:10:17.067959] [95] SYS_STATUS
[17:10:17.182993] [96] BATTERY_STATUS
[17:10:17.300088] [97] ATTITUDE_TARGET
[17:10:17.305061] [98] VFR_HUD
[17:10:17.853084] [81] RADIO
[17:10:17.856048] [81] RADIO_STATUS
[17:10:17.903114] [99] VFR_HUD
[17:10:18.089202] [100] HEARTBEAT
[17:10:18.663271] [101] VFR_HUD
[17:10:18.892246] [82] RADIO
[17:10:18.895469] [82] RADIO_STATUS
[17:10:19.132313] [102] HEARTBEAT
[17:10:19.140353] [103] ATTITUDE_TARGET
[17:10:19.478523] [104] VFR_HUD
[17:10:19.812399] [83] RADIO
[17:10:19.815351] [83] RADIO_STATUS
[17:10:20.045984] [105] HEARTBEAT
[17:10:20.272467] [106] VFR_HUD
[17:10:20.841524] [84] RADIO
[17:10:20.844579] [84] RADIO_STATUS
[17:10:21.089567] [107] HEARTBEAT
[17:10:21.096555] [108] SYS_STATUS
[17:10:21.215623] [109] BATTERY_STATUS
[17:10:21.222547] [110] ATTITUDE_TARGET
[17:10:21.253551] [111] VFR_HUD
[17:10:21.881729] [112] VFR_HUD
[17:10:21.908994] [85] RADIO
[17:10:21.912008] [85] RADIO_STATUS
[17:10:22.107725] [113] HEARTBEAT
[17:10:22.691796] [114] VFR_HUD
[17:10:22.910832] [86] RADIO
[17:10:22.913830] [86] RADIO_STATUS
[17:10:23.160923] [115] HEARTBEAT
[17:10:23.168932] [116] ATTITUDE_TARGET
[17:10:23.490956] [117] VFR_HUD
[17:10:23.831005] [87] RADIO
[17:10:23.832913] [87] RADIO_STATUS
[17:10:24.072030] [118] HEARTBEAT
[17:10:24.301097] [119] VFR_HUD
[17:10:24.870168] [88] RADIO
[17:10:24.872125] [88] RADIO_STATUS
[17:10:25.108202] [120] HEARTBEAT
[17:10:25.114235] [121] SYS_STATUS
[17:10:25.229250] [122] BATTERY_STATUS
[17:10:25.347307] [123] ATTITUDE_TARGET
[17:10:25.351227] [124] VFR_HUD
[17:10:25.899404] [89] RADIO
[17:10:25.902349] [89] RADIO_STATUS
[17:10:25.937436] [125] VFR_HUD
[17:10:26.135510] [126] HEARTBEAT
[17:10:26.709553] [127] VFR_HUD
[17:10:26.938538] [90] RADIO
[17:10:26.941525] [90] RADIO_STATUS
[17:10:27.524664] [130] VFR_HUD
[17:10:27.863811] [91] RADIO
[17:10:27.866661] [91] RADIO_STATUS
[17:10:28.084748] [131] HEARTBEAT
[17:10:28.318766] [132] VFR_HUD
[17:10:28.887885] [92] RADIO
[17:10:28.890801] [92] RADIO_STATUS
[17:10:29.140872] [133] HEARTBEAT
[17:10:29.147871] [134] SYS_STATUS
[17:10:29.181888] [135] BATTERY_STATUS
[17:10:29.183869] [136] EXTENDED_SYS_STATE
[17:10:29.191915] [137] ATTITUDE_TARGET
[17:10:29.196864] [138] VFR_HUD
[17:10:29.199859] [139] SYSTEM_TIME
[17:10:29.928038] [140] VFR_HUD
[17:10:29.960010] [93] RADIO
[17:10:29.963022] [93] RADIO_STATUS
[17:10:30.049079] [141] HEARTBEAT
[17:10:30.743167] [142] VFR_HUD
[17:10:30.863202] [94] RADIO
[17:10:30.866212] [94] RADIO_STATUS
[17:10:31.087255] [143] HEARTBEAT
[17:10:31.095242] [144] ATTITUDE_TARGET
[17:10:31.537325] [145] VFR_HUD
[17:10:31.876329] [95] RADIO
[17:10:31.880571] [95] RADIO_STATUS
[17:10:32.117657] [146] HEARTBEAT
[17:10:32.347366] [147] VFR_HUD
[17:10:32.921561] [96] RADIO
[17:10:32.925856] [96] RADIO_STATUS
[17:10:33.048528] [148] HEARTBEAT
[17:10:33.084565] [149] SYS_STATUS
[17:10:33.092557] [150] BATTERY_STATUS
[17:10:33.107630] [151] ATTITUDE_TARGET
[17:10:33.112542] [152] VFR_HUD
[17:10:33.945757] [97] RADIO
[17:10:33.948609] [97] RADIO_STATUS
[17:10:34.650866] [155] VFR_HUD
[17:10:34.989961] [98] RADIO
[17:10:34.992841] [98] RADIO_STATUS
[17:10:35.223862] [156] HEARTBEAT
[17:10:35.231894] [157] ATTITUDE_TARGET
[17:10:35.450885] [158] VFR_HUD
[17:10:35.909970] [99] RADIO
[17:10:35.913875] [99] RADIO_STATUS
[17:10:36.131096] [159] HEARTBEAT
[17:10:36.364992] [160] VFR_HUD
[17:10:36.934071] [100] RADIO
[17:10:36.937017] [100] RADIO_STATUS
[17:10:37.062377] [161] HEARTBEAT
[17:10:37.069129] [162] SYS_STATUS
[17:10:37.183267] [163] BATTERY_STATUS
[17:10:37.305893] [164] ATTITUDE_TARGET
[17:10:37.306274] [165] VFR_HUD
[17:10:37.869234] [166] VFR_HUD
[17:10:37.990350] [101] RADIO
[17:10:37.993248] [101] RADIO_STATUS
[17:10:38.089221] [167] HEARTBEAT
[17:10:38.663329] [168] VFR_HUD
[17:10:39.002358] [102] RADIO
[17:10:39.005368] [102] RADIO_STATUS
[17:10:39.132473] [169] HEARTBEAT
[17:10:39.140509] [170] ATTITUDE_TARGET
[17:10:39.473463] [171] VFR_HUD
[17:10:39.922556] [103] RADIO
[17:10:39.925573] [103] RADIO_STATUS
[17:10:40.043570] [172] HEARTBEAT
[17:10:40.272825] [173] VFR_HUD
[17:10:40.961757] [104] RADIO
[17:10:40.964697] [104] RADIO_STATUS
[17:10:41.089739] [174] HEARTBEAT
[17:10:41.096762] [175] SYS_STATUS
[17:10:41.215776] [176] BATTERY_STATUS
[17:10:41.223703] [177] ATTITUDE_TARGET
[17:10:41.253891] [178] VFR_HUD
[17:10:41.882829] [179] VFR_HUD
[17:10:41.991826] [105] RADIO
[17:10:41.994883] [105] RADIO_STATUS
[17:10:42.107888] [180] HEARTBEAT
[17:10:42.691993] [181] VFR_HUD
[17:10:43.033791] [182] HEARTBEAT
[17:10:43.059232] [106] RADIO
[17:10:43.062000] [106] RADIO_STATUS
[17:10:43.270077] [183] ATTITUDE_TARGET
[17:10:43.492080] [184] VFR_HUD
[17:10:43.951228] [107] RADIO
[17:10:43.954300] [107] RADIO_STATUS
[17:10:44.067229] [185] HEARTBEAT
[17:10:44.313252] [186] VFR_HUD
[17:10:44.980341] [108] RADIO
[17:10:44.983304] [108] RADIO_STATUS
[17:10:45.108358] [187] HEARTBEAT
[17:10:45.115356] [188] SYS_STATUS
[17:10:45.230413] [189] BATTERY_STATUS
[17:10:45.347387] [190] ATTITUDE_TARGET
[17:10:45.352326] [191] VFR_HUD
[17:10:45.915513] [192] VFR_HUD
[17:10:46.031541] [109] RADIO
[17:10:46.036274] [109] RADIO_STATUS
[17:10:46.145573] [193] HEARTBEAT
[17:10:46.710642] [194] VFR_HUD
[17:10:47.049928] [110] RADIO
[17:10:47.052688] [110] RADIO_STATUS
[17:10:47.097953] [195] HEARTBEAT
[17:10:47.105724] [196] ATTITUDE_TARGET
[17:10:47.525813] [197] VFR_HUD
[17:10:47.968871] [111] RADIO
[17:10:47.971741] [111] RADIO_STATUS
[17:10:48.086030] [198] HEARTBEAT
[17:10:48.319936] [199] VFR_HUD
[17:10:49.008976] [112] RADIO
[17:10:49.011938] [112] RADIO_STATUS
[17:10:49.142012] [200] HEARTBEAT
[17:10:49.149076] [201] SYS_STATUS
[17:10:49.183040] [202] BATTERY_STATUS
[17:10:49.185014] [203] EXTENDED_SYS_STATE
[17:10:49.193032] [204] ATTITUDE_TARGET
[17:10:49.197000] [205] VFR_HUD
[17:10:49.201010] [206] SYSTEM_TIME
[17:10:49.929198] [207] VFR_HUD
[17:10:50.038167] [113] RADIO
[17:10:50.041145] [113] RADIO_STATUS
[17:10:50.738290] [209] VFR_HUD
[17:10:51.087333] [210] HEARTBEAT
[17:10:51.095357] [211] ATTITUDE_TARGET
[17:10:51.187301] [114] RADIO
[17:10:51.190271] [114] RADIO_STATUS
[17:10:51.538374] [212] VFR_HUD
[17:10:51.997436] [115] RADIO
[17:10:52.000390] [115] RADIO_STATUS
[17:10:52.118449] [213] HEARTBEAT
[17:10:52.347490] [214] VFR_HUD
[17:10:53.026568] [116] RADIO
[17:10:53.029605] [116] RADIO_STATUS
[17:10:53.086684] [215] HEARTBEAT
[17:10:53.092586] [216] SYS_STATUS
[17:10:53.100625] [217] BATTERY_STATUS
[17:10:53.112601] [218] ATTITUDE_TARGET
[17:10:53.117586] [219] VFR_HUD
[17:10:53.841856] [220] VFR_HUD
[17:10:54.061823] [221] HEARTBEAT
[17:10:54.175731] [117] RADIO
[17:10:54.178705] [117] RADIO_STATUS
[17:10:54.755914] [222] VFR_HUD
[17:10:55.095939] [118] RADIO
[17:10:55.097887] [118] RADIO_STATUS
[17:10:55.142929] [223] HEARTBEAT
[17:10:55.151021] [224] ATTITUDE_TARGET
[17:10:55.450983] [225] VFR_HUD
[17:10:56.131268] [226] HEARTBEAT
[17:10:56.261285] [227] VFR_HUD
[17:10:57.063408] [228] HEARTBEAT
[17:10:57.070235] [229] SYS_STATUS
[17:10:57.082272] [119] RADIO
[17:10:57.085216] [119] RADIO_STATUS
[17:10:57.189267] [230] BATTERY_STATUS
[17:10:57.302292] [231] ATTITUDE_TARGET
[17:10:57.307281] [232] VFR_HUD
[17:10:57.865487] [233] VFR_HUD
[17:10:58.084411] [120] RADIO
[17:10:58.087445] [120] RADIO_STATUS
[17:10:58.200597] [234] HEARTBEAT
[17:10:58.664492] [235] VFR_HUD
[17:10:59.133629] [236] HEARTBEAT
[17:10:59.141597] [237] ATTITUDE_TARGET
[17:10:59.151696] [121] RADIO
[17:10:59.155259] [121] RADIO_STATUS
[17:10:59.474676] [238] VFR_HUD
[17:11:00.039842] [239] HEARTBEAT
[17:11:00.071872] [122] RADIO
[17:11:00.073738] [122] RADIO_STATUS
[17:11:00.273784] [240] VFR_HUD
[17:11:01.072994] [123] RADIO
[17:11:01.075887] [123] RADIO_STATUS
[17:11:01.200926] [241] HEARTBEAT
[17:11:01.208135] [242] SYS_STATUS
[17:11:01.327975] [243] BATTERY_STATUS
[17:11:01.439963] [244] ATTITUDE_TARGET
[17:11:01.444981] [245] VFR_HUD
[17:11:01.883038] [246] VFR_HUD
[17:11:02.109117] [247] HEARTBEAT
[17:11:02.140271] [124] RADIO
[17:11:02.143047] [124] RADIO_STATUS
[17:11:03.033236] [249] HEARTBEAT
[17:11:03.065101] [125] RADIO
[17:11:03.069583] [125] RADIO_STATUS
[17:11:03.161279] [250] ATTITUDE_TARGET
[17:11:03.492313] [251] VFR_HUD
[17:11:04.061414] [126] RADIO
[17:11:04.064386] [126] RADIO_STATUS
[17:11:04.177432] [252] HEARTBEAT
[17:11:04.307438] [253] VFR_HUD
[17:11:05.109606] [254] HEARTBEAT
[17:11:05.116561] [255] SYS_STATUS
[17:11:05.128574] [127] RADIO
[17:11:05.131525] [127] RADIO_STATUS
[17:11:05.230585] [0] BATTERY_STATUS
[17:11:05.348627] [1] ATTITUDE_TARGET
[17:11:05.353703] [2] VFR_HUD
[17:11:05.916699] [3] VFR_HUD
[17:11:06.130723] [128] RADIO
[17:11:06.133761] [128] RADIO_STATUS
[17:11:06.246738] [4] HEARTBEAT
[17:11:06.710862] [5] VFR_HUD
[17:11:07.069994] [6] HEARTBEAT
[17:11:07.078055] [7] ATTITUDE_TARGET
[17:11:07.197911] [129] RADIO
[17:11:07.201194] [129] RADIO_STATUS
[17:11:07.525924] [8] VFR_HUD
[17:11:08.086001] [9] HEARTBEAT
[17:11:08.202039] [130] RADIO
[17:11:08.203000] [130] RADIO_STATUS
[17:11:08.320034] [10] VFR_HUD
[17:11:09.119101] [131] RADIO
[17:11:09.122100] [131] RADIO_STATUS
[17:11:09.247195] [11] HEARTBEAT
[17:11:09.254249] [12] SYS_STATUS
[17:11:09.372202] [13] BATTERY_STATUS
[17:11:09.374169] [14] EXTENDED_SYS_STATE
[17:11:09.493237] [15] ATTITUDE_TARGET
[17:11:09.498206] [16] VFR_HUD
[17:11:09.501214] [17] SYSTEM_TIME
[17:11:09.930276] [18] VFR_HUD
[17:11:10.051963] [19] HEARTBEAT
[17:11:10.164309] [132] RADIO
[17:11:10.167235] [132] RADIO_STATUS
[17:11:11.088752] [21] HEARTBEAT
[17:11:11.096423] [22] ATTITUDE_TARGET
[17:11:11.188422] [133] RADIO
[17:11:11.191453] [133] RADIO_STATUS
[17:11:11.538526] [23] VFR_HUD
[17:11:12.107614] [134] RADIO
[17:11:12.110766] [134] RADIO_STATUS
[17:11:12.141647] [24] HEARTBEAT
[17:11:12.349452] [25] VFR_HUD
[17:11:13.147713] [135] RADIO
[17:11:13.150716] [135] RADIO_STATUS
[17:11:14.073951] [31] VFR_HUD
[17:11:14.076890] [32] HEARTBEAT
[17:11:14.177017] [136] RADIO
[17:11:14.179876] [136] RADIO_STATUS
[17:11:14.653047] [33] VFR_HUD
[17:11:15.122314] [34] HEARTBEAT
[17:11:15.130075] [35] ATTITUDE_TARGET
[17:11:15.217066] [137] RADIO
[17:11:15.220035] [137] RADIO_STATUS
[17:11:15.447223] [36] VFR_HUD
[17:11:16.133244] [37] HEARTBEAT
[17:11:16.246281] [138] RADIO
[17:11:16.250033] [138] RADIO_STATUS
[17:11:16.367301] [38] VFR_HUD
[17:11:17.064379] [39] HEARTBEAT
[17:11:17.071382] [40] SYS_STATUS
[17:11:17.166377] [139] RADIO
[17:11:17.168513] [139] RADIO_STATUS
[17:11:17.236025] [41] BATTERY_STATUS
[17:11:17.243493] [42] ATTITUDE_TARGET
[17:11:17.248462] [43] VFR_HUD
[17:11:18.107499] [44] VFR_HUD
[17:11:18.109468] [45] HEARTBEAT
[17:11:18.221497] [140] RADIO
[17:11:18.224528] [140] RADIO_STATUS
[17:11:18.666604] [46] VFR_HUD
[17:11:19.134696] [47] HEARTBEAT
[17:11:19.142828] [48] ATTITUDE_TARGET
[17:11:19.234720] [141] RADIO
[17:11:19.237742] [141] RADIO_STATUS
[17:11:19.475746] [49] VFR_HUD
[17:11:20.040791] [50] HEARTBEAT
[17:11:20.154823] [142] RADIO
[17:11:20.157782] [142] RADIO_STATUS
[17:11:20.275872] [51] VFR_HUD
[17:11:21.218046] [54] BATTERY_STATUS
[17:11:21.225969] [55] ATTITUDE_TARGET
[17:11:21.255992] [56] VFR_HUD
[17:11:21.278015] [143] RADIO
[17:11:21.280976] [143] RADIO_STATUS
[17:11:21.885078] [57] VFR_HUD
[17:11:22.110483] [58] HEARTBEAT
[17:11:22.224204] [144] RADIO
[17:11:22.227160] [144] RADIO_STATUS
[17:11:22.699238] [59] VFR_HUD
[17:11:23.163294] [60] HEARTBEAT
[17:11:23.171293] [61] ATTITUDE_TARGET
[17:11:23.373340] [145] RADIO
[17:11:23.376452] [145] RADIO_STATUS
[17:11:23.494365] [62] VFR_HUD
[17:11:24.069432] [63] HEARTBEAT
[17:11:24.188435] [146] RADIO
[17:11:24.191409] [146] RADIO_STATUS
[17:11:24.309462] [64] VFR_HUD
[17:11:25.111755] [65] HEARTBEAT
[17:11:25.117594] [66] SYS_STATUS
[17:11:25.212783] [147] RADIO
[17:11:25.215747] [147] RADIO_STATUS
[17:11:25.282619] [67] BATTERY_STATUS
[17:11:25.290653] [68] ATTITUDE_TARGET
[17:11:25.294614] [69] VFR_HUD
[17:11:26.148718] [70] VFR_HUD
[17:11:26.151724] [71] HEARTBEAT
[17:11:26.268852] [148] RADIO
[17:11:26.271718] [148] RADIO_STATUS
[17:11:26.712877] [72] VFR_HUD
[17:11:27.071901] [73] HEARTBEAT
[17:11:27.079918] [74] ATTITUDE_TARGET
[17:11:27.199905] [149] RADIO
[17:11:27.202900] [149] RADIO_STATUS
[17:11:27.522992] [75] VFR_HUD
[17:11:28.088084] [76] HEARTBEAT
[17:11:28.201069] [150] RADIO
[17:11:28.204019] [150] RADIO_STATUS
[17:11:28.322096] [77] VFR_HUD
[17:11:29.267289] [80] BATTERY_STATUS
[17:11:29.269231] [81] EXTENDED_SYS_STATE
[17:11:29.277232] [82] ATTITUDE_TARGET
[17:11:29.282259] [83] VFR_HUD
[17:11:29.285221] [84] SYSTEM_TIME
[17:11:29.313800] [151] RADIO
[17:11:29.316290] [151] RADIO_STATUS
[17:11:29.931305] [85] VFR_HUD
[17:11:30.046432] [86] HEARTBEAT
[17:11:30.270396] [152] RADIO
[17:11:30.273329] [152] RADIO_STATUS
[17:11:30.741414] [87] VFR_HUD
[17:11:31.090497] [88] HEARTBEAT
[17:11:31.097496] [89] ATTITUDE_TARGET
[17:11:31.316008] [153] RADIO
[17:11:31.318606] [153] RADIO_STATUS
[17:11:31.540563] [90] VFR_HUD
[17:11:32.115649] [91] HEARTBEAT
[17:11:32.234654] [154] RADIO
[17:11:32.237641] [154] RADIO_STATUS
[17:11:32.350746] [92] VFR_HUD
[17:11:33.158004] [93] HEARTBEAT
[17:11:33.163817] [94] SYS_STATUS
[17:11:33.258826] [155] RADIO
[17:11:33.261957] [155] RADIO_STATUS
[17:11:33.299835] [95] BATTERY_STATUS
[17:11:33.326847] [96] ATTITUDE_TARGET
[17:11:33.331787] [97] VFR_HUD
[17:11:33.839931] [98] VFR_HUD
[17:11:34.064941] [99] HEARTBEAT
[17:11:34.304022] [156] RADIO
[17:11:34.307010] [156] RADIO_STATUS
[17:11:34.649131] [100] VFR_HUD
[17:11:35.123174] [101] HEARTBEAT
[17:11:35.131096] [102] ATTITUDE_TARGET
[17:11:35.328101] [157] RADIO
[17:11:35.331166] [157] RADIO_STATUS
[17:11:35.448204] [103] VFR_HUD
[17:11:36.134257] [104] HEARTBEAT
[17:11:36.247273] [158] RADIO
[17:11:36.250253] [158] RADIO_STATUS
[17:11:36.369973] [105] VFR_HUD
[17:11:37.065482] [106] HEARTBEAT
[17:11:37.072418] [107] SYS_STATUS
[17:11:37.304474] [109] ATTITUDE_TARGET
[17:11:37.309406] [110] VFR_HUD
[17:11:37.343485] [159] RADIO
[17:11:37.346540] [159] RADIO_STATUS
[17:11:37.868251] [111] VFR_HUD
[17:11:38.098659] [112] HEARTBEAT
[17:11:38.316584] [160] RADIO
[17:11:38.319566] [160] RADIO_STATUS
[17:11:38.667686] [113] VFR_HUD
[17:11:39.135833] [114] HEARTBEAT
[17:11:39.143788] [115] ATTITUDE_TARGET
[17:11:39.360828] [161] RADIO
[17:11:39.365284] [161] RADIO_STATUS
[17:11:39.478155] [116] VFR_HUD
[17:11:40.041945] [117] HEARTBEAT
[17:11:40.275926] [118] VFR_HUD
[17:11:40.302932] [162] RADIO
[17:11:40.305900] [162] RADIO_STATUS
[17:11:41.098100] [119] HEARTBEAT
[17:11:41.105085] [120] SYS_STATUS
[17:11:41.145113] [121] BATTERY_STATUS
[17:11:41.153377] [122] ATTITUDE_TARGET
[17:11:41.157082] [123] VFR_HUD
[17:11:41.305095] [163] RADIO
[17:11:41.308052] [163] RADIO_STATUS
[17:11:42.121268] [124] VFR_HUD
[17:11:42.124233] [125] HEARTBEAT
[17:11:42.344931] [164] RADIO
[17:11:42.347227] [164] RADIO_STATUS
[17:11:42.700615] [126] VFR_HUD
[17:11:43.169412] [127] HEARTBEAT
[17:11:43.177398] [128] ATTITUDE_TARGET
[17:11:43.374394] [165] RADIO
[17:11:43.377379] [165] RADIO_STATUS
[17:11:43.494631] [129] VFR_HUD
[17:11:44.293619] [166] RADIO
[17:11:44.296617] [166] RADIO_STATUS
[17:11:44.331678] [131] VFR_HUD
[17:11:45.111737] [132] HEARTBEAT
[17:11:45.118780] [133] SYS_STATUS
[17:11:45.350812] [135] ATTITUDE_TARGET
[17:11:45.355884] [136] VFR_HUD
[17:11:45.360816] [167] RADIO
[17:11:45.363797] [167] RADIO_STATUS
[17:11:45.913934] [137] VFR_HUD
[17:11:46.138944] [138] HEARTBEAT
[17:11:46.362958] [168] RADIO
[17:11:46.365869] [168] RADIO_STATUS
[17:11:46.712981] [139] VFR_HUD
[17:11:47.072052] [140] HEARTBEAT
[17:11:47.080048] [141] ATTITUDE_TARGET
[17:11:47.402245] [169] RADIO
[17:11:47.405864] [169] RADIO_STATUS
[17:11:48.088310] [143] HEARTBEAT
[17:11:48.322269] [144] VFR_HUD
[17:11:48.349320] [170] RADIO
[17:11:48.352191] [170] RADIO_STATUS
[17:11:49.139458] [145] HEARTBEAT
[17:11:49.146497] [146] SYS_STATUS
[17:11:49.268574] [147] BATTERY_STATUS
[17:11:49.269552] [148] EXTENDED_SYS_STATE
[17:11:49.277456] [149] ATTITUDE_TARGET
[17:11:49.282560] [150] VFR_HUD
[17:11:49.286381] [151] SYSTEM_TIME
[17:11:49.313410] [171] RADIO
[17:11:49.316418] [171] RADIO_STATUS
[17:11:49.931582] [152] VFR_HUD
[17:11:50.047546] [153] HEARTBEAT
[17:11:50.390689] [172] RADIO
[17:11:50.393554] [172] RADIO_STATUS
[17:11:50.745964] [154] VFR_HUD
[17:11:51.090672] [155] HEARTBEAT
[17:11:51.098874] [156] ATTITUDE_TARGET
[17:11:51.420805] [173] RADIO
[17:11:51.423750] [173] RADIO_STATUS
[17:11:51.458773] [157] VFR_HUD
[17:11:52.126045] [158] HEARTBEAT
[17:11:52.339868] [174] RADIO
[17:11:52.342844] [174] RADIO_STATUS
[17:11:52.379021] [159] VFR_HUD
[17:11:53.158222] [160] HEARTBEAT
[17:11:53.165046] [161] SYS_STATUS
[17:11:53.397886] [163] ATTITUDE_TARGET
[17:11:53.402060] [164] VFR_HUD
[17:11:53.409757] [175] RADIO
[17:11:53.412955] [175] RADIO_STATUS
[17:11:53.840152] [165] VFR_HUD
[17:11:54.066283] [166] HEARTBEAT
[17:11:54.409306] [176] RADIO
[17:11:54.412221] [176] RADIO_STATUS
[17:11:54.650303] [167] VFR_HUD
[17:11:55.119315] [168] HEARTBEAT
[17:11:55.127293] [169] ATTITUDE_TARGET
[17:11:55.450337] [170] VFR_HUD
[17:11:55.477370] [177] RADIO
[17:11:55.480347] [177] RADIO_STATUS
[17:11:56.030453] [171] HEARTBEAT
[17:11:56.259506] [172] VFR_HUD
[17:11:56.373500] [178] RADIO
[17:11:56.376523] [178] RADIO_STATUS
[17:11:57.066620] [173] HEARTBEAT
[17:11:57.073670] [174] SYS_STATUS
[17:11:57.188664] [175] BATTERY_STATUS
[17:11:57.305666] [176] ATTITUDE_TARGET
[17:11:57.310709] [177] VFR_HUD
[17:11:57.398640] [179] RADIO
[17:11:57.401659] [179] RADIO_STATUS
[17:11:57.879743] [178] VFR_HUD
[17:11:58.099831] [179] HEARTBEAT
[17:11:58.442841] [180] RADIO
[17:11:58.445848] [180] RADIO_STATUS
[17:11:58.668918] [180] VFR_HUD
[17:11:59.138002] [181] HEARTBEAT
[17:11:59.145988] [182] ATTITUDE_TARGET
[17:11:59.363020] [181] RADIO
[17:11:59.365987] [181] RADIO_STATUS
[17:11:59.484050] [183] VFR_HUD
[17:12:00.044138] [184] HEARTBEAT
[17:12:00.278179] [185] VFR_HUD
[17:12:00.387402] [182] RADIO
[17:12:00.390171] [182] RADIO_STATUS
[17:12:01.100296] [186] HEARTBEAT
[17:12:01.107331] [187] SYS_STATUS
[17:12:01.146320] [188] BATTERY_STATUS
[17:12:01.154290] [189] ATTITUDE_TARGET
[17:12:01.159260] [190] VFR_HUD
[17:12:01.432373] [183] RADIO
[17:12:01.435353] [183] RADIO_STATUS
[17:12:02.122718] [191] VFR_HUD
[17:12:02.125445] [192] HEARTBEAT
[17:12:02.456531] [184] RADIO
[17:12:02.459517] [184] RADIO_STATUS
[17:12:02.702602] [193] VFR_HUD
[17:12:03.037629] [194] HEARTBEAT
[17:12:03.059694] [195] ATTITUDE_TARGET
[17:12:03.496678] [196] VFR_HUD
[17:12:03.528651] [185] RADIO
[17:12:03.531595] [185] RADIO_STATUS
[17:12:04.076768] [197] HEARTBEAT
[17:12:04.306883] [198] VFR_HUD
[17:12:04.420793] [186] RADIO
[17:12:04.423789] [186] RADIO_STATUS
[17:12:05.114039] [199] HEARTBEAT
[17:12:05.120990] [200] SYS_STATUS
[17:12:05.239953] [201] BATTERY_STATUS
[17:12:05.352936] [202] ATTITUDE_TARGET
[17:12:05.358039] [203] VFR_HUD
[17:12:05.444961] [187] RADIO
[17:12:05.447882] [187] RADIO_STATUS
[17:12:05.916022] [204] VFR_HUD
[17:12:06.146222] [205] HEARTBEAT
[17:12:06.490219] [188] RADIO
[17:12:06.493159] [188] RADIO_STATUS
[17:12:06.715195] [206] VFR_HUD
[17:12:07.184406] [207] HEARTBEAT
[17:12:07.192365] [208] ATTITUDE_TARGET
[17:12:07.404286] [189] RADIO
[17:12:07.409749] [189] RADIO_STATUS
[17:12:07.525311] [209] VFR_HUD
[17:12:08.090509] [210] HEARTBEAT
[17:12:08.324546] [211] VFR_HUD
[17:12:08.437231] [190] RADIO
[17:12:08.437914] [190] RADIO_STATUS
[17:12:09.141629] [212] HEARTBEAT
[17:12:09.148589] [213] SYS_STATUS
[17:12:09.270651] [214] BATTERY_STATUS
[17:12:09.271594] [215] EXTENDED_SYS_STATE
[17:12:09.279616] [216] ATTITUDE_TARGET
[17:12:09.284615] [217] VFR_HUD
[17:12:09.288644] [218] SYSTEM_TIME
[17:12:09.473675] [191] RADIO
[17:12:09.476608] [191] RADIO_STATUS
[17:12:09.933691] [219] VFR_HUD
[17:12:10.049750] [220] HEARTBEAT
[17:12:10.502800] [192] RADIO
[17:12:10.505769] [192] RADIO_STATUS
[17:12:10.748878] [221] VFR_HUD
[17:12:11.092931] [222] HEARTBEAT
[17:12:11.101028] [223] ATTITUDE_TARGET
[17:12:11.423139] [193] RADIO
[17:12:11.425949] [193] RADIO_STATUS
[17:12:11.542969] [224] VFR_HUD
[17:12:12.119068] [225] HEARTBEAT
[17:12:12.358349] [226] VFR_HUD
[17:12:12.474073] [194] RADIO
[17:12:12.476083] [194] RADIO_STATUS
[17:12:13.038300] [227] HEARTBEAT
[17:12:13.058378] [228] SYS_STATUS
[17:12:13.101256] [229] BATTERY_STATUS
[17:12:13.109247] [230] ATTITUDE_TARGET
[17:12:13.114222] [231] VFR_HUD
[17:12:13.491275] [195] RADIO
[17:12:13.494237] [195] RADIO_STATUS
[17:12:14.078332] [232] VFR_HUD
[17:12:14.081331] [233] HEARTBEAT
[17:12:14.531341] [196] RADIO
[17:12:14.534314] [196] RADIO_STATUS
[17:12:14.652414] [234] VFR_HUD
[17:12:15.230479] [235] HEARTBEAT
[17:12:15.238487] [236] ATTITUDE_TARGET
[17:12:15.451474] [237] VFR_HUD
[17:12:15.478505] [197] RADIO
[17:12:15.481419] [197] RADIO_STATUS
[17:12:16.137587] [238] HEARTBEAT
[17:12:16.261605] [239] VFR_HUD
[17:12:16.480602] [198] RADIO
[17:12:16.483612] [198] RADIO_STATUS
[17:12:17.068811] [240] HEARTBEAT
[17:12:17.075740] [241] SYS_STATUS
[17:12:17.189752] [242] BATTERY_STATUS
[17:12:17.307808] [243] ATTITUDE_TARGET
[17:12:17.312724] [244] VFR_HUD
[17:12:17.519785] [199] RADIO
[17:12:17.522725] [199] RADIO_STATUS
[17:12:17.875852] [245] VFR_HUD
[17:12:18.113893] [246] HEARTBEAT
[17:12:18.551966] [200] RADIO
[17:12:18.552862] [200] RADIO_STATUS
[17:12:18.669953] [247] VFR_HUD
[17:12:19.139105] [248] HEARTBEAT
[17:12:19.147118] [249] ATTITUDE_TARGET
[17:12:19.469128] [201] RADIO
[17:12:19.472212] [201] RADIO_STATUS
[17:12:19.508090] [250] VFR_HUD
[17:12:20.045220] [251] HEARTBEAT
[17:12:20.279223] [252] VFR_HUD
[17:12:20.509197] [202] RADIO
[17:12:20.512482] [202] RADIO_STATUS
[17:12:21.102362] [253] HEARTBEAT
[17:12:21.108313] [254] SYS_STATUS
[17:12:21.148615] [255] BATTERY_STATUS
[17:12:21.156472] [0] ATTITUDE_TARGET
[17:12:21.161417] [1] VFR_HUD
[17:12:21.538460] [203] RADIO
[17:12:21.541363] [203] RADIO_STATUS
[17:12:21.889458] [2] VFR_HUD
[17:12:22.114500] [3] HEARTBEAT
[17:12:22.577517] [204] RADIO
[17:12:22.580556] [204] RADIO_STATUS
[17:12:22.698546] [4] VFR_HUD
[17:12:23.038657] [5] HEARTBEAT
[17:12:23.061656] [6] ATTITUDE_TARGET
[17:12:23.498720] [7] VFR_HUD
[17:12:23.530630] [205] RADIO
[17:12:23.533650] [205] RADIO_STATUS
[17:12:24.078770] [8] HEARTBEAT
[17:12:24.526804] [206] RADIO
[17:12:24.529754] [206] RADIO_STATUS
[17:12:25.114916] [10] HEARTBEAT
[17:12:25.121900] [11] SYS_STATUS
[17:12:25.236907] [12] BATTERY_STATUS
[17:12:25.353920] [13] ATTITUDE_TARGET
[17:12:25.358917] [14] VFR_HUD
[17:12:25.571986] [207] RADIO
[17:12:25.574938] [207] RADIO_STATUS
[17:12:25.917011] [15] VFR_HUD
[17:12:26.028052] [16] HEARTBEAT
[17:12:26.491159] [208] RADIO
[17:12:26.494182] [208] RADIO_STATUS
[17:12:26.717214] [17] VFR_HUD
[17:12:27.081250] [18] HEARTBEAT
[17:12:27.089186] [19] ATTITUDE_TARGET
[17:12:27.516224] [209] RADIO
[17:12:27.519195] [209] RADIO_STATUS
[17:12:27.554232] [20] VFR_HUD
[17:12:28.092341] [21] HEARTBEAT
[17:12:28.326351] [22] VFR_HUD
[17:12:28.560396] [210] RADIO
[17:12:28.563339] [210] RADIO_STATUS
[17:12:29.148455] [23] HEARTBEAT
[17:12:29.155547] [24] SYS_STATUS
[17:12:29.189526] [25] BATTERY_STATUS
[17:12:29.191415] [26] EXTENDED_SYS_STATE
[17:12:29.201566] [27] ATTITUDE_TARGET
[17:12:29.204549] [28] VFR_HUD
[17:12:29.207484] [29] SYSTEM_TIME
[17:12:29.584522] [211] RADIO
[17:12:29.587537] [211] RADIO_STATUS
[17:12:29.935766] [30] VFR_HUD
[17:12:30.504643] [212] RADIO
[17:12:30.507610] [212] RADIO_STATUS
[17:12:30.749825] [32] VFR_HUD
[17:12:31.093832] [33] HEARTBEAT
[17:12:31.101794] [34] ATTITUDE_TARGET
[17:12:31.545025] [35] VFR_HUD
[17:12:31.578172] [213] RADIO
[17:12:31.579954] [213] RADIO_STATUS
[17:12:32.119957] [36] HEARTBEAT
[17:12:32.239972] [37] VFR_HUD
[17:12:32.573037] [214] RADIO
[17:12:32.576025] [214] RADIO_STATUS
[17:12:33.056107] [38] HEARTBEAT
[17:12:33.092117] [39] SYS_STATUS
[17:12:33.099126] [40] BATTERY_STATUS
[17:12:33.115119] [41] ATTITUDE_TARGET
[17:12:33.120095] [42] VFR_HUD
[17:12:33.618202] [215] RADIO
[17:12:33.621195] [215] RADIO_STATUS
[17:12:33.963211] [43] VFR_HUD
[17:12:34.069240] [44] HEARTBEAT
[17:12:34.532409] [216] RADIO
[17:12:34.535377] [216] RADIO_STATUS
[17:12:35.122449] [46] HEARTBEAT
[17:12:35.130636] [47] ATTITUDE_TARGET
[17:12:35.453455] [48] VFR_HUD
[17:12:35.562479] [217] RADIO
[17:12:35.565521] [217] RADIO_STATUS
[17:12:36.028563] [49] HEARTBEAT
[17:12:36.267620] [50] VFR_HUD
[17:12:36.601626] [218] RADIO
[17:12:36.604615] [218] RADIO_STATUS
[17:12:37.069718] [51] HEARTBEAT
[17:12:37.076677] [52] SYS_STATUS
[17:12:37.190735] [53] BATTERY_STATUS
[17:12:37.308714] [54] ATTITUDE_TARGET
[17:12:37.313734] [55] VFR_HUD
[17:12:37.630765] [219] RADIO
[17:12:37.633771] [219] RADIO_STATUS
[17:12:37.876841] [56] VFR_HUD
[17:12:38.550903] [220] RADIO
[17:12:38.553838] [220] RADIO_STATUS
[17:12:38.670945] [58] VFR_HUD
[17:12:39.140031] [59] HEARTBEAT
[17:12:39.148058] [60] ATTITUDE_TARGET
[17:12:39.486066] [61] VFR_HUD
[17:12:39.601201] [221] RADIO
[17:12:39.604014] [221] RADIO_STATUS
[17:12:40.046161] [62] HEARTBEAT
[17:12:40.280272] [63] VFR_HUD
[17:12:40.619263] [222] RADIO
[17:12:40.622250] [222] RADIO_STATUS
[17:12:41.097348] [64] HEARTBEAT
[17:12:41.104316] [65] SYS_STATUS
[17:12:41.222476] [66] BATTERY_STATUS
[17:12:41.230472] [67] ATTITUDE_TARGET
[17:12:41.260384] [68] VFR_HUD
[17:12:41.659416] [223] RADIO
[17:12:41.662430] [223] RADIO_STATUS
[17:12:41.889429] [69] VFR_HUD
[17:12:42.116070] [70] HEARTBEAT
[17:12:42.578657] [224] RADIO
[17:12:42.581554] [224] RADIO_STATUS
[17:12:43.034655] [72] HEARTBEAT
[17:12:43.057674] [73] ATTITUDE_TARGET
[17:12:43.498694] [74] VFR_HUD
[17:12:43.608636] [225] RADIO
[17:12:43.611665] [225] RADIO_STATUS
[17:12:44.079740] [75] HEARTBEAT
[17:12:44.309915] [76] VFR_HUD
[17:12:44.647794] [226] RADIO
[17:12:44.650780] [226] RADIO_STATUS
[17:12:45.116092] [77] HEARTBEAT
[17:12:45.123071] [78] SYS_STATUS
[17:12:45.238283] [79] BATTERY_STATUS
[17:12:45.355075] [80] ATTITUDE_TARGET
[17:12:45.359913] [81] VFR_HUD
[17:12:45.678005] [227] RADIO
[17:12:45.680947] [227] RADIO_STATUS
[17:12:45.918084] [82] VFR_HUD
[17:12:46.597082] [228] RADIO
[17:12:46.600022] [228] RADIO_STATUS
[17:12:46.718142] [84] VFR_HUD
[17:12:47.082213] [85] HEARTBEAT
[17:12:47.090230] [86] ATTITUDE_TARGET
[17:12:47.532259] [87] VFR_HUD
[17:12:47.648260] [229] RADIO
[17:12:47.651263] [229] RADIO_STATUS
[17:12:48.092415] [88] HEARTBEAT
[17:12:48.326388] [89] VFR_HUD
[17:12:48.665445] [230] RADIO
[17:12:48.668392] [230] RADIO_STATUS
[17:12:49.148674] [90] HEARTBEAT
[17:12:49.155513] [91] SYS_STATUS
[17:12:49.190468] [92] BATTERY_STATUS
[17:12:49.191422] [93] EXTENDED_SYS_STATE
[17:12:49.199463] [94] ATTITUDE_TARGET
[17:12:49.204419] [95] VFR_HUD
[17:12:49.208440] [96] SYSTEM_TIME
[17:12:49.705534] [231] RADIO
[17:12:49.708576] [231] RADIO_STATUS
[17:12:49.935559] [97] VFR_HUD
[17:12:50.056624] [98] HEARTBEAT
[17:12:50.630734] [232] RADIO
[17:12:50.633807] [232] RADIO_STATUS
[17:12:50.855662] [99] VFR_HUD
[17:12:51.094767] [100] HEARTBEAT
[17:12:51.102775] [101] ATTITUDE_TARGET
[17:12:51.545793] [102] VFR_HUD
[17:12:51.654800] [233] RADIO
[17:12:51.657750] [233] RADIO_STATUS
[17:12:52.125976] [103] HEARTBEAT
[17:12:52.354957] [104] VFR_HUD
[17:12:52.700009] [234] RADIO
[17:12:52.702003] [234] RADIO_STATUS
[17:12:53.178454] [107] BATTERY_STATUS
[17:12:53.185097] [108] ATTITUDE_TARGET
[17:12:53.216056] [109] VFR_HUD
[17:12:53.619285] [235] RADIO
[17:12:53.622189] [235] RADIO_STATUS
[17:12:53.844372] [110] VFR_HUD
[17:12:54.070279] [111] HEARTBEAT
[17:12:54.643294] [236] RADIO
[17:12:54.646561] [236] RADIO_STATUS
[17:12:54.682355] [112] VFR_HUD
[17:12:55.123416] [113] HEARTBEAT
[17:12:55.131393] [114] ATTITUDE_TARGET
[17:12:55.453445] [115] VFR_HUD
[17:12:55.688519] [237] RADIO
[17:12:55.692145] [237] RADIO_STATUS
[17:12:56.138624] [116] HEARTBEAT
[17:12:56.268588] [117] VFR_HUD
[17:12:56.712655] [238] RADIO
[17:12:56.715583] [238] RADIO_STATUS
[17:12:57.070701] [118] HEARTBEAT
[17:12:57.077756] [119] SYS_STATUS
[17:12:57.196829] [120] BATTERY_STATUS
[17:12:57.309792] [121] ATTITUDE_TARGET
[17:12:57.313724] [122] VFR_HUD
[17:12:57.631832] [239] RADIO
[17:12:57.634753] [239] RADIO_STATUS
[17:12:57.877850] [123] VFR_HUD
[17:12:58.097868] [124] HEARTBEAT
[17:12:58.672226] [125] VFR_HUD
[17:12:58.704083] [240] RADIO
[17:12:58.707000] [240] RADIO_STATUS
[17:12:59.141117] [126] HEARTBEAT
[17:12:59.149031] [127] ATTITUDE_TARGET
[17:12:59.482096] [128] VFR_HUD
[17:12:59.701215] [241] RADIO
[17:12:59.704190] [241] RADIO_STATUS
[17:13:00.047271] [129] HEARTBEAT
[17:13:00.281276] [130] VFR_HUD
[17:13:00.746415] [242] RADIO
[17:13:00.749501] [242] RADIO_STATUS
[17:13:01.224430] [133] BATTERY_STATUS
[17:13:01.232507] [134] ATTITUDE_TARGET
[17:13:01.262432] [135] VFR_HUD
[17:13:01.660444] [243] RADIO
[17:13:01.663396] [243] RADIO_STATUS
[17:13:01.891504] [136] VFR_HUD
[17:13:02.116625] [137] HEARTBEAT
[17:13:02.690599] [244] RADIO
[17:13:02.693591] [244] RADIO_STATUS
[17:13:02.810627] [138] VFR_HUD
[17:13:03.036708] [139] HEARTBEAT
[17:13:03.058658] [140] ATTITUDE_TARGET
[17:13:03.500679] [141] VFR_HUD
[17:13:03.729793] [245] RADIO
[17:13:03.733727] [245] RADIO_STATUS
[17:13:04.075842] [142] HEARTBEAT
[17:13:04.309812] [143] VFR_HUD
[17:13:04.758953] [246] RADIO
[17:13:04.762189] [246] RADIO_STATUS
[17:13:05.117068] [144] HEARTBEAT
[17:13:05.123973] [145] SYS_STATUS
[17:13:05.239113] [146] BATTERY_STATUS
[17:13:05.356085] [147] ATTITUDE_TARGET
[17:13:05.361168] [148] VFR_HUD
[17:13:05.679141] [247] RADIO
[17:13:05.682136] [247] RADIO_STATUS
[17:13:05.925163] [149] VFR_HUD
[17:13:06.036184] [150] HEARTBEAT
[17:13:06.719282] [151] VFR_HUD
[17:13:06.746305] [248] RADIO
[17:13:06.749252] [248] RADIO_STATUS
[17:13:07.083331] [152] HEARTBEAT
[17:13:07.091353] [153] ATTITUDE_TARGET
[17:13:07.534384] [154] VFR_HUD
[17:13:07.747442] [249] RADIO
[17:13:07.750380] [249] RADIO_STATUS
[17:13:08.093537] [155] HEARTBEAT
[17:13:08.328530] [156] VFR_HUD
