[21:24:24.467962] [164] HEARTBEAT
[21:24:24.585970] [165] VFR_HUD
[21:24:25.150129] [230] RADIO
[21:24:25.153080] [230] RADIO_STATUS
[21:24:25.399174] [166] HEARTBEAT
[21:24:25.405137] [167] SYS_STATUS
[21:24:25.527066] [168] BATTERY_STATUS
[21:24:25.528010] [169] EXTENDED_SYS_STATE
[21:24:25.536067] [170] ATTITUDE_TARGET
[21:24:25.541024] [171] VFR_HUD
[21:24:25.545075] [172] SYSTEM_TIME
[21:24:26.191207] [173] VFR_HUD
[21:24:26.218132] [231] RADIO
[21:24:26.221132] [231] RADIO_STATUS
[21:24:26.416212] [174] HEARTBEAT
[21:24:27.001550] [175] VFR_HUD
[21:24:27.220246] [232] RADIO
[21:24:27.223214] [232] RADIO_STATUS
[21:24:27.470394] [176] HEARTBEAT
[21:24:27.478368] [177] ATTITUDE_TARGET
[21:24:27.800445] [178] VFR_HUD
[21:24:28.140380] [233] RADIO
[21:24:28.142396] [233] RADIO_STATUS
[21:24:28.486445] [179] HEARTBEAT
[21:24:28.610480] [180] VFR_HUD
[21:24:29.185618] [234] RADIO
[21:24:29.188559] [234] RADIO_STATUS
[21:24:29.418614] [181] HEARTBEAT
[21:24:29.424659] [182] SYS_STATUS
[21:24:29.539618] [183] BATTERY_STATUS
[21:24:29.657626] [184] ATTITUDE_TARGET
[21:24:29.661678] [185] VFR_HUD
[21:24:30.209778] [235] RADIO
[21:24:30.212788] [235] RADIO_STATUS
[21:24:30.248664] [186] VFR_HUD
[21:24:30.445681] [187] HEARTBEAT
[21:24:31.020780] [188] VFR_HUD
[21:24:31.129764] [236] RADIO
[21:24:31.132685] [236] RADIO_STATUS
[21:24:31.489856] [189] HEARTBEAT
[21:24:31.497817] [190] ATTITUDE_TARGET
[21:24:31.835858] [191] VFR_HUD
[21:24:32.174863] [237] RADIO
[21:24:32.177814] [237] RADIO_STATUS
[21:24:32.395984] [192] HEARTBEAT
[21:24:32.629997] [193] VFR_HUD
[21:24:33.199137] [238] RADIO
[21:24:33.202066] [238] RADIO_STATUS
[21:24:33.453121] [194] HEARTBEAT
[21:24:33.459066] [195] SYS_STATUS
[21:24:33.499109] [196] BATTERY_STATUS
[21:24:33.507020] [197] ATTITUDE_TARGET
[21:24:33.513026] [198] VFR_HUD
[21:24:34.244327] [239] RADIO
[21:24:34.247212] [239] RADIO_STATUS
[21:24:34.475183] [199] VFR_HUD
[21:24:34.478179] [200] HEARTBEAT
[21:24:35.050408] [201] VFR_HUD
[21:24:35.159335] [240] RADIO
[21:24:35.162262] [240] RADIO_STATUS
[21:24:35.399344] [202] HEARTBEAT
[21:24:35.407423] [203] ATTITUDE_TARGET
[21:24:35.849530] [204] VFR_HUD
[21:24:36.189589] [241] RADIO
[21:24:36.192428] [241] RADIO_STATUS
[21:24:36.430456] [205] HEARTBEAT
[21:24:36.659620] [206] VFR_HUD
[21:24:37.233615] [242] RADIO
[21:24:37.236586] [242] RADIO_STATUS
[21:24:37.466725] [207] HEARTBEAT
[21:24:37.473617] [208] SYS_STATUS
[21:24:37.593646] [209] BATTERY_STATUS
[21:24:37.705716] [210] ATTITUDE_TARGET
[21:24:37.710646] [211] VFR_HUD
[21:24:38.258750] [243] RADIO
[21:24:38.261665] [243] RADIO_STATUS
[21:24:38.378815] [212] VFR_HUD
[21:24:38.397850] [213] HEARTBEAT
[21:24:39.068884] [214] VFR_HUD
[21:24:39.177946] [244] RADIO
[21:24:39.180868] [244] RADIO_STATUS
[21:24:39.432945] [215] HEARTBEAT
[21:24:39.440927] [216] ATTITUDE_TARGET
[21:24:39.878945] [217] VFR_HUD
[21:24:40.218053] [245] RADIO
[21:24:40.221035] [245] RADIO_STATUS
[21:24:40.444044] [218] HEARTBEAT
[21:24:40.678101] [219] VFR_HUD
[21:24:41.247255] [246] RADIO
[21:24:41.250132] [246] RADIO_STATUS
[21:24:41.501322] [220] HEARTBEAT
[21:24:41.507161] [221] SYS_STATUS
[21:24:41.547228] [222] BATTERY_STATUS
[21:24:41.555257] [223] ATTITUDE_TARGET
[21:24:41.560200] [224] VFR_HUD
[21:24:42.287316] [247] RADIO
[21:24:42.290282] [247] RADIO_STATUS
[21:24:42.414308] [225] VFR_HUD
[21:24:42.416293] [226] HEARTBEAT
[21:24:43.103360] [227] VFR_HUD
[21:24:43.218338] [248] RADIO
[21:24:43.221302] [248] RADIO_STATUS
[21:24:43.447470] [228] HEARTBEAT
[21:24:43.454523] [229] ATTITUDE_TARGET
[21:24:43.897574] [230] VFR_HUD
[21:24:44.236511] [249] RADIO
[21:24:44.239483] [249] RADIO_STATUS
[21:24:44.472650] [231] HEARTBEAT
[21:24:44.587648] [232] VFR_HUD
[21:24:45.276685] [250] RADIO
[21:24:45.279670] [250] RADIO_STATUS
[21:24:45.404725] [233] HEARTBEAT
[21:24:45.411702] [234] SYS_STATUS
[21:24:45.533858] [235] BATTERY_STATUS
[21:24:45.534774] [236] EXTENDED_SYS_STATE
[21:24:45.542821] [237] ATTITUDE_TARGET
[21:24:45.547715] [238] VFR_HUD
[21:24:45.551708] [239] SYSTEM_TIME
[21:24:46.196820] [240] VFR_HUD
[21:24:46.224888] [251] RADIO
[21:24:46.226943] [251] RADIO_STATUS
[21:24:46.422918] [241] HEARTBEAT
[21:24:47.006948] [242] VFR_HUD
[21:24:47.227080] [252] RADIO
[21:24:47.229909] [252] RADIO_STATUS
[21:24:47.476995] [243] HEARTBEAT
[21:24:47.483961] [244] ATTITUDE_TARGET
[21:24:47.807069] [245] VFR_HUD
[21:24:48.266088] [253] RADIO
[21:24:48.269168] [253] RADIO_STATUS
[21:24:48.382269] [246] HEARTBEAT
[21:24:48.622258] [247] VFR_HUD
[21:24:49.296370] [254] RADIO
[21:24:49.299183] [254] RADIO_STATUS
[21:24:49.424269] [248] HEARTBEAT
[21:24:49.431280] [249] SYS_STATUS
[21:24:49.546337] [250] BATTERY_STATUS
[21:24:49.663323] [251] ATTITUDE_TARGET
[21:24:49.668298] [252] VFR_HUD
[21:24:50.232359] [253] VFR_HUD
[21:24:50.347507] [255] RADIO
[21:24:50.350364] [255] RADIO_STATUS
[21:24:50.461432] [254] HEARTBEAT
[21:24:51.026500] [255] VFR_HUD
[21:24:51.255601] [0] RADIO
[21:24:51.258498] [0] RADIO_STATUS
[21:24:51.377619] [0] HEARTBEAT
[21:24:51.494741] [1] ATTITUDE_TARGET
[21:24:51.841692] [2] VFR_HUD
[21:24:52.285649] [1] RADIO
[21:24:52.288743] [1] RADIO_STATUS
[21:24:52.401670] [3] HEARTBEAT
[21:24:52.636812] [4] VFR_HUD
[21:24:53.325930] [2] RADIO
[21:24:53.328769] [2] RADIO_STATUS
[21:24:53.453815] [5] HEARTBEAT
[21:24:53.460846] [6] SYS_STATUS
[21:24:53.578974] [7] BATTERY_STATUS
[21:24:53.586802] [8] ATTITUDE_TARGET
[21:24:53.616830] [9] VFR_HUD
[21:24:54.245956] [10] VFR_HUD
[21:24:54.279032] [3] RADIO
[21:24:54.281893] [3] RADIO_STATUS
[21:24:54.472026] [11] HEARTBEAT
[21:24:55.056132] [12] VFR_HUD
[21:24:55.275140] [4] RADIO
[21:24:55.278093] [4] RADIO_STATUS
[21:24:55.405165] [13] HEARTBEAT
[21:24:55.413098] [14] ATTITUDE_TARGET
[21:24:55.856302] [15] VFR_HUD
[21:24:56.320395] [5] RADIO
[21:24:56.323338] [5] RADIO_STATUS
[21:24:56.436306] [16] HEARTBEAT
[21:24:56.666342] [17] VFR_HUD
[21:24:57.345573] [6] RADIO
[21:24:57.347436] [6] RADIO_STATUS
[21:24:57.379573] [18] HEARTBEAT
[21:24:57.399562] [19] SYS_STATUS
[21:24:57.431561] [20] BATTERY_STATUS
[21:24:57.439591] [21] ATTITUDE_TARGET
[21:24:57.498561] [22] VFR_HUD
[21:24:58.275720] [23] VFR_HUD
[21:24:58.381654] [24] HEARTBEAT
[21:24:58.412596] [7] RADIO
[21:24:58.415572] [7] RADIO_STATUS
[21:24:59.075861] [25] VFR_HUD
[21:24:59.309698] [8] RADIO
[21:24:59.312641] [8] RADIO_STATUS
[21:24:59.439863] [26] HEARTBEAT
[21:24:59.447694] [27] ATTITUDE_TARGET
[21:24:59.890773] [28] VFR_HUD
[21:25:00.334899] [9] RADIO
[21:25:00.337808] [9] RADIO_STATUS
[21:25:00.450960] [29] HEARTBEAT
[21:25:00.685889] [30] VFR_HUD
[21:25:01.371119] [31] HEARTBEAT
[21:25:01.390964] [32] SYS_STATUS
[21:25:01.440014] [33] BATTERY_STATUS
[21:25:01.447002] [34] ATTITUDE_TARGET
[21:25:01.452065] [35] VFR_HUD
[21:25:01.455030] [10] RADIO
[21:25:01.457959] [10] RADIO_STATUS
[21:25:02.301153] [11] RADIO
[21:25:02.304089] [11] RADIO_STATUS
[21:25:02.428103] [36] VFR_HUD
[21:25:02.431092] [37] HEARTBEAT
[21:25:02.987299] [38] VFR_HUD
[21:25:03.326299] [12] RADIO
[21:25:03.329161] [12] RADIO_STATUS
[21:25:03.456238] [39] HEARTBEAT
[21:25:03.464231] [40] ATTITUDE_TARGET
[21:25:03.797274] [41] VFR_HUD
[21:25:04.371365] [13] RADIO
[21:25:04.374401] [13] RADIO_STATUS
[21:25:04.487389] [42] HEARTBEAT
[21:25:04.597227] [43] VFR_HUD
[21:25:05.395530] [14] RADIO
[21:25:05.398475] [14] RADIO_STATUS
[21:25:05.523596] [44] HEARTBEAT
[21:25:05.530485] [45] SYS_STATUS
[21:25:05.653601] [46] BATTERY_STATUS
[21:25:05.655485] [47] EXTENDED_SYS_STATE
[21:25:05.687524] [48] ATTITUDE_TARGET
[21:25:05.692573] [49] VFR_HUD
[21:25:05.695454] [50] SYSTEM_TIME
[21:25:06.206731] [51] VFR_HUD
[21:25:06.315617] [15] RADIO
[21:25:06.318573] [15] RADIO_STATUS
[21:25:06.431779] [52] HEARTBEAT
[21:25:07.021938] [53] VFR_HUD
[21:25:07.354872] [16] RADIO
[21:25:07.357687] [16] RADIO_STATUS
[21:25:07.484792] [54] HEARTBEAT
[21:25:07.492783] [55] ATTITUDE_TARGET
[21:25:07.815863] [56] VFR_HUD
[21:25:08.385024] [17] RADIO
[21:25:08.387883] [17] RADIO_STATUS
[21:25:08.501045] [57] HEARTBEAT
[21:25:08.630913] [58] VFR_HUD
[21:25:09.433089] [59] HEARTBEAT
[21:25:09.440002] [60] SYS_STATUS
[21:25:09.452145] [18] RADIO
[21:25:09.455021] [18] RADIO_STATUS
[21:25:09.554085] [61] BATTERY_STATUS
[21:25:09.672144] [62] ATTITUDE_TARGET
[21:25:09.677100] [63] VFR_HUD
[21:25:10.240175] [64] VFR_HUD
[21:25:10.356329] [19] RADIO
[21:25:10.358186] [19] RADIO_STATUS
[21:25:10.469328] [65] HEARTBEAT
[21:25:11.034303] [66] VFR_HUD
[21:25:11.374405] [20] RADIO
[21:25:11.377370] [20] RADIO_STATUS
[21:25:11.504347] [67] HEARTBEAT
[21:25:11.511335] [68] ATTITUDE_TARGET
[21:25:11.844375] [69] VFR_HUD
[21:25:12.410507] [70] HEARTBEAT
[21:25:12.523460] [21] RADIO
[21:25:12.526429] [21] RADIO_STATUS
[21:25:12.644671] [71] VFR_HUD
[21:25:13.443617] [22] RADIO
[21:25:13.446575] [22] RADIO_STATUS
[21:25:13.571701] [72] HEARTBEAT
[21:25:13.578660] [73] SYS_STATUS
[21:25:13.698667] [74] BATTERY_STATUS
[21:25:13.810717] [75] ATTITUDE_TARGET
[21:25:13.815741] [76] VFR_HUD
[21:25:14.253758] [77] VFR_HUD
[21:25:14.374782] [78] HEARTBEAT
[21:25:14.483790] [23] RADIO
[21:25:14.485715] [23] RADIO_STATUS
[21:25:15.063910] [79] VFR_HUD
[21:25:15.412903] [80] HEARTBEAT
[21:25:15.420870] [81] ATTITUDE_TARGET
[21:25:15.513036] [24] RADIO
[21:25:15.515882] [24] RADIO_STATUS
[21:25:15.864036] [82] VFR_HUD
[21:25:16.433041] [25] RADIO
[21:25:16.436061] [25] RADIO_STATUS
[21:25:16.549196] [83] HEARTBEAT
[21:25:16.673163] [84] VFR_HUD
[21:25:17.481289] [85] HEARTBEAT
[21:25:17.487225] [86] SYS_STATUS
[21:25:17.582214] [26] RADIO
[21:25:17.585245] [26] RADIO_STATUS
[21:25:17.623384] [87] BATTERY_STATUS
[21:25:17.650271] [88] ATTITUDE_TARGET
[21:25:17.655324] [89] VFR_HUD
[21:25:18.288418] [90] VFR_HUD
[21:25:18.400431] [91] HEARTBEAT
[21:25:18.425361] [27] RADIO
[21:25:18.428312] [27] RADIO_STATUS
[21:25:19.082463] [92] VFR_HUD
[21:25:19.422508] [28] RADIO
[21:25:19.425468] [28] RADIO_STATUS
[21:25:19.469578] [93] HEARTBEAT
[21:25:19.477624] [94] ATTITUDE_TARGET
[21:25:19.897638] [95] VFR_HUD
[21:25:20.457760] [96] HEARTBEAT
[21:25:20.571636] [29] RADIO
[21:25:20.574623] [29] RADIO_STATUS
[21:25:20.692685] [97] VFR_HUD
[21:25:21.382913] [98] HEARTBEAT
[21:25:21.402820] [99] SYS_STATUS
[21:25:21.446894] [100] BATTERY_STATUS
[21:25:21.453789] [101] ATTITUDE_TARGET
[21:25:21.458790] [102] VFR_HUD
[21:25:21.461756] [30] RADIO
[21:25:21.464837] [30] RADIO_STATUS
[21:25:22.417915] [31] RADIO
[21:25:22.420859] [31] RADIO_STATUS
[21:25:22.457863] [103] VFR_HUD
[21:25:22.461073] [104] HEARTBEAT
[21:25:22.994416] [105] VFR_HUD
[21:25:23.463084] [106] HEARTBEAT
[21:25:23.471124] [107] ATTITUDE_TARGET
[21:25:23.481011] [32] RADIO
[21:25:23.484111] [32] RADIO_STATUS
[21:25:23.804075] [108] VFR_HUD
[21:25:24.374262] [109] HEARTBEAT
[21:25:24.483163] [33] RADIO
[21:25:24.486139] [33] RADIO_STATUS
[21:25:24.603225] [110] VFR_HUD
[21:25:25.426318] [111] HEARTBEAT
[21:25:25.433251] [112] SYS_STATUS
[21:25:25.467263] [113] BATTERY_STATUS
[21:25:25.469203] [114] EXTENDED_SYS_STATE
[21:25:25.477279] [115] ATTITUDE_TARGET
[21:25:25.481247] [116] VFR_HUD
[21:25:25.485365] [117] SYSTEM_TIME
[21:25:25.528417] [34] RADIO
[21:25:25.530375] [34] RADIO_STATUS
[21:25:26.213400] [118] VFR_HUD
[21:25:26.438428] [119] HEARTBEAT
[21:25:26.470511] [35] RADIO
[21:25:26.473403] [35] RADIO_STATUS
[21:25:27.028464] [120] VFR_HUD
[21:25:27.472742] [36] RADIO
[21:25:27.475576] [36] RADIO_STATUS
[21:25:27.520629] [121] HEARTBEAT
[21:25:27.527667] [122] ATTITUDE_TARGET
[21:25:27.822700] [123] VFR_HUD
[21:25:28.398717] [124] HEARTBEAT
[21:25:28.517751] [37] RADIO
[21:25:28.520827] [37] RADIO_STATUS
[21:25:28.637679] [125] VFR_HUD
[21:25:29.440840] [126] HEARTBEAT
[21:25:29.446905] [127] SYS_STATUS
[21:25:29.459753] [38] RADIO
[21:25:29.462750] [38] RADIO_STATUS
[21:25:29.566902] [128] BATTERY_STATUS
[21:25:29.679866] [129] ATTITUDE_TARGET
[21:25:29.683899] [130] VFR_HUD
[21:25:30.242997] [131] VFR_HUD
[21:25:30.462020] [39] RADIO
[21:25:30.464987] [39] RADIO_STATUS
[21:25:30.578036] [132] HEARTBEAT
[21:25:31.043072] [133] VFR_HUD
[21:25:31.402109] [134] HEARTBEAT
[21:25:31.410087] [135] ATTITUDE_TARGET
[21:25:31.530208] [40] RADIO
[21:25:31.532082] [40] RADIO_STATUS
[21:25:31.852244] [136] VFR_HUD
[21:25:32.418278] [137] HEARTBEAT
[21:25:32.532235] [41] RADIO
[21:25:32.534147] [41] RADIO_STATUS
[21:25:32.652350] [138] VFR_HUD
[21:25:33.469413] [139] HEARTBEAT
[21:25:33.476376] [140] SYS_STATUS
[21:25:33.595504] [141] BATTERY_STATUS
[21:25:33.602393] [142] ATTITUDE_TARGET
[21:25:33.633483] [143] VFR_HUD
[21:25:33.660345] [42] RADIO
[21:25:33.663354] [42] RADIO_STATUS
[21:25:34.262458] [144] VFR_HUD
[21:25:34.377536] [145] HEARTBEAT
[21:25:34.491508] [43] RADIO
[21:25:34.494475] [43] RADIO_STATUS
[21:25:35.071634] [146] VFR_HUD
[21:25:35.420768] [147] HEARTBEAT
[21:25:35.428640] [148] ATTITUDE_TARGET
[21:25:35.520737] [44] RADIO
[21:25:35.523568] [44] RADIO_STATUS
[21:25:35.871644] [149] VFR_HUD
[21:25:36.446913] [150] HEARTBEAT
[21:25:36.565749] [45] RADIO
[21:25:36.568737] [45] RADIO_STATUS
[21:25:36.686745] [151] VFR_HUD
[21:25:37.489054] [152] HEARTBEAT
[21:25:37.495940] [153] SYS_STATUS
[21:25:37.590913] [46] RADIO
[21:25:37.593925] [46] RADIO_STATUS
[21:25:37.631044] [154] BATTERY_STATUS
[21:25:37.658022] [155] ATTITUDE_TARGET
[21:25:37.662879] [156] VFR_HUD
[21:25:38.295999] [157] VFR_HUD
[21:25:38.408025] [158] HEARTBEAT
[21:25:38.510054] [47] RADIO
[21:25:38.513092] [47] RADIO_STATUS
[21:25:39.091141] [159] VFR_HUD
[21:25:39.450167] [160] HEARTBEAT
[21:25:39.458286] [161] ATTITUDE_TARGET
[21:25:39.660176] [48] RADIO
[21:25:39.663146] [48] RADIO_STATUS
[21:25:39.780185] [162] VFR_HUD
[21:25:40.466364] [163] HEARTBEAT
[21:25:40.579392] [49] RADIO
[21:25:40.582282] [49] RADIO_STATUS
[21:25:40.700321] [164] VFR_HUD
[21:25:41.398425] [165] HEARTBEAT
[21:25:41.404485] [166] SYS_STATUS
[21:25:41.519459] [167] BATTERY_STATUS
[21:25:41.636475] [168] ATTITUDE_TARGET
[21:25:41.641510] [169] VFR_HUD
[21:25:41.647399] [50] RADIO
[21:25:41.650475] [50] RADIO_STATUS
[21:25:42.199650] [170] VFR_HUD
[21:25:42.430679] [171] HEARTBEAT
[21:25:42.539679] [51] RADIO
[21:25:42.542596] [51] RADIO_STATUS
[21:25:42.999678] [172] VFR_HUD
[21:25:43.468760] [173] HEARTBEAT
[21:25:43.476731] [174] ATTITUDE_TARGET
[21:25:43.568855] [52] RADIO
[21:25:43.571685] [52] RADIO_STATUS
[21:25:43.814768] [175] VFR_HUD
[21:25:44.375010] [176] HEARTBEAT
[21:25:44.609977] [177] VFR_HUD
[21:25:44.636886] [53] RADIO
[21:25:44.639000] [53] RADIO_STATUS
[21:25:45.432126] [178] HEARTBEAT
[21:25:45.439022] [179] SYS_STATUS
[21:25:45.473122] [180] BATTERY_STATUS
[21:25:45.474982] [181] EXTENDED_SYS_STATE
[21:25:45.482976] [182] ATTITUDE_TARGET
[21:25:45.487972] [183] VFR_HUD
[21:25:45.490961] [184] SYSTEM_TIME
[21:25:45.638113] [54] RADIO
[21:25:45.641011] [54] RADIO_STATUS
[21:25:46.219109] [185] VFR_HUD
[21:25:46.444277] [186] HEARTBEAT
[21:25:46.558214] [55] RADIO
[21:25:46.561117] [55] RADIO_STATUS
[21:25:47.034456] [187] VFR_HUD
[21:25:47.503397] [188] HEARTBEAT
[21:25:47.511279] [189] ATTITUDE_TARGET
[21:25:47.598287] [56] RADIO
[21:25:47.601239] [56] RADIO_STATUS
[21:25:47.829298] [190] VFR_HUD
[21:25:48.409417] [191] HEARTBEAT
[21:25:48.628476] [57] RADIO
[21:25:48.631361] [57] RADIO_STATUS
[21:25:48.748406] [192] VFR_HUD
[21:25:49.446613] [193] HEARTBEAT
[21:25:49.452562] [194] SYS_STATUS
[21:25:49.572540] [195] BATTERY_STATUS
[21:25:49.685562] [196] ATTITUDE_TARGET
[21:25:49.689485] [197] VFR_HUD
[21:25:49.695592] [58] RADIO
[21:25:49.698479] [58] RADIO_STATUS
[21:25:50.248639] [198] VFR_HUD
[21:25:50.478795] [199] HEARTBEAT
[21:25:50.592651] [59] RADIO
[21:25:50.595703] [59] RADIO_STATUS
[21:25:51.048829] [200] VFR_HUD
[21:25:51.407801] [201] HEARTBEAT
[21:25:51.415873] [202] ATTITUDE_TARGET
[21:25:51.617850] [60] RADIO
[21:25:51.620741] [60] RADIO_STATUS
[21:25:51.858918] [203] VFR_HUD
[21:25:52.423954] [204] HEARTBEAT
[21:25:52.657951] [205] VFR_HUD
[21:25:52.685025] [61] RADIO
[21:25:52.687883] [61] RADIO_STATUS
[21:25:53.476458] [206] HEARTBEAT
[21:25:53.482126] [207] SYS_STATUS
[21:25:53.601075] [208] BATTERY_STATUS
[21:25:53.609052] [209] ATTITUDE_TARGET
[21:25:53.639063] [210] VFR_HUD
[21:25:53.666219] [62] RADIO
[21:25:53.669117] [62] RADIO_STATUS
[21:25:54.268187] [211] VFR_HUD
[21:25:54.383198] [212] HEARTBEAT
[21:25:54.607212] [63] RADIO
[21:25:54.610247] [63] RADIO_STATUS
[21:25:55.083356] [213] VFR_HUD
[21:25:55.427406] [214] HEARTBEAT
[21:25:55.435448] [215] ATTITUDE_TARGET
[21:25:55.652337] [64] RADIO
[21:25:55.655265] [64] RADIO_STATUS
[21:25:55.877429] [216] VFR_HUD
[21:25:56.453485] [217] HEARTBEAT
[21:25:56.676500] [65] RADIO
[21:25:56.679693] [65] RADIO_STATUS
[21:25:56.715704] [218] VFR_HUD
[21:25:57.373656] [219] HEARTBEAT
[21:25:57.392588] [220] SYS_STATUS
[21:25:57.436564] [221] BATTERY_STATUS
[21:25:57.444792] [222] ATTITUDE_TARGET
[21:25:57.449902] [223] VFR_HUD
[21:25:57.721718] [66] RADIO
[21:25:57.724700] [66] RADIO_STATUS
[21:25:58.413047] [224] VFR_HUD
[21:25:58.415787] [225] HEARTBEAT
[21:25:58.641698] [67] RADIO
[21:25:58.644699] [67] RADIO_STATUS
[21:25:58.986912] [226] VFR_HUD
[21:25:59.455885] [227] HEARTBEAT
[21:25:59.463790] [228] ATTITUDE_TARGET
[21:25:59.665937] [68] RADIO
[21:25:59.668900] [68] RADIO_STATUS
[21:25:59.786901] [229] VFR_HUD
[21:26:00.473042] [230] HEARTBEAT
[21:26:00.596993] [231] VFR_HUD
[21:26:00.711067] [69] RADIO
[21:26:00.713974] [69] RADIO_STATUS
[21:26:01.405202] [232] HEARTBEAT
[21:26:01.411121] [233] SYS_STATUS
[21:26:01.526144] [234] BATTERY_STATUS
[21:26:01.644213] [235] ATTITUDE_TARGET
[21:26:01.648174] [236] VFR_HUD
[21:26:01.682080] [70] RADIO
[21:26:01.685168] [70] RADIO_STATUS
[21:26:02.212206] [237] VFR_HUD
[21:26:02.432255] [238] HEARTBEAT
[21:26:02.656367] [71] RADIO
[21:26:02.659325] [71] RADIO_STATUS
[21:26:03.006286] [239] VFR_HUD
[21:26:03.476398] [240] HEARTBEAT
[21:26:03.483369] [241] ATTITUDE_TARGET
[21:26:03.701384] [72] RADIO
[21:26:03.704444] [72] RADIO_STATUS
[21:26:03.821428] [242] VFR_HUD
[21:26:04.382490] [243] HEARTBEAT
[21:26:04.616519] [244] VFR_HUD
[21:26:04.643530] [73] RADIO
[21:26:04.646462] [73] RADIO_STATUS
[21:26:05.438699] [245] HEARTBEAT
[21:26:05.445744] [246] SYS_STATUS
[21:26:05.479626] [247] BATTERY_STATUS
[21:26:05.481657] [248] EXTENDED_SYS_STATE
[21:26:05.489696] [249] ATTITUDE_TARGET
[21:26:05.494854] [250] VFR_HUD
[21:26:05.497606] [251] SYSTEM_TIME
[21:26:05.770651] [74] RADIO
[21:26:05.773605] [74] RADIO_STATUS
[21:26:06.226822] [252] VFR_HUD
[21:26:06.451799] [253] HEARTBEAT
[21:26:06.685806] [75] RADIO
[21:26:06.688876] [75] RADIO_STATUS
[21:26:07.035872] [254] VFR_HUD
[21:26:07.371915] [255] HEARTBEAT
[21:26:07.394042] [0] ATTITUDE_TARGET
[21:26:07.714984] [76] RADIO
[21:26:07.718004] [76] RADIO_STATUS
[21:26:07.835926] [1] VFR_HUD
[21:26:08.417156] [2] HEARTBEAT
[21:26:08.646113] [3] VFR_HUD
[21:26:08.755048] [77] RADIO
[21:26:08.758016] [77] RADIO_STATUS
[21:26:09.453200] [4] HEARTBEAT
[21:26:09.460284] [5] SYS_STATUS
[21:26:09.580320] [6] BATTERY_STATUS
[21:26:09.692229] [7] ATTITUDE_TARGET
[21:26:09.697187] [8] VFR_HUD
[21:26:09.703261] [78] RADIO
[21:26:09.705144] [78] RADIO_STATUS
[21:26:10.255396] [9] VFR_HUD
[21:26:10.486339] [10] HEARTBEAT
[21:26:10.704374] [79] RADIO
[21:26:10.707272] [79] RADIO_STATUS
[21:26:11.055424] [11] VFR_HUD
[21:26:11.419484] [12] HEARTBEAT
[21:26:11.427565] [13] ATTITUDE_TARGET
[21:26:11.744560] [80] RADIO
[21:26:11.747491] [80] RADIO_STATUS
[21:26:11.865536] [14] VFR_HUD
[21:26:12.430777] [15] HEARTBEAT
[21:26:12.664731] [16] VFR_HUD
[21:26:12.691697] [81] RADIO
[21:26:12.694605] [81] RADIO_STATUS
[21:26:13.487745] [17] HEARTBEAT
[21:26:13.493838] [18] SYS_STATUS
[21:26:13.533737] [19] BATTERY_STATUS
[21:26:13.541867] [20] ATTITUDE_TARGET
[21:26:13.546705] [21] VFR_HUD
[21:26:13.693770] [82] RADIO
[21:26:13.696707] [82] RADIO_STATUS
[21:26:14.399821] [22] VFR_HUD
[21:26:14.402809] [23] HEARTBEAT
[21:26:14.733863] [83] RADIO
[21:26:14.736857] [83] RADIO_STATUS
[21:26:15.090056] [24] VFR_HUD
[21:26:15.434081] [25] HEARTBEAT
[21:26:15.441009] [26] ATTITUDE_TARGET
[21:26:15.763023] [84] RADIO
[21:26:15.765979] [84] RADIO_STATUS
[21:26:15.884022] [27] VFR_HUD
[21:26:16.459102] [28] HEARTBEAT
[21:26:16.699149] [29] VFR_HUD
[21:26:16.815126] [85] RADIO
[21:26:16.818119] [85] RADIO_STATUS
[21:26:17.391287] [30] HEARTBEAT
[21:26:17.398311] [31] SYS_STATUS
[21:26:17.517351] [32] BATTERY_STATUS
[21:26:17.524258] [33] ATTITUDE_TARGET
[21:26:17.555361] [34] VFR_HUD
[21:26:17.723296] [86] RADIO
[21:26:17.726333] [86] RADIO_STATUS
[21:26:18.184401] [35] VFR_HUD
[21:26:18.409453] [36] HEARTBEAT
[21:26:18.753535] [87] RADIO
[21:26:18.756436] [87] RADIO_STATUS
[21:26:18.993905] [37] VFR_HUD
[21:26:19.462656] [38] HEARTBEAT
[21:26:19.470530] [39] ATTITUDE_TARGET
[21:26:19.793651] [40] VFR_HUD
[21:26:19.820614] [88] RADIO
[21:26:19.823577] [88] RADIO_STATUS
[21:26:20.478713] [41] HEARTBEAT
[21:26:20.608685] [42] VFR_HUD
[21:26:20.729657] [89] RADIO
[21:26:20.732646] [89] RADIO_STATUS
[21:26:21.410805] [43] HEARTBEAT
[21:26:21.417794] [44] SYS_STATUS
[21:26:21.532774] [45] BATTERY_STATUS
[21:26:21.649843] [46] ATTITUDE_TARGET
[21:26:21.654763] [47] VFR_HUD
[21:26:21.742788] [90] RADIO
[21:26:21.745774] [90] RADIO_STATUS
[21:26:22.218869] [48] VFR_HUD
[21:26:22.438866] [49] HEARTBEAT
[21:26:22.787933] [91] RADIO
[21:26:22.790880] [91] RADIO_STATUS
[21:26:23.012947] [50] VFR_HUD
[21:26:23.483025] [51] HEARTBEAT
[21:26:23.490034] [52] ATTITUDE_TARGET
[21:26:23.812162] [92] RADIO
[21:26:23.815000] [92] RADIO_STATUS
[21:26:23.851055] [53] VFR_HUD
[21:26:24.389231] [54] HEARTBEAT
[21:26:24.623160] [55] VFR_HUD
[21:26:24.732182] [93] RADIO
[21:26:24.735220] [93] RADIO_STATUS
[21:26:25.440259] [56] HEARTBEAT
[21:26:25.447255] [57] SYS_STATUS
[21:26:25.568393] [58] BATTERY_STATUS
[21:26:25.570301] [59] EXTENDED_SYS_STATE
[21:26:25.578396] [60] ATTITUDE_TARGET
[21:26:25.583242] [61] VFR_HUD
[21:26:25.586228] [62] SYSTEM_TIME
[21:26:25.777324] [94] RADIO
[21:26:25.780359] [94] RADIO_STATUS
[21:26:26.232389] [63] VFR_HUD
[21:26:26.458456] [64] HEARTBEAT
[21:26:26.802404] [95] RADIO
[21:26:26.805484] [95] RADIO_STATUS
[21:26:27.042448] [65] VFR_HUD
[21:26:27.378636] [66] HEARTBEAT
[21:26:27.400529] [67] ATTITUDE_TARGET
[21:26:27.842752] [68] VFR_HUD
[21:26:27.874642] [96] RADIO
[21:26:27.877611] [96] RADIO_STATUS
[21:26:28.423711] [69] HEARTBEAT
[21:26:28.652692] [70] VFR_HUD
[21:26:28.761848] [97] RADIO
[21:26:28.764660] [97] RADIO_STATUS
[21:26:29.459902] [71] HEARTBEAT
[21:26:29.466848] [72] SYS_STATUS
[21:26:29.581831] [73] BATTERY_STATUS
[21:26:29.698932] [74] ATTITUDE_TARGET
[21:26:29.703758] [75] VFR_HUD
[21:26:29.791860] [98] RADIO
[21:26:29.794820] [98] RADIO_STATUS
[21:26:30.261973] [76] VFR_HUD
[21:26:30.373026] [77] HEARTBEAT
[21:26:30.836960] [99] RADIO
[21:26:30.839933] [99] RADIO_STATUS
[21:26:31.062104] [78] VFR_HUD
[21:26:31.427098] [79] HEARTBEAT
[21:26:31.434066] [80] ATTITUDE_TARGET
[21:26:31.861095] [100] RADIO
[21:26:31.864096] [100] RADIO_STATUS
[21:26:31.900263] [81] VFR_HUD
[21:26:32.437337] [82] HEARTBEAT
[21:26:32.674891] [83] VFR_HUD
[21:26:32.781644] [101] RADIO
[21:26:32.784384] [101] RADIO_STATUS
[21:26:33.497491] [84] HEARTBEAT
[21:26:33.501344] [85] SYS_STATUS
[21:26:33.540421] [86] BATTERY_STATUS
[21:26:33.548433] [87] ATTITUDE_TARGET
[21:26:33.553410] [88] VFR_HUD
[21:26:33.821412] [102] RADIO
[21:26:33.824382] [102] RADIO_STATUS
[21:26:34.413988] [89] VFR_HUD
[21:26:34.415566] [90] HEARTBEAT
[21:26:34.850741] [103] RADIO
[21:26:34.853657] [103] RADIO_STATUS
[21:26:34.976771] [91] VFR_HUD
[21:26:35.440816] [92] HEARTBEAT
[21:26:35.449012] [93] ATTITUDE_TARGET
[21:26:35.781738] [94] VFR_HUD
[21:26:35.890802] [104] RADIO
[21:26:35.893692] [104] RADIO_STATUS
[21:26:36.471889] [95] HEARTBEAT
[21:26:36.582139] [96] VFR_HUD
[21:26:36.810858] [105] RADIO
[21:26:36.814293] [105] RADIO_STATUS
[21:26:37.399101] [97] HEARTBEAT
[21:26:37.405919] [98] SYS_STATUS
[21:26:37.524028] [99] BATTERY_STATUS
[21:26:37.532113] [100] ATTITUDE_TARGET
[21:26:37.562013] [101] VFR_HUD
[21:26:37.840942] [106] RADIO
[21:26:37.844317] [106] RADIO_STATUS
[21:26:38.191222] [102] VFR_HUD
[21:26:38.417170] [103] HEARTBEAT
[21:26:38.880235] [107] RADIO
[21:26:38.883082] [107] RADIO_STATUS
[21:26:39.006084] [104] VFR_HUD
[21:26:39.470269] [105] HEARTBEAT
[21:26:39.478163] [106] ATTITUDE_TARGET
[21:26:39.801229] [107] VFR_HUD
[21:26:39.828199] [108] RADIO
[21:26:39.831302] [108] RADIO_STATUS
[21:26:40.376430] [108] HEARTBEAT
[21:26:40.616432] [109] VFR_HUD
[21:26:40.831119] [109] RADIO
[21:26:40.833340] [109] RADIO_STATUS
[21:26:41.418499] [110] HEARTBEAT
[21:26:41.424475] [111] SYS_STATUS
[21:26:41.539576] [112] BATTERY_STATUS
[21:26:41.657668] [113] ATTITUDE_TARGET
[21:26:41.662490] [114] VFR_HUD
[21:26:41.869659] [110] RADIO
[21:26:41.872585] [110] RADIO_STATUS
[21:26:42.225848] [115] VFR_HUD
[21:26:42.445797] [116] HEARTBEAT
[21:26:42.899730] [111] RADIO
[21:26:42.902659] [111] RADIO_STATUS
[21:26:43.020640] [117] VFR_HUD
[21:26:43.489915] [118] HEARTBEAT
[21:26:43.497755] [119] ATTITUDE_TARGET
[21:26:43.830008] [120] VFR_HUD
[21:26:43.939881] [112] RADIO
[21:26:43.942721] [112] RADIO_STATUS
[21:26:44.396006] [121] HEARTBEAT
[21:26:44.633957] [122] VFR_HUD
[21:26:44.864061] [113] RADIO
[21:26:44.866868] [113] RADIO_STATUS
[21:26:45.447219] [123] HEARTBEAT
[21:26:45.454181] [124] SYS_STATUS
[21:26:45.576361] [125] BATTERY_STATUS
[21:26:45.577169] [126] EXTENDED_SYS_STATE
[21:26:45.585124] [127] ATTITUDE_TARGET
[21:26:45.590017] [128] VFR_HUD
[21:26:45.594021] [129] SYSTEM_TIME
[21:26:45.889195] [114] RADIO
[21:26:45.892092] [114] RADIO_STATUS
[21:26:46.239261] [130] VFR_HUD
[21:26:46.466014] [131] HEARTBEAT
[21:26:46.934244] [115] RADIO
[21:26:46.937161] [115] RADIO_STATUS
[21:26:47.050040] [132] VFR_HUD
[21:26:47.398338] [133] HEARTBEAT
[21:26:47.406303] [134] ATTITUDE_TARGET
[21:26:47.849580] [135] VFR_HUD
[21:26:47.881314] [116] RADIO
[21:26:47.884306] [116] RADIO_STATUS
[21:26:48.424605] [136] HEARTBEAT
[21:26:48.661912] [137] VFR_HUD
[21:26:48.878486] [117] RADIO
[21:26:48.881445] [117] RADIO_STATUS
[21:26:49.466633] [138] HEARTBEAT
[21:26:49.473598] [139] SYS_STATUS
[21:26:49.588571] [140] BATTERY_STATUS
[21:26:49.706554] [141] ATTITUDE_TARGET
[21:26:49.710554] [142] VFR_HUD
[21:26:49.951633] [118] RADIO
[21:26:49.954614] [118] RADIO_STATUS
[21:26:50.274789] [143] VFR_HUD
[21:26:50.386708] [144] HEARTBEAT
[21:26:50.843729] [119] RADIO
[21:26:50.846677] [119] RADIO_STATUS
[21:26:51.069807] [145] VFR_HUD
[21:26:51.433857] [146] HEARTBEAT
[21:26:51.441917] [147] ATTITUDE_TARGET
[21:26:51.868862] [120] RADIO
[21:26:51.871826] [120] RADIO_STATUS
[21:26:51.906897] [148] VFR_HUD
[21:26:52.445063] [149] HEARTBEAT
[21:26:52.678949] [150] VFR_HUD
[21:26:52.913076] [121] RADIO
[21:26:52.916074] [121] RADIO_STATUS
[21:26:53.501109] [151] HEARTBEAT
[21:26:53.508076] [152] SYS_STATUS
[21:26:53.548162] [153] BATTERY_STATUS
[21:26:53.556200] [154] ATTITUDE_TARGET
[21:26:53.560037] [155] VFR_HUD
[21:26:53.938083] [122] RADIO
[21:26:53.941063] [122] RADIO_STATUS
[21:26:54.289227] [156] VFR_HUD
[21:26:54.409249] [157] HEARTBEAT
[21:26:54.858408] [123] RADIO
[21:26:54.861262] [123] RADIO_STATUS
[21:26:54.983280] [158] VFR_HUD
[21:26:55.447431] [159] HEARTBEAT
[21:26:55.455474] [160] ATTITUDE_TARGET
[21:26:55.788413] [161] VFR_HUD
[21:26:55.897420] [124] RADIO
[21:26:55.900559] [124] RADIO_STATUS
[21:26:56.479511] [162] HEARTBEAT
[21:26:56.588601] [163] VFR_HUD
[21:26:56.927682] [125] RADIO
[21:26:56.930514] [125] RADIO_STATUS
[21:26:57.410698] [164] HEARTBEAT
[21:26:57.417651] [165] SYS_STATUS
[21:26:57.457656] [166] BATTERY_STATUS
[21:26:57.465636] [167] ATTITUDE_TARGET
[21:26:57.469600] [168] VFR_HUD
[21:26:57.967728] [126] RADIO
[21:26:57.970661] [126] RADIO_STATUS
[21:26:58.433883] [169] VFR_HUD
[21:26:58.436879] [170] HEARTBEAT
[21:26:58.886974] [127] RADIO
[21:26:58.889930] [127] RADIO_STATUS
[21:26:59.012885] [171] VFR_HUD
[21:26:59.482065] [172] HEARTBEAT
[21:26:59.489948] [173] ATTITUDE_TARGET
[21:26:59.807980] [174] VFR_HUD
[21:26:59.916989] [128] RADIO
[21:26:59.919955] [128] RADIO_STATUS
[21:27:00.383133] [175] HEARTBEAT
[21:27:00.623070] [176] VFR_HUD
[21:27:00.957307] [129] RADIO
[21:27:00.960104] [129] RADIO_STATUS
[21:27:01.425309] [177] HEARTBEAT
[21:27:01.432187] [178] SYS_STATUS
[21:27:01.552202] [179] BATTERY_STATUS
[21:27:01.664214] [180] ATTITUDE_TARGET
[21:27:01.669170] [181] VFR_HUD
[21:27:01.987210] [130] RADIO
[21:27:01.990178] [130] RADIO_STATUS
[21:27:02.227250] [182] VFR_HUD
[21:27:02.453323] [183] HEARTBEAT
[21:27:02.906426] [131] RADIO
[21:27:02.909326] [131] RADIO_STATUS
[21:27:03.027393] [184] VFR_HUD
[21:27:03.372428] [185] HEARTBEAT
[21:27:03.395453] [186] ATTITUDE_TARGET
[21:27:03.837573] [187] VFR_HUD
[21:27:03.946527] [132] RADIO
[21:27:03.949393] [132] RADIO_STATUS
[21:27:04.402583] [188] HEARTBEAT
[21:27:04.636717] [189] VFR_HUD
[21:27:04.976664] [133] RADIO
[21:27:04.979622] [133] RADIO_STATUS
[21:27:05.454770] [190] HEARTBEAT
[21:27:05.460718] [191] SYS_STATUS
[21:27:05.582723] [192] BATTERY_STATUS
[21:27:05.584688] [193] EXTENDED_SYS_STATE
[21:27:05.591835] [194] ATTITUDE_TARGET
[21:27:05.596711] [195] VFR_HUD
[21:27:05.600711] [196] SYSTEM_TIME
[21:27:06.015943] [134] RADIO
[21:27:06.018792] [134] RADIO_STATUS
[21:27:06.246842] [197] VFR_HUD
[21:27:06.471897] [198] HEARTBEAT
[21:27:06.936041] [135] RADIO
[21:27:06.937925] [135] RADIO_STATUS
[21:27:07.056030] [199] VFR_HUD
[21:27:07.406003] [200] HEARTBEAT
[21:27:07.413086] [201] ATTITUDE_TARGET
[21:27:07.856174] [202] VFR_HUD
[21:27:07.965109] [136] RADIO
[21:27:07.968093] [136] RADIO_STATUS
[21:27:08.431165] [203] HEARTBEAT
[21:27:08.671253] [204] VFR_HUD
[21:27:09.005345] [137] RADIO
[21:27:09.008181] [137] RADIO_STATUS
[21:27:09.473326] [205] HEARTBEAT
[21:27:09.480290] [206] SYS_STATUS
[21:27:09.596191] [207] BATTERY_STATUS
[21:27:09.713233] [208] ATTITUDE_TARGET
[21:27:09.717314] [209] VFR_HUD
[21:27:09.958388] [138] RADIO
[21:27:09.961347] [138] RADIO_STATUS
[21:27:10.281489] [210] VFR_HUD
[21:27:10.392415] [211] HEARTBEAT
[21:27:10.954714] [139] RADIO
[21:27:10.957532] [139] RADIO_STATUS
[21:27:11.075516] [212] VFR_HUD
[21:27:11.439640] [213] HEARTBEAT
[21:27:11.447535] [214] ATTITUDE_TARGET
[21:27:11.890703] [215] VFR_HUD
[21:27:12.011752] [140] RADIO
[21:27:12.014623] [140] RADIO_STATUS
[21:27:12.450773] [216] HEARTBEAT
[21:27:12.575828] [217] VFR_HUD
[21:27:13.024788] [141] RADIO
[21:27:13.027753] [141] RADIO_STATUS
[21:27:13.370968] [218] HEARTBEAT
[21:27:13.390826] [219] SYS_STATUS
[21:27:13.438956] [220] BATTERY_STATUS
[21:27:13.446799] [221] ATTITUDE_TARGET
[21:27:13.451788] [222] VFR_HUD
[21:27:14.066047] [142] RADIO
[21:27:14.068877] [142] RADIO_STATUS
[21:27:14.428081] [223] VFR_HUD
[21:27:14.429980] [224] HEARTBEAT
[21:27:14.987047] [225] VFR_HUD
[21:27:15.025841] [143] RADIO
[21:27:15.025982] [143] RADIO_STATUS
[21:27:15.456249] [226] HEARTBEAT
[21:27:15.463093] [227] ATTITUDE_TARGET
[21:27:15.796154] [228] VFR_HUD
[21:27:16.016268] [144] RADIO
[21:27:16.019506] [144] RADIO_STATUS
[21:27:16.487353] [229] HEARTBEAT
[21:27:16.596272] [230] VFR_HUD
[21:27:17.061445] [145] RADIO
[21:27:17.064338] [145] RADIO_STATUS
[21:27:17.419523] [231] HEARTBEAT
[21:27:17.426385] [232] SYS_STATUS
[21:27:17.465414] [233] BATTERY_STATUS
[21:27:17.473385] [234] ATTITUDE_TARGET
[21:27:17.478350] [235] VFR_HUD
[21:27:18.085444] [146] RADIO
[21:27:18.088435] [146] RADIO_STATUS
[21:27:18.442575] [236] VFR_HUD
[21:27:18.445479] [237] HEARTBEAT
[21:27:19.005604] [147] RADIO
[21:27:19.008706] [147] RADIO_STATUS
[21:27:19.044594] [238] VFR_HUD
[21:27:19.490841] [239] HEARTBEAT
[21:27:19.498632] [240] ATTITUDE_TARGET
[21:27:19.815807] [241] VFR_HUD
[21:27:20.050749] [148] RADIO
[21:27:20.053718] [148] RADIO_STATUS
[21:27:20.391910] [242] HEARTBEAT
[21:27:20.630834] [243] VFR_HUD
[21:27:21.074885] [149] RADIO
[21:27:21.077838] [149] RADIO_STATUS
[21:27:21.433109] [244] HEARTBEAT
[21:27:21.439983] [245] SYS_STATUS
[21:27:21.559991] [246] BATTERY_STATUS
[21:27:21.672114] [247] ATTITUDE_TARGET
[21:27:21.676956] [248] VFR_HUD
[21:27:22.120039] [150] RADIO
[21:27:22.122992] [150] RADIO_STATUS
[21:27:22.236138] [249] VFR_HUD
[21:27:22.466102] [250] HEARTBEAT
[21:27:23.036185] [251] VFR_HUD
[21:27:23.068162] [151] RADIO
[21:27:23.071280] [151] RADIO_STATUS
[21:27:23.395383] [252] HEARTBEAT
[21:27:23.402220] [253] ATTITUDE_TARGET
[21:27:23.845321] [254] VFR_HUD
[21:27:24.064367] [152] RADIO
[21:27:24.067188] [152] RADIO_STATUS
[21:27:24.411471] [255] HEARTBEAT
[21:27:24.645311] [0] VFR_HUD
[21:27:25.109486] [153] RADIO
[21:27:25.112321] [153] RADIO_STATUS
[21:27:25.462969] [1] HEARTBEAT
[21:27:25.469433] [2] SYS_STATUS
[21:27:25.591573] [3] BATTERY_STATUS
[21:27:25.592447] [4] EXTENDED_SYS_STATE
[21:27:25.600458] [5] ATTITUDE_TARGET
[21:27:25.605425] [6] VFR_HUD
[21:27:25.608498] [7] SYSTEM_TIME
[21:27:26.024499] [154] RADIO
[21:27:26.027434] [154] RADIO_STATUS
[21:27:26.255661] [8] VFR_HUD
[21:27:26.480616] [9] HEARTBEAT
[21:27:27.054642] [155] RADIO
[21:27:27.057636] [155] RADIO_STATUS
[21:27:27.092672] [10] VFR_HUD
[21:27:27.414824] [11] HEARTBEAT
[21:27:27.421715] [12] ATTITUDE_TARGET
[21:27:27.864832] [13] VFR_HUD
[21:27:28.093978] [156] RADIO
[21:27:28.096768] [156] RADIO_STATUS
[21:27:28.439937] [14] HEARTBEAT
[21:27:28.679957] [15] VFR_HUD
[21:27:29.124000] [157] RADIO
[21:27:29.126889] [157] RADIO_STATUS
[21:27:29.482094] [16] HEARTBEAT
[21:27:29.488935] [17] SYS_STATUS
[21:27:29.604028] [18] BATTERY_STATUS
[21:27:29.721075] [19] ATTITUDE_TARGET
[21:27:29.725992] [20] VFR_HUD
[21:27:30.164063] [158] RADIO
[21:27:30.167084] [158] RADIO_STATUS
[21:27:30.290076] [21] VFR_HUD
[21:27:30.401133] [22] HEARTBEAT
[21:27:31.084235] [23] VFR_HUD
[21:27:31.115123] [159] RADIO
[21:27:31.118130] [159] RADIO_STATUS
[21:27:31.443208] [24] HEARTBEAT
[21:27:31.451319] [25] ATTITUDE_TARGET
[21:27:31.894421] [26] VFR_HUD
[21:27:32.113366] [160] RADIO
[21:27:32.116272] [160] RADIO_STATUS
[21:27:32.460449] [27] HEARTBEAT
[21:27:32.584492] [28] VFR_HUD
[21:27:33.153426] [161] RADIO
[21:27:33.156445] [161] RADIO_STATUS
[21:27:33.391545] [29] HEARTBEAT
[21:27:33.398423] [30] SYS_STATUS
[21:27:33.513510] [31] BATTERY_STATUS
[21:27:33.630554] [32] ATTITUDE_TARGET
[21:27:33.635551] [33] VFR_HUD
[21:27:34.073705] [162] RADIO
[21:27:34.076542] [162] RADIO_STATUS
[21:27:34.194660] [34] VFR_HUD
[21:27:34.424676] [35] HEARTBEAT
[21:27:34.993854] [36] VFR_HUD
[21:27:35.103745] [163] RADIO
[21:27:35.106729] [163] RADIO_STATUS
[21:27:35.462929] [37] HEARTBEAT
[21:27:35.470851] [38] ATTITUDE_TARGET
[21:27:35.808880] [39] VFR_HUD
[21:27:36.142933] [164] RADIO
[21:27:36.145875] [164] RADIO_STATUS
[21:27:36.375102] [40] HEARTBEAT
[21:27:36.604088] [41] VFR_HUD
[21:27:37.173027] [165] RADIO
[21:27:37.176031] [165] RADIO_STATUS
[21:27:37.426079] [42] HEARTBEAT
[21:27:37.433042] [43] SYS_STATUS
[21:27:37.473148] [44] BATTERY_STATUS
[21:27:37.480062] [45] ATTITUDE_TARGET
[21:27:37.485155] [46] VFR_HUD
[21:27:38.093129] [166] RADIO
[21:27:38.096109] [166] RADIO_STATUS
[21:27:38.449223] [47] VFR_HUD
[21:27:38.452187] [48] HEARTBEAT
[21:27:39.028285] [49] VFR_HUD
[21:27:39.144240] [167] RADIO
[21:27:39.147210] [167] RADIO_STATUS
[21:27:39.497537] [50] HEARTBEAT
[21:27:39.505364] [51] ATTITUDE_TARGET
[21:27:39.823338] [52] VFR_HUD
[21:27:40.162376] [168] RADIO
[21:27:40.165340] [168] RADIO_STATUS
[21:27:40.403466] [53] HEARTBEAT
[21:27:40.633454] [54] VFR_HUD
[21:27:41.202565] [169] RADIO
[21:27:41.205553] [169] RADIO_STATUS
[21:27:41.440608] [55] HEARTBEAT
[21:27:41.447581] [56] SYS_STATUS
[21:27:41.567612] [57] BATTERY_STATUS
[21:27:41.679763] [58] ATTITUDE_TARGET
[21:27:41.684566] [59] VFR_HUD
[21:27:42.126692] [170] RADIO
[21:27:42.129757] [170] RADIO_STATUS
[21:27:42.242657] [60] VFR_HUD
[21:27:42.473767] [61] HEARTBEAT
[21:27:43.042869] [62] VFR_HUD
[21:27:43.151902] [171] RADIO
[21:27:43.154758] [171] RADIO_STATUS
[21:27:43.401847] [63] HEARTBEAT
[21:27:43.409850] [64] ATTITUDE_TARGET
[21:27:43.851826] [65] VFR_HUD
[21:27:44.196964] [172] RADIO
[21:27:44.200007] [172] RADIO_STATUS
[21:27:44.418065] [66] HEARTBEAT
[21:27:44.652028] [67] VFR_HUD
[21:27:45.116058] [173] RADIO
[21:27:45.119098] [173] RADIO_STATUS
[21:27:45.474211] [68] HEARTBEAT
[21:27:45.481081] [69] SYS_STATUS
[21:27:45.515209] [70] BATTERY_STATUS
[21:27:45.517079] [71] EXTENDED_SYS_STATE
[21:27:45.525084] [72] ATTITUDE_TARGET
[21:27:45.530072] [73] VFR_HUD
[21:27:45.533111] [74] SYSTEM_TIME
[21:27:46.144229] [174] RADIO
[21:27:46.147281] [174] RADIO_STATUS
[21:27:46.185210] [75] VFR_HUD
[21:27:46.377364] [76] HEARTBEAT
[21:27:47.076463] [77] VFR_HUD
[21:27:47.197482] [175] RADIO
[21:27:47.200322] [175] RADIO_STATUS
[21:27:47.421412] [78] HEARTBEAT
[21:27:47.428395] [79] ATTITUDE_TARGET
[21:27:47.871465] [80] VFR_HUD
[21:27:48.210596] [176] RADIO
[21:27:48.213465] [176] RADIO_STATUS
[21:27:48.446516] [81] HEARTBEAT
[21:27:48.686512] [82] VFR_HUD
[21:27:49.255702] [177] RADIO
[21:27:49.258661] [177] RADIO_STATUS
[21:27:49.366945] [83] HEARTBEAT
[21:27:49.386685] [84] SYS_STATUS
[21:27:49.430703] [85] BATTERY_STATUS
[21:27:49.437657] [86] ATTITUDE_TARGET
[21:27:49.442623] [87] VFR_HUD
[21:27:50.175798] [178] RADIO
[21:27:50.178759] [178] RADIO_STATUS
[21:27:50.406786] [88] VFR_HUD
[21:27:50.409783] [89] HEARTBEAT
[21:27:50.980881] [90] VFR_HUD
[21:27:51.200078] [179] RADIO
[21:27:51.202934] [179] RADIO_STATUS
[21:27:51.449948] [91] HEARTBEAT
[21:27:51.458023] [92] ATTITUDE_TARGET
[21:27:51.780963] [93] VFR_HUD
[21:27:52.245062] [180] RADIO
[21:27:52.247983] [180] RADIO_STATUS
[21:27:52.466226] [94] HEARTBEAT
[21:27:52.590086] [95] VFR_HUD
[21:27:53.160138] [181] RADIO
[21:27:53.163124] [181] RADIO_STATUS
[21:27:53.398203] [96] HEARTBEAT
[21:27:53.405222] [97] SYS_STATUS
[21:27:53.519238] [98] BATTERY_STATUS
[21:27:53.637388] [99] ATTITUDE_TARGET
[21:27:53.642307] [100] VFR_HUD
[21:27:54.189449] [182] RADIO
[21:27:54.192345] [182] RADIO_STATUS
[21:27:54.228329] [101] VFR_HUD
[21:27:54.425460] [102] HEARTBEAT
[21:27:55.000427] [103] VFR_HUD
[21:27:55.229543] [183] RADIO
[21:27:55.232402] [183] RADIO_STATUS
[21:27:55.469599] [104] HEARTBEAT
[21:27:55.477547] [105] ATTITUDE_TARGET
[21:27:55.815624] [106] VFR_HUD
[21:27:56.259661] [184] RADIO
[21:27:56.262661] [184] RADIO_STATUS
[21:27:56.375756] [107] HEARTBEAT
[21:27:56.609693] [108] VFR_HUD
[21:27:57.178750] [185] RADIO
[21:27:57.181744] [185] RADIO_STATUS
[21:27:57.427938] [109] HEARTBEAT
[21:27:57.433831] [110] SYS_STATUS
[21:27:57.552816] [111] BATTERY_STATUS
[21:27:57.560802] [112] ATTITUDE_TARGET
[21:27:57.590817] [113] VFR_HUD
[21:27:58.219895] [114] VFR_HUD
[21:27:58.246866] [186] RADIO
[21:27:58.249853] [186] RADIO_STATUS
[21:27:58.445109] [115] HEARTBEAT
[21:27:59.030017] [116] VFR_HUD
[21:27:59.249053] [187] RADIO
[21:27:59.252137] [187] RADIO_STATUS
[21:27:59.499169] [117] HEARTBEAT
[21:27:59.507066] [118] ATTITUDE_TARGET
[21:27:59.830151] [119] VFR_HUD
[21:28:00.289310] [188] RADIO
[21:28:00.292156] [188] RADIO_STATUS
[21:28:00.410373] [120] HEARTBEAT
[21:28:00.639311] [121] VFR_HUD
[21:28:01.212748] [189] RADIO
[21:28:01.215293] [189] RADIO_STATUS
[21:28:01.447434] [122] HEARTBEAT
[21:28:01.454389] [123] SYS_STATUS
[21:28:01.568469] [124] BATTERY_STATUS
[21:28:01.686467] [125] ATTITUDE_TARGET
[21:28:01.690550] [126] VFR_HUD
[21:28:02.238604] [190] RADIO
[21:28:02.241497] [190] RADIO_STATUS
[21:28:02.359598] [127] VFR_HUD
[21:28:02.377600] [128] HEARTBEAT
[21:28:03.049797] [129] VFR_HUD
[21:28:03.278659] [191] RADIO
[21:28:03.281648] [191] RADIO_STATUS
[21:28:03.413792] [130] HEARTBEAT
[21:28:03.421725] [131] ATTITUDE_TARGET
[21:28:03.864855] [132] VFR_HUD
[21:28:04.197941] [192] RADIO
[21:28:04.200915] [192] RADIO_STATUS
[21:28:04.424907] [133] HEARTBEAT
[21:28:04.659016] [134] VFR_HUD
[21:28:05.227948] [193] RADIO
[21:28:05.230913] [193] RADIO_STATUS
[21:28:05.481145] [135] HEARTBEAT
[21:28:05.487996] [136] SYS_STATUS
[21:28:05.522046] [137] BATTERY_STATUS
[21:28:05.524112] [138] EXTENDED_SYS_STATE
[21:28:05.532009] [139] ATTITUDE_TARGET
[21:28:05.537005] [140] VFR_HUD
[21:28:05.539980] [141] SYSTEM_TIME
[21:28:06.269134] [142] VFR_HUD
[21:28:06.296153] [194] RADIO
[21:28:06.299008] [194] RADIO_STATUS
[21:28:06.384083] [143] HEARTBEAT
[21:28:07.083370] [144] VFR_HUD
[21:28:07.297316] [195] RADIO
[21:28:07.300146] [195] RADIO_STATUS
[21:28:07.427272] [145] HEARTBEAT
[21:28:07.435205] [146] ATTITUDE_TARGET
[21:28:07.878233] [147] VFR_HUD
[21:28:08.337390] [196] RADIO
[21:28:08.340376] [196] RADIO_STATUS
[21:28:08.458319] [148] HEARTBEAT
[21:28:08.688417] [149] VFR_HUD
[21:28:09.262379] [197] RADIO
[21:28:09.265367] [197] RADIO_STATUS
[21:28:09.373445] [150] HEARTBEAT
[21:28:09.393841] [151] SYS_STATUS
[21:28:09.437499] [152] BATTERY_STATUS
[21:28:09.445430] [153] ATTITUDE_TARGET
[21:28:09.449386] [154] VFR_HUD
[21:28:10.287601] [198] RADIO
[21:28:10.290534] [198] RADIO_STATUS
[21:28:10.413635] [155] VFR_HUD
[21:28:10.416603] [156] HEARTBEAT
[21:28:10.987703] [157] VFR_HUD
[21:28:11.332681] [199] RADIO
[21:28:11.335900] [199] RADIO_STATUS
[21:28:11.456757] [158] HEARTBEAT
[21:28:11.464742] [159] ATTITUDE_TARGET
[21:28:11.787751] [160] VFR_HUD
[21:28:12.251821] [200] RADIO
[21:28:12.254782] [200] RADIO_STATUS
[21:28:12.476582] [161] HEARTBEAT
[21:28:12.602856] [162] VFR_HUD
[21:28:13.277830] [201] RADIO
[21:28:13.279891] [201] RADIO_STATUS
[21:28:13.405053] [163] HEARTBEAT
[21:28:13.413913] [164] SYS_STATUS
[21:28:13.526196] [165] BATTERY_STATUS
[21:28:13.644116] [166] ATTITUDE_TARGET
[21:28:13.648974] [167] VFR_HUD
[21:28:14.212147] [168] VFR_HUD
[21:28:14.333106] [202] RADIO
[21:28:14.336073] [202] RADIO_STATUS
[21:28:14.433248] [169] HEARTBEAT
[21:28:15.007282] [170] VFR_HUD
[21:28:15.346214] [203] RADIO
[21:28:15.349272] [203] RADIO_STATUS
[21:28:15.476235] [171] HEARTBEAT
[21:28:15.484342] [172] ATTITUDE_TARGET
[21:28:15.822296] [173] VFR_HUD
[21:28:16.382417] [174] HEARTBEAT
[21:28:16.413380] [204] RADIO
[21:28:16.416346] [204] RADIO_STATUS
[21:28:16.616456] [175] VFR_HUD
[21:28:17.310492] [205] RADIO
[21:28:17.313448] [205] RADIO_STATUS
[21:28:17.433654] [176] HEARTBEAT
[21:28:17.440452] [177] SYS_STATUS
[21:28:17.559671] [178] BATTERY_STATUS
[21:28:17.567536] [179] ATTITUDE_TARGET
[21:28:17.597637] [180] VFR_HUD
[21:28:18.226772] [181] VFR_HUD
[21:28:18.335705] [206] RADIO
[21:28:18.338694] [206] RADIO_STATUS
[21:28:18.369740] [182] HEARTBEAT
[21:28:19.035790] [183] VFR_HUD
[21:28:19.371816] [184] HEARTBEAT
[21:28:19.395043] [185] ATTITUDE_TARGET
[21:28:19.424779] [207] RADIO
[21:28:19.427768] [207] RADIO_STATUS
[21:28:19.835840] [186] VFR_HUD
[21:28:20.406047] [208] RADIO
[21:28:20.408916] [208] RADIO_STATUS
[21:28:20.439963] [187] HEARTBEAT
[21:28:20.645979] [188] VFR_HUD
[21:28:21.325111] [209] RADIO
[21:28:21.327996] [209] RADIO_STATUS
[21:28:21.454084] [189] HEARTBEAT
[21:28:21.460051] [190] SYS_STATUS
[21:28:21.575180] [191] BATTERY_STATUS
[21:28:21.693096] [192] ATTITUDE_TARGET
[21:28:21.697043] [193] VFR_HUD
[21:28:22.261247] [194] VFR_HUD
[21:28:22.373193] [195] HEARTBEAT
[21:28:22.398137] [210] RADIO
[21:28:22.401216] [210] RADIO_STATUS
[21:28:23.056178] [196] VFR_HUD
[21:28:23.395385] [211] RADIO
[21:28:23.398261] [211] RADIO_STATUS
[21:28:23.443350] [197] HEARTBEAT
[21:28:23.450289] [198] ATTITUDE_TARGET
[21:28:23.871366] [199] VFR_HUD
[21:28:24.431419] [200] HEARTBEAT
[21:28:24.462533] [212] RADIO
[21:28:24.465466] [212] RADIO_STATUS
[21:28:24.665511] [201] VFR_HUD
[21:28:25.355555] [213] RADIO
[21:28:25.357514] [213] RADIO_STATUS
[21:28:25.488614] [202] HEARTBEAT
[21:28:25.495654] [203] SYS_STATUS
[21:28:25.529621] [204] BATTERY_STATUS
[21:28:25.531553] [205] EXTENDED_SYS_STATE
[21:28:25.538693] [206] ATTITUDE_TARGET
[21:28:25.543581] [207] VFR_HUD
[21:28:25.547581] [208] SYSTEM_TIME
[21:28:26.275816] [209] VFR_HUD
[21:28:26.384728] [214] RADIO
[21:28:26.387652] [214] RADIO_STATUS
[21:28:26.419295] [210] HEARTBEAT
[21:28:27.085826] [211] VFR_HUD
[21:28:27.434870] [212] HEARTBEAT
[21:28:27.442892] [213] ATTITUDE_TARGET
[21:28:27.534871] [215] RADIO
[21:28:27.537803] [215] RADIO_STATUS
[21:28:27.775026] [214] VFR_HUD
[21:28:28.343947] [216] RADIO
[21:28:28.347031] [216] RADIO_STATUS
[21:28:28.466124] [215] HEARTBEAT
[21:28:28.575084] [216] VFR_HUD
[21:28:29.374146] [217] RADIO
[21:28:29.377103] [217] RADIO_STATUS
[21:28:29.434253] [217] HEARTBEAT
[21:28:29.441130] [218] SYS_STATUS
[21:28:29.448157] [219] BATTERY_STATUS
[21:28:29.461166] [220] ATTITUDE_TARGET
[21:28:29.465268] [221] VFR_HUD
[21:28:30.185255] [222] VFR_HUD
[21:28:30.410308] [223] HEARTBEAT
[21:28:30.524287] [218] RADIO
[21:28:30.527263] [218] RADIO_STATUS
[21:28:30.999335] [224] VFR_HUD
[21:28:31.443552] [219] RADIO
[21:28:31.446395] [219] RADIO_STATUS
[21:28:31.491578] [225] HEARTBEAT
[21:28:31.499380] [226] ATTITUDE_TARGET
[21:28:31.794600] [227] VFR_HUD
[21:28:32.369660] [228] HEARTBEAT
[21:28:32.483532] [220] RADIO
[21:28:32.486549] [220] RADIO_STATUS
[21:28:32.609614] [229] VFR_HUD
[21:28:33.411809] [230] HEARTBEAT
[21:28:33.418694] [231] SYS_STATUS
[21:28:33.513751] [221] RADIO
[21:28:33.516622] [221] RADIO_STATUS
[21:28:33.583774] [232] BATTERY_STATUS
[21:28:33.590690] [233] ATTITUDE_TARGET
[21:28:33.595751] [234] VFR_HUD
[21:28:34.432803] [222] RADIO
[21:28:34.435886] [222] RADIO_STATUS
[21:28:34.559884] [235] VFR_HUD
[21:28:34.562789] [236] HEARTBEAT
[21:28:35.014004] [237] VFR_HUD
[21:28:35.483029] [238] HEARTBEAT
[21:28:35.490933] [239] ATTITUDE_TARGET
[21:28:35.582965] [223] RADIO
[21:28:35.585926] [223] RADIO_STATUS
[21:28:35.823983] [240] VFR_HUD
[21:28:36.389181] [241] HEARTBEAT
[21:28:36.421058] [224] RADIO
[21:28:36.424026] [224] RADIO_STATUS
[21:28:36.624184] [242] VFR_HUD
[21:28:37.423327] [225] RADIO
[21:28:37.425156] [225] RADIO_STATUS
[21:28:37.551370] [243] HEARTBEAT
[21:28:37.557230] [244] SYS_STATUS
[21:28:37.677236] [245] BATTERY_STATUS
[21:28:37.790266] [246] ATTITUDE_TARGET
[21:28:37.794338] [247] VFR_HUD
[21:28:38.233332] [248] VFR_HUD
[21:28:38.458473] [249] HEARTBEAT
[21:28:38.572425] [226] RADIO
[21:28:38.575432] [226] RADIO_STATUS
[21:28:39.043433] [250] VFR_HUD
[21:28:39.392466] [251] HEARTBEAT
[21:28:39.400475] [252] ATTITUDE_TARGET
[21:28:39.410519] [227] RADIO
[21:28:39.413552] [227] RADIO_STATUS
[21:28:39.842548] [253] VFR_HUD
[21:28:40.412617] [228] RADIO
[21:28:40.415504] [228] RADIO_STATUS
[21:28:40.528643] [254] HEARTBEAT
[21:28:40.657594] [255] VFR_HUD
[21:28:41.460824] [0] HEARTBEAT
[21:28:41.466707] [1] SYS_STATUS
[21:28:41.479759] [229] RADIO
[21:28:41.482703] [229] RADIO_STATUS
[21:28:41.581804] [2] BATTERY_STATUS
[21:28:41.699845] [3] ATTITUDE_TARGET
[21:28:41.703791] [4] VFR_HUD
[21:28:42.267931] [5] VFR_HUD
[21:28:42.380005] [6] HEARTBEAT
[21:28:42.481885] [230] RADIO
[21:28:42.484812] [230] RADIO_STATUS
[21:28:43.061899] [7] VFR_HUD
[21:28:43.426997] [8] HEARTBEAT
[21:28:43.434961] [9] ATTITUDE_TARGET
[21:28:43.527020] [231] RADIO
[21:28:43.529976] [231] RADIO_STATUS
[21:28:43.877029] [10] VFR_HUD
[21:28:44.438125] [11] HEARTBEAT
[21:28:44.469100] [232] RADIO
[21:28:44.472066] [232] RADIO_STATUS
[21:28:44.672176] [12] VFR_HUD
[21:28:45.471255] [233] RADIO
[21:28:45.474222] [233] RADIO_STATUS
[21:28:45.599432] [13] HEARTBEAT
[21:28:45.606394] [14] SYS_STATUS
[21:28:45.724296] [15] BATTERY_STATUS
[21:28:45.725282] [16] EXTENDED_SYS_STATE
[21:28:45.845353] [17] ATTITUDE_TARGET
[21:28:45.850351] [18] VFR_HUD
[21:28:45.853283] [19] SYSTEM_TIME
[21:28:46.281375] [20] VFR_HUD
[21:28:46.402471] [21] HEARTBEAT
[21:28:46.516440] [234] RADIO
[21:28:46.519372] [234] RADIO_STATUS
[21:28:47.091612] [22] VFR_HUD
[21:28:47.440549] [23] HEARTBEAT
[21:28:47.448530] [24] ATTITUDE_TARGET
[21:28:47.540675] [235] RADIO
[21:28:47.543456] [235] RADIO_STATUS
[21:28:47.781688] [25] VFR_HUD
[21:28:48.460779] [236] RADIO
[21:28:48.463645] [236] RADIO_STATUS
[21:28:48.494817] [26] HEARTBEAT
[21:28:48.580678] [27] VFR_HUD
[21:28:49.403771] [28] HEARTBEAT
[21:28:49.410758] [29] SYS_STATUS
[21:28:49.449812] [30] BATTERY_STATUS
[21:28:49.457854] [31] ATTITUDE_TARGET
[21:28:49.462759] [32] VFR_HUD
[21:28:49.500787] [237] RADIO
[21:28:49.502738] [237] RADIO_STATUS
[21:28:50.426910] [33] VFR_HUD
[21:28:50.429873] [34] HEARTBEAT
[21:28:50.530006] [238] RADIO
[21:28:50.532866] [238] RADIO_STATUS
[21:28:51.005984] [35] VFR_HUD
[21:28:51.475136] [36] HEARTBEAT
[21:28:51.483052] [37] ATTITUDE_TARGET
[21:28:51.575070] [239] RADIO
[21:28:51.578035] [239] RADIO_STATUS
[21:28:51.801115] [38] VFR_HUD
[21:28:52.376207] [39] HEARTBEAT
[21:28:52.490181] [240] RADIO
[21:28:52.493132] [240] RADIO_STATUS
[21:28:52.616254] [40] VFR_HUD
[21:28:53.418425] [41] HEARTBEAT
[21:28:53.424284] [42] SYS_STATUS
[21:28:53.520337] [241] RADIO
[21:28:53.522257] [241] RADIO_STATUS
[21:28:53.589322] [43] BATTERY_STATUS
[21:28:53.597322] [44] ATTITUDE_TARGET
[21:28:53.602389] [45] VFR_HUD
[21:28:54.461524] [46] VFR_HUD
[21:28:54.464529] [47] HEARTBEAT
[21:28:54.575493] [242] RADIO
[21:28:54.578456] [242] RADIO_STATUS
[21:28:55.020627] [48] VFR_HUD
[21:28:55.365732] [49] HEARTBEAT
[21:28:55.388556] [50] ATTITUDE_TARGET
[21:28:55.589671] [243] RADIO
[21:28:55.592603] [243] RADIO_STATUS
[21:28:55.830814] [51] VFR_HUD
[21:28:56.395711] [52] HEARTBEAT
[21:28:56.509684] [244] RADIO
[21:28:56.512834] [244] RADIO_STATUS
[21:28:56.629761] [53] VFR_HUD
[21:28:57.447859] [54] HEARTBEAT
[21:28:57.453796] [55] SYS_STATUS
[21:28:57.572849] [56] BATTERY_STATUS
[21:28:57.580836] [57] ATTITUDE_TARGET
[21:28:57.610821] [58] VFR_HUD
[21:28:57.632822] [245] RADIO
[21:28:57.635819] [245] RADIO_STATUS
[21:28:58.239974] [59] VFR_HUD
[21:28:58.465126] [60] HEARTBEAT
[21:28:58.578987] [246] RADIO
[21:28:58.581945] [246] RADIO_STATUS
[21:28:59.055296] [61] VFR_HUD
[21:28:59.399138] [62] HEARTBEAT
[21:28:59.407142] [63] ATTITUDE_TARGET
[21:28:59.619135] [247] RADIO
[21:28:59.622189] [247] RADIO_STATUS
[21:28:59.850119] [64] VFR_HUD
[21:29:00.425266] [65] HEARTBEAT
[21:29:00.539387] [248] RADIO
[21:29:00.542199] [248] RADIO_STATUS
[21:29:00.665321] [66] VFR_HUD
[21:29:01.467395] [67] HEARTBEAT
[21:29:01.474356] [68] SYS_STATUS
[21:29:01.569520] [249] RADIO
[21:29:01.572398] [249] RADIO_STATUS
[21:29:01.638536] [69] BATTERY_STATUS
[21:29:01.646386] [70] ATTITUDE_TARGET
[21:29:01.651424] [71] VFR_HUD
[21:29:02.385617] [72] VFR_HUD
[21:29:02.388527] [73] HEARTBEAT
[21:29:02.609580] [250] RADIO
[21:29:02.611804] [250] RADIO_STATUS
[21:29:03.069676] [74] VFR_HUD
[21:29:03.428814] [75] HEARTBEAT
[21:29:03.436811] [76] ATTITUDE_TARGET
[21:29:03.556789] [251] RADIO
[21:29:03.559658] [251] RADIO_STATUS
[21:29:03.884707] [77] VFR_HUD
[21:29:04.444824] [78] HEARTBEAT
[21:29:04.558828] [252] RADIO
[21:29:04.561873] [252] RADIO_STATUS
[21:29:04.679922] [79] VFR_HUD
[21:29:05.364953] [80] HEARTBEAT
[21:29:05.385057] [81] SYS_STATUS
[21:29:05.427920] [82] BATTERY_STATUS
[21:29:05.429891] [83] EXTENDED_SYS_STATE
[21:29:05.436878] [84] ATTITUDE_TARGET
[21:29:05.442012] [85] VFR_HUD
[21:29:05.445954] [86] SYSTEM_TIME
[21:29:05.598956] [253] RADIO
[21:29:05.601901] [253] RADIO_STATUS
[21:29:06.179052] [87] VFR_HUD
[21:29:06.410085] [88] HEARTBEAT
[21:29:06.628097] [254] RADIO
[21:29:06.631072] [254] RADIO_STATUS
[21:29:06.979136] [89] VFR_HUD
[21:29:07.448229] [90] HEARTBEAT
[21:29:07.456175] [91] ATTITUDE_TARGET
[21:29:07.668205] [255] RADIO
[21:29:07.671155] [255] RADIO_STATUS
[21:29:07.794401] [92] VFR_HUD
[21:29:08.479492] [93] HEARTBEAT
[21:29:08.589401] [94] VFR_HUD
[21:29:08.621376] [0] RADIO
[21:29:08.624345] [0] RADIO_STATUS
[21:29:09.411579] [95] HEARTBEAT
[21:29:09.418526] [96] SYS_STATUS
[21:29:09.457497] [97] BATTERY_STATUS
[21:29:09.465572] [98] ATTITUDE_TARGET
[21:29:09.470415] [99] VFR_HUD
[21:29:09.617643] [1] RADIO
[21:29:09.620561] [1] RADIO_STATUS
[21:29:10.434658] [100] VFR_HUD
[21:29:10.437629] [101] HEARTBEAT
[21:29:10.662810] [2] RADIO
[21:29:10.665668] [2] RADIO_STATUS
[21:29:11.013740] [102] VFR_HUD
[21:29:11.482761] [103] HEARTBEAT
[21:29:11.490762] [104] ATTITUDE_TARGET
[21:29:11.582746] [3] RADIO
[21:29:11.585680] [3] RADIO_STATUS
[21:29:11.807812] [105] VFR_HUD
[21:29:12.388881] [106] HEARTBEAT
[21:29:12.607977] [4] RADIO
[21:29:12.609852] [4] RADIO_STATUS
[21:29:12.727976] [107] VFR_HUD
[21:29:13.425121] [108] HEARTBEAT
[21:29:13.432092] [109] SYS_STATUS
[21:29:13.551991] [110] BATTERY_STATUS
[21:29:13.664038] [111] ATTITUDE_TARGET
[21:29:13.669001] [112] VFR_HUD
[21:29:13.702997] [5] RADIO
[21:29:13.705970] [5] RADIO_STATUS
[21:29:14.228186] [113] VFR_HUD
[21:29:14.459155] [114] HEARTBEAT
[21:29:14.677147] [6] RADIO
[21:29:14.680070] [6] RADIO_STATUS
[21:29:15.028127] [115] VFR_HUD
[21:29:15.373366] [116] HEARTBEAT
[21:29:15.395359] [117] ATTITUDE_TARGET
[21:29:15.722276] [7] RADIO
[21:29:15.725270] [7] RADIO_STATUS
[21:29:15.837423] [118] VFR_HUD
[21:29:16.403427] [119] HEARTBEAT
[21:29:16.637532] [120] VFR_HUD
[21:29:16.669505] [8] RADIO
[21:29:16.672437] [8] RADIO_STATUS
[21:29:17.454559] [121] HEARTBEAT
[21:29:17.461545] [122] SYS_STATUS
[21:29:17.580628] [123] BATTERY_STATUS
[21:29:17.588581] [124] ATTITUDE_TARGET
[21:29:17.618610] [125] VFR_HUD
[21:29:17.640668] [9] RADIO
[21:29:17.643603] [9] RADIO_STATUS
[21:29:18.247687] [126] VFR_HUD
[21:29:18.362707] [127] HEARTBEAT
[21:29:18.711741] [10] RADIO
[21:29:18.714771] [10] RADIO_STATUS
[21:29:19.062895] [128] VFR_HUD
[21:29:19.406975] [129] HEARTBEAT
[21:29:19.414816] [130] ATTITUDE_TARGET
[21:29:19.736899] [11] RADIO
[21:29:19.739818] [11] RADIO_STATUS
[21:29:19.856842] [131] VFR_HUD
[21:29:20.433011] [132] HEARTBEAT
[21:29:20.657039] [12] RADIO
[21:29:20.658976] [12] RADIO_STATUS
[21:29:20.695161] [133] VFR_HUD
[21:29:21.474280] [134] HEARTBEAT
[21:29:21.481169] [135] SYS_STATUS
[21:29:21.601212] [136] BATTERY_STATUS
[21:29:21.713306] [137] ATTITUDE_TARGET
[21:29:21.718128] [138] VFR_HUD
[21:29:21.724158] [13] RADIO
[21:29:21.727112] [13] RADIO_STATUS
[21:29:22.282382] [139] VFR_HUD
[21:29:22.394433] [140] HEARTBEAT
[21:29:22.726447] [14] RADIO
[21:29:22.729294] [14] RADIO_STATUS
[21:29:22.967296] [141] VFR_HUD
[21:29:23.436509] [142] HEARTBEAT
[21:29:23.444408] [143] ATTITUDE_TARGET
[21:29:23.766449] [15] RADIO
[21:29:23.769503] [15] RADIO_STATUS
[21:29:23.887575] [144] VFR_HUD
[21:29:24.452584] [145] HEARTBEAT
[21:29:24.576581] [146] VFR_HUD
[21:29:24.686592] [16] RADIO
[21:29:24.689610] [16] RADIO_STATUS
[21:29:25.384704] [147] HEARTBEAT
[21:29:25.391718] [148] SYS_STATUS
[21:29:25.508725] [149] BATTERY_STATUS
[21:29:25.510696] [150] EXTENDED_SYS_STATE
[21:29:25.630835] [151] ATTITUDE_TARGET
[21:29:25.634678] [152] VFR_HUD
[21:29:25.638695] [153] SYSTEM_TIME
[21:29:25.667705] [17] RADIO
[21:29:25.670787] [17] RADIO_STATUS
[21:29:26.191784] [154] VFR_HUD
[21:29:26.411821] [155] HEARTBEAT
[21:29:26.755963] [18] RADIO
[21:29:26.758824] [18] RADIO_STATUS
[21:29:26.986969] [156] VFR_HUD
[21:29:27.455979] [157] HEARTBEAT
[21:29:27.464039] [158] ATTITUDE_TARGET
[21:29:27.675994] [19] RADIO
[21:29:27.678928] [19] RADIO_STATUS
[21:29:27.801995] [159] VFR_HUD
[21:29:28.362088] [160] HEARTBEAT
[21:29:28.597190] [161] VFR_HUD
[21:29:28.706110] [20] RADIO
[21:29:28.709121] [20] RADIO_STATUS
[21:29:29.419420] [162] HEARTBEAT
[21:29:29.426274] [163] SYS_STATUS
[21:29:29.465292] [164] BATTERY_STATUS
[21:29:29.473293] [165] ATTITUDE_TARGET
[21:29:29.478229] [166] VFR_HUD
[21:29:29.746395] [21] RADIO
[21:29:29.748226] [21] RADIO_STATUS
[21:29:30.442469] [167] VFR_HUD
[21:29:30.445332] [168] HEARTBEAT
[21:29:30.775559] [22] RADIO
[21:29:30.778363] [22] RADIO_STATUS
[21:29:31.016484] [169] VFR_HUD
[21:29:31.490633] [170] HEARTBEAT
[21:29:31.498517] [171] ATTITUDE_TARGET
[21:29:31.695503] [23] RADIO
[21:29:31.698519] [23] RADIO_STATUS
[21:29:31.816511] [172] VFR_HUD
[21:29:32.396732] [173] HEARTBEAT
[21:29:32.625721] [174] VFR_HUD
[21:29:32.735686] [24] RADIO
[21:29:32.738675] [24] RADIO_STATUS
[21:29:33.433797] [175] HEARTBEAT
[21:29:33.439900] [176] SYS_STATUS
[21:29:33.554831] [177] BATTERY_STATUS
[21:29:33.672800] [178] ATTITUDE_TARGET
[21:29:33.677763] [179] VFR_HUD
[21:29:33.712001] [25] RADIO
[21:29:33.714879] [25] RADIO_STATUS
[21:29:34.235975] [180] VFR_HUD
[21:29:34.466937] [181] HEARTBEAT
[21:29:34.804927] [26] RADIO
[21:29:34.807913] [26] RADIO_STATUS
[21:29:35.036000] [182] VFR_HUD
[21:29:35.399987] [183] HEARTBEAT
[21:29:35.408074] [184] ATTITUDE_TARGET
[21:29:35.730073] [27] RADIO
[21:29:35.733015] [27] RADIO_STATUS
[21:29:35.846168] [185] VFR_HUD
[21:29:36.413150] [186] HEARTBEAT
[21:29:36.646211] [187] VFR_HUD
[21:29:36.755217] [28] RADIO
[21:29:36.758170] [28] RADIO_STATUS
[21:29:37.468453] [188] HEARTBEAT
[21:29:37.475398] [189] SYS_STATUS
[21:29:37.514336] [190] BATTERY_STATUS
[21:29:37.522552] [191] ATTITUDE_TARGET
[21:29:37.527331] [192] VFR_HUD
[21:29:37.800385] [29] RADIO
[21:29:37.803325] [29] RADIO_STATUS
[21:29:38.381425] [193] VFR_HUD
[21:29:38.384412] [194] HEARTBEAT
[21:29:38.719495] [30] RADIO
[21:29:38.722448] [30] RADIO_STATUS
[21:29:39.070575] [195] VFR_HUD
[21:29:39.415438] [196] HEARTBEAT
[21:29:39.422729] [197] ATTITUDE_TARGET
[21:29:39.744754] [31] RADIO
[21:29:39.746778] [31] RADIO_STATUS
[21:29:39.864749] [198] VFR_HUD
[21:29:40.440789] [199] HEARTBEAT
[21:29:40.679876] [200] VFR_HUD
[21:29:40.800838] [32] RADIO
[21:29:40.803792] [32] RADIO_STATUS
[21:29:41.481966] [201] HEARTBEAT
[21:29:41.488888] [202] SYS_STATUS
[21:29:41.608933] [203] BATTERY_STATUS
[21:29:41.722053] [204] ATTITUDE_TARGET
[21:29:41.725908] [205] VFR_HUD
[21:29:41.760041] [33] RADIO
[21:29:41.762983] [33] RADIO_STATUS
[21:29:42.284972] [206] VFR_HUD
[21:29:42.390032] [207] HEARTBEAT
[21:29:42.735914] [34] RADIO
[21:29:42.736945] [34] RADIO_STATUS
[21:29:43.084145] [208] VFR_HUD
[21:29:43.443352] [209] HEARTBEAT
[21:29:43.451389] [210] ATTITUDE_TARGET
[21:29:43.774230] [211] VFR_HUD
[21:29:43.806271] [35] RADIO
[21:29:43.809285] [35] RADIO_STATUS
[21:29:44.460454] [212] HEARTBEAT
[21:29:44.589291] [213] VFR_HUD
[21:29:44.803303] [36] RADIO
[21:29:44.806281] [36] RADIO_STATUS
[21:29:45.391387] [214] HEARTBEAT
[21:29:45.398378] [215] SYS_STATUS
[21:29:45.516396] [216] BATTERY_STATUS
[21:29:45.518356] [217] EXTENDED_SYS_STATE
[21:29:45.637450] [218] ATTITUDE_TARGET
[21:29:45.642411] [219] VFR_HUD
[21:29:45.645377] [220] SYSTEM_TIME
[21:29:45.848476] [37] RADIO
[21:29:45.851427] [37] RADIO_STATUS
[21:29:46.303601] [221] VFR_HUD
[21:29:46.419536] [222] HEARTBEAT
[21:29:46.763653] [38] RADIO
[21:29:46.766598] [38] RADIO_STATUS
[21:29:46.994042] [223] VFR_HUD
[21:29:47.462768] [224] HEARTBEAT
[21:29:47.470759] [225] ATTITUDE_TARGET
[21:29:47.793819] [39] RADIO
[21:29:47.795748] [39] RADIO_STATUS
[21:29:47.831825] [226] VFR_HUD
[21:29:48.369821] [227] HEARTBEAT
[21:29:48.603817] [228] VFR_HUD
[21:29:48.832876] [40] RADIO
[21:29:48.835815] [40] RADIO_STATUS
[21:29:49.420978] [229] HEARTBEAT
[21:29:49.427968] [230] SYS_STATUS
[21:29:49.547033] [231] BATTERY_STATUS
[21:29:49.553956] [232] ATTITUDE_TARGET
[21:29:49.585097] [233] VFR_HUD
[21:29:49.863145] [41] RADIO
[21:29:49.866011] [41] RADIO_STATUS
[21:29:50.214115] [234] VFR_HUD
[21:29:50.439245] [235] HEARTBEAT
[21:29:50.783148] [42] RADIO
[21:29:50.786134] [42] RADIO_STATUS
[21:29:51.024178] [236] VFR_HUD
[21:29:51.493379] [237] HEARTBEAT
[21:29:51.500385] [238] ATTITUDE_TARGET
[21:29:51.823428] [239] VFR_HUD
[21:29:51.850314] [43] RADIO
[21:29:51.853274] [43] RADIO_STATUS
[21:29:52.404489] [240] HEARTBEAT
[21:29:52.633439] [241] VFR_HUD
[21:29:52.852538] [44] RADIO
[21:29:52.855432] [44] RADIO_STATUS
[21:29:53.440573] [242] HEARTBEAT
[21:29:53.447543] [243] SYS_STATUS
[21:29:53.562580] [244] BATTERY_STATUS
[21:29:53.679577] [245] ATTITUDE_TARGET
[21:29:53.684549] [246] VFR_HUD
[21:29:53.772557] [45] RADIO
[21:29:53.775511] [45] RADIO_STATUS
[21:29:54.243631] [247] VFR_HUD
[21:29:54.473809] [248] HEARTBEAT
[21:29:54.812838] [46] RADIO
[21:29:54.815678] [46] RADIO_STATUS
[21:29:55.043729] [249] VFR_HUD
[21:29:55.407811] [250] HEARTBEAT
[21:29:55.415819] [251] ATTITUDE_TARGET
[21:29:55.842914] [47] RADIO
[21:29:55.845784] [47] RADIO_STATUS
