[02:05:17.966775] [250] VFR_HUD
[02:05:18.081838] [251] HEARTBEAT
[02:05:18.656823] [252] VFR_HUD
[02:05:19.125747] [253] HEARTBEAT
[02:05:19.133687] [254] ATTITUDE_TARGET
[02:05:19.466671] [255] VFR_HUD
[02:05:20.032542] [0] HEARTBEAT
[02:05:20.266611] [1] VFR_HUD
[02:05:21.084553] [2] HEARTBEAT
[02:05:21.091391] [3] SYS_STATUS
[02:05:21.209442] [4] BATTERY_STATUS
[02:05:21.217491] [5] ATTITUDE_TARGET
[02:05:21.247499] [6] VFR_HUD
[02:05:21.876363] [7] VFR_HUD
[02:05:22.102354] [8] HEARTBEAT
[02:05:22.686349] [9] VFR_HUD
[02:05:23.266328] [10] HEARTBEAT
[02:05:23.273297] [11] ATTITUDE_TARGET
[02:05:23.487218] [12] VFR_HUD
[02:05:24.062449] [13] HEARTBEAT
[02:05:24.302149] [14] VFR_HUD
[02:05:25.104105] [15] HEARTBEAT
[02:05:25.111120] [16] SYS_STATUS
[02:05:25.225035] [17] BATTERY_STATUS
[02:05:25.343023] [18] ATTITUDE_TARGET
[02:05:25.348001] [19] VFR_HUD
[02:05:26.016757] [20] VFR_HUD
[02:05:26.034988] [21] HEARTBEAT
[02:05:26.705926] [22] VFR_HUD
[02:05:27.070872] [23] HEARTBEAT
[02:05:27.078806] [24] ATTITUDE_TARGET
[02:05:27.521824] [25] VFR_HUD
[02:05:28.081854] [26] HEARTBEAT
[02:05:28.315892] [27] VFR_HUD
[02:05:28.929348] JAMMING_START
[02:05:29.133741] [28] HEARTBEAT
[02:05:29.139769] [29] SYS_STATUS
[02:05:29.261830] [30] BATTERY_STATUS
[02:05:29.263715] [31] EXTENDED_SYS_STATE
[02:05:29.271790] [32] ATTITUDE_TARGET
[02:05:29.276692] [33] VFR_HUD
[02:05:29.279638] [34] SYSTEM_TIME
[02:05:29.925675] [35] VFR_HUD
[02:05:30.047165] [36] HEARTBEAT
[02:05:30.735522] [37] VFR_HUD
[02:05:31.085574] [38] HEARTBEAT
[02:05:31.092500] [39] ATTITUDE_TARGET
[02:05:31.536492] [40] VFR_HUD
[02:05:32.116410] [41] HEARTBEAT
[02:05:32.346451] [42] VFR_HUD
[02:05:33.154322] [43] HEARTBEAT
[02:05:33.160351] [44] SYS_STATUS
[02:05:33.399357] [45] BATTERY_STATUS
[02:05:33.407246] [46] ATTITUDE_TARGET
[02:05:33.437299] [47] VFR_HUD
[02:05:33.841952] [48] VFR_HUD
[02:05:34.063197] [49] HEARTBEAT
[02:05:34.759134] [50] VFR_HUD
[02:05:35.228042] [51] HEARTBEAT
[02:05:35.236052] [52] ATTITUDE_TARGET
[02:05:35.485991] [53] VFR_HUD
[02:05:36.135989] [54] HEARTBEAT
[02:05:36.370927] [55] VFR_HUD
[02:05:37.068839] [56] HEARTBEAT
[02:05:37.075830] [57] SYS_STATUS
[02:05:37.315027] [58] BATTERY_STATUS
[02:05:37.322922] [59] ATTITUDE_TARGET
[02:05:37.352795] [60] VFR_HUD
[02:05:37.982788] [61] VFR_HUD
[02:05:38.208782] [62] HEARTBEAT
[02:05:38.673694] [63] VFR_HUD
[02:05:39.143652] [64] HEARTBEAT
[02:05:39.151600] [65] ATTITUDE_TARGET
[02:05:39.594775] [66] VFR_HUD
[02:05:40.050561] [67] HEARTBEAT
[02:05:40.285613] [68] VFR_HUD
[02:05:41.214536] [69] HEARTBEAT
[02:05:41.220417] [70] SYS_STATUS
[02:05:41.459475] [71] BATTERY_STATUS
[02:05:41.467487] [72] ATTITUDE_TARGET
[02:05:41.497459] [73] VFR_HUD
[02:05:41.897667] [74] VFR_HUD
[02:05:42.123402] [75] HEARTBEAT
[02:05:42.818405] [76] VFR_HUD
[02:05:43.058306] [77] HEARTBEAT
[02:05:43.066299] [78] ATTITUDE_TARGET
[02:05:43.509226] [79] VFR_HUD
[02:05:44.196227] [80] HEARTBEAT
[02:05:44.430306] [81] VFR_HUD
[02:05:45.129037] [82] HEARTBEAT
[02:05:45.136030] [83] SYS_STATUS
[02:05:45.374031] [84] BATTERY_STATUS
[02:05:45.382027] [85] ATTITUDE_TARGET
[02:05:45.413138] [86] VFR_HUD
[02:05:46.047977] [87] VFR_HUD
[02:05:46.051021] [88] HEARTBEAT
[02:05:46.732927] [89] VFR_HUD
[02:05:47.202846] [90] HEARTBEAT
[02:05:47.210947] [91] ATTITUDE_TARGET
[02:05:47.654758] [92] VFR_HUD
[02:05:48.110818] [93] HEARTBEAT
[02:05:48.345753] [94] VFR_HUD
[02:05:49.043685] [95] HEARTBEAT
[02:05:49.050653] [96] SYS_STATUS
[02:05:49.292686] [97] BATTERY_STATUS
[02:05:49.293574] [98] EXTENDED_SYS_STATE
[02:05:49.301649] [99] ATTITUDE_TARGET
[02:05:49.306573] [100] VFR_HUD
[02:05:49.310630] [101] SYSTEM_TIME
[02:05:49.957574] [102] VFR_HUD
[02:05:50.183570] [103] HEARTBEAT
[02:05:50.647573] [104] VFR_HUD
[02:05:51.117495] [105] HEARTBEAT
[02:05:51.125464] [106] ATTITUDE_TARGET
[02:05:51.569442] [107] VFR_HUD
[02:05:52.025539] [108] HEARTBEAT
[02:05:52.260442] [109] VFR_HUD
[02:05:53.188293] [110] HEARTBEAT
[02:05:53.195337] [111] SYS_STATUS
[02:05:53.434319] [112] BATTERY_STATUS
[02:05:53.442268] [113] ATTITUDE_TARGET
[02:05:53.472350] [114] VFR_HUD
[02:05:53.872267] [115] VFR_HUD
[02:05:54.098270] [116] HEARTBEAT
[02:05:54.793143] [117] VFR_HUD
[02:05:55.019202] [118] HEARTBEAT
[02:05:55.262197] [119] ATTITUDE_TARGET
[02:05:55.500141] [120] VFR_HUD
[02:05:56.170337] [121] HEARTBEAT
[02:05:56.404986] [122] VFR_HUD
[02:05:57.103935] [123] HEARTBEAT
[02:05:57.109893] [124] SYS_STATUS
[02:05:57.348909] [125] BATTERY_STATUS
[02:05:57.356892] [126] ATTITUDE_TARGET
[02:05:57.386852] [127] VFR_HUD
[02:05:58.016822] [128] VFR_HUD
[02:05:58.045814] [129] HEARTBEAT
[02:05:58.707780] [130] VFR_HUD
[02:05:59.177836] [131] HEARTBEAT
[02:05:59.185795] [132] ATTITUDE_TARGET
[02:05:59.628673] [133] VFR_HUD
[02:06:00.085735] [134] HEARTBEAT
[02:06:00.319665] [135] VFR_HUD
[02:06:01.248487] [136] HEARTBEAT
[02:06:01.255497] [137] SYS_STATUS
[02:06:01.494646] [138] BATTERY_STATUS
[02:06:01.502524] [139] ATTITUDE_TARGET
[02:06:01.532661] [140] VFR_HUD
[02:06:01.932389] [141] VFR_HUD
[02:06:02.157439] [142] HEARTBEAT
[02:06:02.853310] [143] VFR_HUD
[02:06:03.092310] [144] HEARTBEAT
[02:06:03.100287] [145] ATTITUDE_TARGET
[02:06:03.544241] [146] VFR_HUD
[02:06:04.239218] [147] HEARTBEAT
[02:06:04.243160] [148] VFR_HUD
[02:06:05.163137] [149] HEARTBEAT
[02:06:05.170120] [150] SYS_STATUS
[02:06:05.409084] [151] BATTERY_STATUS
[02:06:05.417046] [152] ATTITUDE_TARGET
[02:06:05.447056] [153] VFR_HUD
[02:06:05.847046] [154] VFR_HUD
[02:06:06.073054] [155] HEARTBEAT
[02:06:06.767936] [156] VFR_HUD
[02:06:07.238015] [157] HEARTBEAT
[02:06:07.245929] [158] ATTITUDE_TARGET
[02:06:07.688955] [159] VFR_HUD
[02:06:08.145850] [160] HEARTBEAT
[02:06:08.379790] [161] VFR_HUD
[02:06:09.078719] [162] HEARTBEAT
[02:06:09.085690] [163] SYS_STATUS
[02:06:09.326660] [164] BATTERY_STATUS
[02:06:09.328613] [165] EXTENDED_SYS_STATE
[02:06:09.336686] [166] ATTITUDE_TARGET
[02:06:09.341632] [167] VFR_HUD
[02:06:09.344616] [168] SYSTEM_TIME
[02:06:09.992605] [169] VFR_HUD
[02:06:10.217625] [170] HEARTBEAT
[02:06:10.682596] [171] VFR_HUD
[02:06:11.152551] [172] HEARTBEAT
[02:06:11.160502] [173] ATTITUDE_TARGET
[02:06:11.604496] [174] VFR_HUD
[02:06:12.060599] [175] HEARTBEAT
[02:06:12.295377] [176] VFR_HUD
[02:06:13.224276] [177] HEARTBEAT
[02:06:13.230286] [178] SYS_STATUS
[02:06:13.469247] [179] BATTERY_STATUS
[02:06:13.477248] [180] ATTITUDE_TARGET
[02:06:13.507195] [181] VFR_HUD
[02:06:13.907185] [182] VFR_HUD
[02:06:14.133241] [183] HEARTBEAT
[02:06:14.828081] [184] VFR_HUD
[02:06:15.068086] [185] HEARTBEAT
[02:06:15.076046] [186] ATTITUDE_TARGET
[02:06:15.518982] [187] VFR_HUD
[02:06:16.205945] [188] HEARTBEAT
[02:06:16.440940] [189] VFR_HUD
[02:06:17.138829] [190] HEARTBEAT
[02:06:17.145850] [191] SYS_STATUS
[02:06:17.384829] [192] BATTERY_STATUS
[02:06:17.391848] [193] ATTITUDE_TARGET
[02:06:17.422832] [194] VFR_HUD
[02:06:17.827781] [195] VFR_HUD
[02:06:18.047836] [196] HEARTBEAT
[02:06:18.743671] [197] VFR_HUD
[02:06:19.213649] [198] HEARTBEAT
[02:06:19.220637] [199] ATTITUDE_TARGET
[02:06:19.470621] [200] VFR_HUD
[02:06:20.120674] [201] HEARTBEAT
[02:06:20.355525] [202] VFR_HUD
[02:06:21.054495] [203] HEARTBEAT
[02:06:21.060587] [204] SYS_STATUS
[02:06:21.299479] [205] BATTERY_STATUS
[02:06:21.307479] [206] ATTITUDE_TARGET
[02:06:21.337442] [207] VFR_HUD
[02:06:21.967583] [208] VFR_HUD
[02:06:22.193352] [209] HEARTBEAT
[02:06:22.658303] [210] VFR_HUD
[02:06:23.128288] [211] HEARTBEAT
[02:06:23.136239] [212] ATTITUDE_TARGET
[02:06:23.579218] [213] VFR_HUD
[02:06:24.035222] [214] HEARTBEAT
[02:06:24.270158] [215] VFR_HUD
[02:06:25.199118] [216] HEARTBEAT
[02:06:25.206065] [217] SYS_STATUS
[02:06:25.445098] [218] BATTERY_STATUS
[02:06:25.453117] [219] ATTITUDE_TARGET
[02:06:25.483031] [220] VFR_HUD
[02:06:25.883001] [221] VFR_HUD
[02:06:26.108011] [222] HEARTBEAT
[02:06:26.803984] [223] VFR_HUD
[02:06:27.030080] [224] HEARTBEAT
[02:06:27.051908] [225] ATTITUDE_TARGET
[02:06:27.494911] [226] VFR_HUD
[02:06:28.180812] [227] HEARTBEAT
[02:06:28.415828] [228] VFR_HUD
[02:06:29.113825] [229] HEARTBEAT
[02:06:29.120828] [230] SYS_STATUS
[02:06:29.362812] [231] BATTERY_STATUS
[02:06:29.364673] [232] EXTENDED_SYS_STATE
[02:06:29.372787] [233] ATTITUDE_TARGET
[02:06:29.377683] [234] VFR_HUD
[02:06:29.380709] [235] SYSTEM_TIME
[02:06:30.033657] [236] VFR_HUD
[02:06:30.036661] [237] HEARTBEAT
[02:06:30.718606] [238] VFR_HUD
[02:06:31.188758] [239] HEARTBEAT
[02:06:31.196641] [240] ATTITUDE_TARGET
[02:06:31.639563] [241] VFR_HUD
[02:06:32.096471] [242] HEARTBEAT
[02:06:32.330448] [243] VFR_HUD
[02:06:33.259568] [244] HEARTBEAT
[02:06:33.266438] [245] SYS_STATUS
[02:06:33.505376] [246] BATTERY_STATUS
[02:06:33.513387] [247] ATTITUDE_TARGET
[02:06:33.543363] [248] VFR_HUD
[02:06:33.944236] [249] VFR_HUD
[02:06:34.168339] [250] HEARTBEAT
[02:06:34.633245] [251] VFR_HUD
[02:06:35.103411] [252] HEARTBEAT
[02:06:35.111356] [253] ATTITUDE_TARGET
[02:06:35.555189] [254] VFR_HUD
[02:06:36.249178] [255] HEARTBEAT
[02:06:36.254152] [0] VFR_HUD
[02:06:37.170186] [1] HEARTBEAT
[02:06:37.177049] [2] SYS_STATUS
[02:06:37.416056] [3] BATTERY_STATUS
[02:06:37.424099] [4] ATTITUDE_TARGET
[02:06:37.454051] [5] VFR_HUD
[02:06:37.854006] [6] VFR_HUD
[02:06:38.079998] [7] HEARTBEAT
[02:06:38.774903] [8] VFR_HUD
[02:06:39.244902] [9] HEARTBEAT
[02:06:39.252906] [10] ATTITUDE_TARGET
[02:06:39.501856] [11] VFR_HUD
[02:06:40.152836] [12] HEARTBEAT
[02:06:40.386727] [13] VFR_HUD
[02:06:41.086035] [14] HEARTBEAT
[02:06:41.092739] [15] SYS_STATUS
[02:06:41.331672] [16] BATTERY_STATUS
[02:06:41.338677] [17] ATTITUDE_TARGET
[02:06:41.369647] [18] VFR_HUD
[02:06:41.999696] [19] VFR_HUD
[02:06:42.027702] [20] HEARTBEAT
[02:06:42.690591] [21] VFR_HUD
[02:06:43.159517] [22] HEARTBEAT
[02:06:43.167547] [23] ATTITUDE_TARGET
[02:06:43.611634] [24] VFR_HUD
[02:06:44.067459] [25] HEARTBEAT
[02:06:44.302384] [26] VFR_HUD
[02:06:45.231264] [27] HEARTBEAT
[02:06:45.237211] [28] SYS_STATUS
[02:06:45.476231] [29] BATTERY_STATUS
[02:06:45.484323] [30] ATTITUDE_TARGET
[02:06:45.514258] [31] VFR_HUD
[02:06:45.914183] [32] VFR_HUD
[02:06:46.140272] [33] HEARTBEAT
[02:06:46.835084] [34] VFR_HUD
[02:06:47.075082] [35] HEARTBEAT
[02:06:47.083055] [36] ATTITUDE_TARGET
[02:06:47.526137] [37] VFR_HUD
[02:06:48.213015] [38] HEARTBEAT
[02:06:48.235908] [39] VFR_HUD
[02:06:49.146189] [40] HEARTBEAT
[02:06:49.152981] [41] SYS_STATUS
[02:06:49.394881] [42] BATTERY_STATUS
[02:06:49.395726] [43] EXTENDED_SYS_STATE
[02:06:49.403914] [44] ATTITUDE_TARGET
[02:06:49.408772] [45] VFR_HUD
[02:06:49.412800] [46] SYSTEM_TIME
[02:06:49.828788] [47] VFR_HUD
[02:06:50.055003] [48] HEARTBEAT
[02:06:50.136351] JAMMING_STOP
[02:06:50.750679] [49] VFR_HUD
[02:06:51.220823] [50] HEARTBEAT
[02:06:51.227715] [51] ATTITUDE_TARGET
[02:06:51.671755] [52] VFR_HUD
[02:06:52.017650] [53] HEARTBEAT
[02:06:52.361789] [54] VFR_HUD
[02:06:53.064650] [55] HEARTBEAT
[02:06:53.075621] [56] STATUSTEXT
[02:06:53.177602] [57] SYS_STATUS
[02:06:53.304462] [58] BATTERY_STATUS
[02:06:53.313078] [59] ATTITUDE_TARGET
[02:06:53.342446] [60] VFR_HUD
[02:06:53.866399] [61] VFR_HUD
[02:06:54.214507] [62] HEARTBEAT
[02:06:54.225398] [63] STATUSTEXT
[02:06:54.661333] [64] VFR_HUD
[02:06:55.131445] [65] HEARTBEAT
[02:06:55.138316] [66] ATTITUDE_TARGET
[02:06:55.581324] [67] VFR_HUD
[02:06:56.037316] [68] HEARTBEAT
[02:06:56.272161] [69] VFR_HUD
[02:06:57.089464] [70] HEARTBEAT
[02:06:57.096077] [71] SYS_STATUS
[02:06:57.215165] [72] BATTERY_STATUS
[02:06:57.222101] [73] ATTITUDE_TARGET
[02:06:57.253162] [74] VFR_HUD
[02:06:57.882693] [75] VFR_HUD
[02:06:58.108111] [76] HEARTBEAT
[02:06:58.692211] [77] VFR_HUD
[02:06:59.028034] [78] HEARTBEAT
[02:06:59.049965] [79] ATTITUDE_TARGET
[02:06:59.492807] [80] VFR_HUD
[02:07:00.072994] [81] HEARTBEAT
[02:07:00.412828] [82] VFR_HUD
[02:07:01.110701] [83] HEARTBEAT
[02:07:01.116698] [84] SYS_STATUS
[02:07:01.355745] [85] BATTERY_STATUS
[02:07:01.363688] [86] ATTITUDE_TARGET
[02:07:01.393807] [87] VFR_HUD
[02:07:01.917641] [88] VFR_HUD
[02:07:02.029586] [89] HEARTBEAT
[02:07:02.712480] [90] VFR_HUD
[02:07:03.076580] [91] HEARTBEAT
[02:07:03.084435] [92] ATTITUDE_TARGET
[02:07:03.527512] [93] VFR_HUD
[02:07:04.088392] [94] HEARTBEAT
[02:07:04.323321] [95] VFR_HUD
[02:07:05.250215] [96] HEARTBEAT
[02:07:05.257328] [97] SYS_STATUS
[02:07:05.393177] [98] BATTERY_STATUS
[02:07:05.420174] [99] ATTITUDE_TARGET
[02:07:05.425152] [100] VFR_HUD
[02:07:05.933122] [101] VFR_HUD
[02:07:06.054141] [102] HEARTBEAT
[02:07:06.623097] [103] VFR_HUD
[02:07:07.092145] [104] HEARTBEAT
[02:07:07.099984] [105] ATTITUDE_TARGET
[02:07:07.432991] [106] VFR_HUD
[02:07:08.123945] [107] HEARTBEAT
[02:07:08.232953] [108] VFR_HUD
[02:07:09.050984] [109] HEARTBEAT
[02:07:09.056801] [110] SYS_STATUS
[02:07:09.178841] [111] BATTERY_STATUS
[02:07:09.180789] [112] EXTENDED_SYS_STATE
[02:07:09.187818] [113] ATTITUDE_TARGET
[02:07:09.192772] [114] VFR_HUD
[02:07:09.196800] [115] SYSTEM_TIME
[02:07:09.842863] [116] VFR_HUD
[02:07:10.068740] [117] HEARTBEAT
[02:07:10.657944] [118] VFR_HUD
[02:07:11.232699] [119] HEARTBEAT
[02:07:11.240805] [120] ATTITUDE_TARGET
[02:07:11.573647] [121] VFR_HUD
[02:07:12.028642] [122] HEARTBEAT
[02:07:12.373612] [123] VFR_HUD
[02:07:13.070526] [124] HEARTBEAT
[02:07:13.077534] [125] SYS_STATUS
[02:07:13.197556] [126] BATTERY_STATUS
[02:07:13.310550] [127] ATTITUDE_TARGET
[02:07:13.314574] [128] VFR_HUD
[02:07:13.878557] [129] VFR_HUD
[02:07:14.098489] [130] HEARTBEAT
[02:07:14.673454] [131] VFR_HUD
[02:07:15.019542] [132] HEARTBEAT
[02:07:15.041496] [133] ATTITUDE_TARGET
[02:07:15.593275] [134] VFR_HUD
[02:07:16.049255] [135] HEARTBEAT
[02:07:16.283185] [136] VFR_HUD
[02:07:17.101270] [137] HEARTBEAT
[02:07:17.108132] [138] SYS_STATUS
[02:07:17.226707] [139] BATTERY_STATUS
[02:07:17.234228] [140] ATTITUDE_TARGET
[02:07:17.264288] [141] VFR_HUD
[02:07:17.894063] [142] VFR_HUD
[02:07:18.119141] [143] HEARTBEAT
[02:07:18.703998] [144] VFR_HUD
[02:07:19.052972] [145] HEARTBEAT
[02:07:19.061035] [146] ATTITUDE_TARGET
[02:07:19.503855] [147] VFR_HUD
[02:07:20.188831] [148] HEARTBEAT
[02:07:20.318840] [149] VFR_HUD
[02:07:21.120726] [150] HEARTBEAT
[02:07:21.127667] [151] SYS_STATUS
[02:07:21.242724] [152] BATTERY_STATUS
[02:07:21.360696] [153] ATTITUDE_TARGET
[02:07:21.364601] [154] VFR_HUD
[02:07:22.039640] [155] VFR_HUD
[02:07:22.042636] [156] HEARTBEAT
[02:07:22.723707] [157] VFR_HUD
[02:07:23.087615] [158] HEARTBEAT
[02:07:23.095593] [159] ATTITUDE_TARGET
[02:07:23.538446] [160] VFR_HUD
[02:07:24.099416] [161] HEARTBEAT
[02:07:24.223325] [162] VFR_HUD
[02:07:25.019261] [163] HEARTBEAT
[02:07:25.039269] [164] SYS_STATUS
[02:07:25.087331] [165] BATTERY_STATUS
[02:07:25.095359] [166] ATTITUDE_TARGET
[02:07:25.100238] [167] VFR_HUD
[02:07:26.076158] [168] VFR_HUD
[02:07:26.079147] [169] HEARTBEAT
[02:07:26.635137] [170] VFR_HUD
[02:07:27.104078] [171] HEARTBEAT
[02:07:27.112072] [172] ATTITUDE_TARGET
[02:07:27.473131] [173] VFR_HUD
[02:07:28.136036] [174] HEARTBEAT
[02:07:28.244996] [175] VFR_HUD
[02:07:29.173020] [176] HEARTBEAT
[02:07:29.179963] [177] SYS_STATUS
[02:07:29.296847] [178] BATTERY_STATUS
[02:07:29.298815] [179] EXTENDED_SYS_STATE
[02:07:29.418848] [180] ATTITUDE_TARGET
[02:07:29.423857] [181] VFR_HUD
[02:07:29.426790] [182] SYSTEM_TIME
[02:07:29.854858] [183] VFR_HUD
[02:07:30.080764] [184] HEARTBEAT
[02:07:30.669743] [185] VFR_HUD
[02:07:31.243680] [186] HEARTBEAT
[02:07:31.251686] [187] ATTITUDE_TARGET
[02:07:31.464688] [188] VFR_HUD
[02:07:32.150696] [189] HEARTBEAT
[02:07:32.384564] [190] VFR_HUD
[02:07:33.082622] [191] HEARTBEAT
[02:07:33.089464] [192] SYS_STATUS
[02:07:33.209596] [193] BATTERY_STATUS
[02:07:33.321543] [194] ATTITUDE_TARGET
[02:07:33.326420] [195] VFR_HUD
[02:07:33.884446] [196] VFR_HUD
[02:07:34.115391] [197] HEARTBEAT
[02:07:34.685355] [198] VFR_HUD
[02:07:35.044428] [199] HEARTBEAT
[02:07:35.052243] [200] ATTITUDE_TARGET
[02:07:35.605254] [201] VFR_HUD
[02:07:36.060246] [202] HEARTBEAT
[02:07:36.295167] [203] VFR_HUD
[02:07:37.112384] [204] HEARTBEAT
[02:07:37.119165] [205] SYS_STATUS
[02:07:37.238154] [206] BATTERY_STATUS
[02:07:37.246182] [207] ATTITUDE_TARGET
[02:07:37.276190] [208] VFR_HUD
[02:07:37.905106] [209] VFR_HUD
[02:07:38.020194] [210] HEARTBEAT
[02:07:38.720011] [211] VFR_HUD
[02:07:39.064038] [212] HEARTBEAT
[02:07:39.071970] [213] ATTITUDE_TARGET
[02:07:39.514938] [214] VFR_HUD
[02:07:40.091029] [215] HEARTBEAT
[02:07:40.329865] [216] VFR_HUD
[02:07:41.132832] [217] HEARTBEAT
[02:07:41.139940] [218] SYS_STATUS
[02:07:41.254796] [219] BATTERY_STATUS
[02:07:41.371781] [220] ATTITUDE_TARGET
[02:07:41.376729] [221] VFR_HUD
[02:07:42.050702] [222] VFR_HUD
[02:07:42.053707] [223] HEARTBEAT
[02:07:42.735639] [224] VFR_HUD
[02:07:43.094794] [225] HEARTBEAT
[02:07:43.102589] [226] ATTITUDE_TARGET
[02:07:43.430651] [227] VFR_HUD
[02:07:44.110494] [228] HEARTBEAT
[02:07:44.235503] [229] VFR_HUD
[02:07:45.042459] [230] HEARTBEAT
[02:07:45.049407] [231] SYS_STATUS
[02:07:45.288463] [232] BATTERY_STATUS
[02:07:45.296464] [233] ATTITUDE_TARGET
[02:07:45.326390] [234] VFR_HUD
[02:07:45.845327] [235] VFR_HUD
[02:07:46.076432] [236] HEARTBEAT
[02:07:46.645324] [237] VFR_HUD
[02:07:47.115214] [238] HEARTBEAT
[02:07:47.122197] [239] ATTITUDE_TARGET
[02:07:47.461273] [240] VFR_HUD
[02:07:48.021125] [241] HEARTBEAT
[02:07:48.256114] [242] VFR_HUD
[02:07:49.183199] [243] HEARTBEAT
[02:07:49.190149] [244] SYS_STATUS
[02:07:49.308030] [245] BATTERY_STATUS
[02:07:49.310001] [246] EXTENDED_SYS_STATE
[02:07:49.429027] [247] ATTITUDE_TARGET
[02:07:49.433976] [248] VFR_HUD
[02:07:49.438090] [249] SYSTEM_TIME
[02:07:49.865961] [250] VFR_HUD
[02:07:50.091076] [251] HEARTBEAT
[02:07:50.681038] [252] VFR_HUD
[02:07:51.011036] [253] HEARTBEAT
[02:07:51.254949] [254] ATTITUDE_TARGET
[02:07:51.475975] [255] VFR_HUD
[02:07:52.056945] [0] HEARTBEAT
[02:07:52.395906] [1] VFR_HUD
[02:07:53.093915] [2] HEARTBEAT
[02:07:53.099795] [3] SYS_STATUS
[02:07:53.219836] [4] BATTERY_STATUS
[02:07:53.332861] [5] ATTITUDE_TARGET
[02:07:53.337694] [6] VFR_HUD
[02:07:53.895636] [7] VFR_HUD
[02:07:54.126723] [8] HEARTBEAT
[02:07:54.695707] [9] VFR_HUD
[02:07:55.055585] [10] HEARTBEAT
[02:07:55.063541] [11] ATTITUDE_TARGET
[02:07:55.506528] [12] VFR_HUD
[02:07:56.071452] [13] HEARTBEAT
[02:07:56.306434] [14] VFR_HUD
[02:07:57.128403] [15] HEARTBEAT
[02:07:57.135479] [16] SYS_STATUS
[02:07:57.175397] [17] BATTERY_STATUS
[02:07:57.182313] [18] ATTITUDE_TARGET
[02:07:57.187313] [19] VFR_HUD
[02:07:58.151245] [20] VFR_HUD
[02:07:58.154200] [21] HEARTBEAT
[02:07:58.731160] [22] VFR_HUD
[02:07:59.075150] [23] HEARTBEAT
[02:07:59.083241] [24] ATTITUDE_TARGET
[02:07:59.526096] [25] VFR_HUD
[02:08:00.102092] [26] HEARTBEAT
[02:08:00.341086] [27] VFR_HUD
[02:08:01.021998] [28] HEARTBEAT
[02:08:01.042045] [29] SYS_STATUS
[02:08:01.085044] [30] BATTERY_STATUS
[02:08:01.092971] [31] ATTITUDE_TARGET
[02:08:01.098019] [32] VFR_HUD
[02:08:02.061845] [33] VFR_HUD
[02:08:02.064864] [34] HEARTBEAT
[02:08:02.635799] [35] VFR_HUD
[02:08:03.105738] [36] HEARTBEAT
[02:08:03.113750] [37] ATTITUDE_TARGET
[02:08:03.436726] [38] VFR_HUD
[02:08:04.121673] [39] HEARTBEAT
[02:08:04.356647] [40] VFR_HUD
[02:08:05.053649] [41] HEARTBEAT
[02:08:05.060632] [42] SYS_STATUS
[02:08:05.299559] [43] BATTERY_STATUS
[02:08:05.307505] [44] ATTITUDE_TARGET
[02:08:05.337537] [45] VFR_HUD
[02:08:05.861522] [46] VFR_HUD
[02:08:06.081579] [47] HEARTBEAT
[02:08:06.656445] [48] VFR_HUD
[02:08:07.125344] [49] HEARTBEAT
[02:08:07.133367] [50] ATTITUDE_TARGET
[02:08:07.471318] [51] VFR_HUD
[02:08:08.032304] [52] HEARTBEAT
[02:08:08.266340] [53] VFR_HUD
[02:08:09.193454] [54] HEARTBEAT
[02:08:09.200190] [55] SYS_STATUS
[02:08:09.318231] [56] BATTERY_STATUS
[02:08:09.320143] [57] EXTENDED_SYS_STATE
[02:08:09.439205] [58] ATTITUDE_TARGET
[02:08:09.444105] [59] VFR_HUD
[02:08:09.448109] [60] SYSTEM_TIME
[02:08:09.876129] [61] VFR_HUD
[02:08:10.101215] [62] HEARTBEAT
[02:08:10.796038] [63] VFR_HUD
[02:08:11.021983] [64] HEARTBEAT
[02:08:11.043944] [65] ATTITUDE_TARGET
[02:08:11.485898] [66] VFR_HUD
[02:08:12.066959] [67] HEARTBEAT
[02:08:12.405882] [68] VFR_HUD
[02:08:13.103784] [69] HEARTBEAT
[02:08:13.109863] [70] SYS_STATUS
[02:08:13.224796] [71] BATTERY_STATUS
[02:08:13.342745] [72] ATTITUDE_TARGET
[02:08:13.347779] [73] VFR_HUD
[02:08:13.905704] [74] VFR_HUD
[02:08:14.016642] [75] HEARTBEAT
[02:08:14.706573] [76] VFR_HUD
[02:08:15.175580] [77] HEARTBEAT
[02:08:15.183537] [78] ATTITUDE_TARGET
[02:08:15.521578] [79] VFR_HUD
[02:08:16.081471] [80] HEARTBEAT
[02:08:16.316408] [81] VFR_HUD
[02:08:17.139412] [82] HEARTBEAT
[02:08:17.146328] [83] SYS_STATUS
[02:08:17.185309] [84] BATTERY_STATUS
[02:08:17.193331] [85] ATTITUDE_TARGET
[02:08:17.198236] [86] VFR_HUD
[02:08:18.052292] [87] VFR_HUD
[02:08:18.055218] [88] HEARTBEAT
[02:08:18.846335] [89] VFR_HUD
[02:08:19.086271] [90] HEARTBEAT
[02:08:19.093258] [91] ATTITUDE_TARGET
[02:08:19.536249] [92] VFR_HUD
[02:08:20.117056] [93] HEARTBEAT
[02:08:20.226049] [94] VFR_HUD
[02:08:21.044141] [95] HEARTBEAT
[02:08:21.051014] [96] SYS_STATUS
[02:08:21.169139] [97] BATTERY_STATUS
[02:08:21.177071] [98] ATTITUDE_TARGET
[02:08:21.207084] [99] VFR_HUD
[02:08:21.836891] [100] VFR_HUD
[02:08:22.061918] [101] HEARTBEAT
[02:08:22.646854] [102] VFR_HUD
[02:08:23.115892] [103] HEARTBEAT
[02:08:23.123901] [104] ATTITUDE_TARGET
[02:08:23.446779] [105] VFR_HUD
[02:08:24.131848] [106] HEARTBEAT
[02:08:24.261672] [107] VFR_HUD
[02:08:25.063713] [108] HEARTBEAT
[02:08:25.070604] [109] SYS_STATUS
[02:08:25.309619] [110] BATTERY_STATUS
[02:08:25.317693] [111] ATTITUDE_TARGET
[02:08:25.347657] [112] VFR_HUD
[02:08:25.871495] [113] VFR_HUD
[02:08:26.092524] [114] HEARTBEAT
[02:08:26.666458] [115] VFR_HUD
[02:08:27.136443] [116] HEARTBEAT
[02:08:27.143341] [117] ATTITUDE_TARGET
[02:08:27.482414] [118] VFR_HUD
[02:08:28.042358] [119] HEARTBEAT
[02:08:28.276440] [120] VFR_HUD
[02:08:29.094726] [121] HEARTBEAT
[02:08:29.101358] [122] SYS_STATUS
[02:08:29.222288] [123] BATTERY_STATUS
[02:08:29.224278] [124] EXTENDED_SYS_STATE
[02:08:29.232224] [125] ATTITUDE_TARGET
[02:08:29.237249] [126] VFR_HUD
[02:08:29.240205] [127] SYSTEM_TIME
[02:08:29.886138] [128] VFR_HUD
[02:08:30.112262] [129] HEARTBEAT
[02:08:30.696040] [130] VFR_HUD
[02:08:31.046026] [131] HEARTBEAT
[02:08:31.053093] [132] ATTITUDE_TARGET
[02:08:31.496942] [133] VFR_HUD
[02:08:32.077038] [134] HEARTBEAT
[02:08:32.416915] [135] VFR_HUD
[02:08:33.113881] [136] HEARTBEAT
[02:08:33.120853] [137] SYS_STATUS
[02:08:33.235756] [138] BATTERY_STATUS
[02:08:33.352914] [139] ATTITUDE_TARGET
[02:08:33.357839] [140] VFR_HUD
[02:08:33.921752] [141] VFR_HUD
[02:08:34.033720] [142] HEARTBEAT
[02:08:34.716670] [143] VFR_HUD
[02:08:35.080653] [144] HEARTBEAT
[02:08:35.088629] [145] ATTITUDE_TARGET
[02:08:35.531511] [146] VFR_HUD
[02:08:36.092593] [147] HEARTBEAT
[02:08:36.326541] [148] VFR_HUD
[02:08:37.254557] [149] HEARTBEAT
[02:08:37.261407] [150] SYS_STATUS
[02:08:37.376445] [151] BATTERY_STATUS
[02:08:37.493884] [152] ATTITUDE_TARGET
[02:08:37.498490] [153] VFR_HUD
[02:08:37.827348] [154] VFR_HUD
[02:08:38.058347] [155] HEARTBEAT
[02:08:38.627269] [156] VFR_HUD
[02:08:39.096273] [157] HEARTBEAT
[02:08:39.104196] [158] ATTITUDE_TARGET
[02:08:39.437278] [159] VFR_HUD
[02:08:40.128093] [160] HEARTBEAT
[02:08:40.237081] [161] VFR_HUD
[02:08:41.055084] [162] HEARTBEAT
[02:08:41.062030] [163] SYS_STATUS
[02:08:41.180006] [164] BATTERY_STATUS
[02:08:41.188062] [165] ATTITUDE_TARGET
[02:08:41.217951] [166] VFR_HUD
[02:08:41.847937] [167] VFR_HUD
[02:08:42.073039] [168] HEARTBEAT
[02:08:42.662896] [169] VFR_HUD
[02:08:43.131837] [170] HEARTBEAT
[02:08:43.139788] [171] ATTITUDE_TARGET
[02:08:43.457787] [172] VFR_HUD
[02:08:44.032756] [173] HEARTBEAT
[02:08:44.272715] [174] VFR_HUD
[02:08:45.075665] [175] HEARTBEAT
[02:08:45.081754] [176] SYS_STATUS
[02:08:45.320601] [177] BATTERY_STATUS
[02:08:45.328645] [178] ATTITUDE_TARGET
[02:08:45.358618] [179] VFR_HUD
[02:08:45.905574] [180] VFR_HUD
[02:08:46.103567] [181] HEARTBEAT
[02:08:46.678525] [182] VFR_HUD
[02:08:47.147407] [183] HEARTBEAT
[02:08:47.155433] [184] ATTITUDE_TARGET
[02:08:47.488385] [185] VFR_HUD
[02:08:48.053360] [186] HEARTBEAT
[02:08:48.287335] [187] VFR_HUD
[02:08:49.105327] [188] HEARTBEAT
[02:08:49.112421] [189] SYS_STATUS
[02:08:49.233263] [190] BATTERY_STATUS
[02:08:49.235213] [191] EXTENDED_SYS_STATE
[02:08:49.243372] [192] ATTITUDE_TARGET
[02:08:49.248250] [193] VFR_HUD
[02:08:49.251189] [194] SYSTEM_TIME
[02:08:49.897264] [195] VFR_HUD
[02:08:50.123226] [196] HEARTBEAT
[02:08:50.707169] [197] VFR_HUD
[02:08:51.057070] [198] HEARTBEAT
[02:08:51.064117] [199] ATTITUDE_TARGET
[02:08:51.507009] [200] VFR_HUD
[02:08:52.082960] [201] HEARTBEAT
[02:08:52.322861] [202] VFR_HUD
[02:08:53.124876] [203] HEARTBEAT
[02:08:53.131862] [204] SYS_STATUS
[02:08:53.246881] [205] BATTERY_STATUS
[02:08:53.363998] [206] ATTITUDE_TARGET
[02:08:53.368840] [207] VFR_HUD
[02:08:53.954740] [208] VFR_HUD
[02:08:54.032765] [209] HEARTBEAT
[02:08:54.727719] [210] VFR_HUD
[02:08:55.196729] [211] HEARTBEAT
[02:08:55.204618] [212] ATTITUDE_TARGET
[02:08:55.542599] [213] VFR_HUD
[02:08:56.102654] [214] HEARTBEAT
[02:08:56.227510] [215] VFR_HUD
[02:08:57.035480] [216] HEARTBEAT
[02:08:57.041450] [217] SYS_STATUS
[02:08:57.156446] [218] BATTERY_STATUS
[02:08:57.273486] [219] ATTITUDE_TARGET
[02:08:57.278446] [220] VFR_HUD
[02:08:57.947406] [221] VFR_HUD
[02:08:58.068420] [222] HEARTBEAT
[02:08:58.637385] [223] VFR_HUD
[02:08:59.106361] [224] HEARTBEAT
[02:08:59.114322] [225] ATTITUDE_TARGET
[02:08:59.447172] [226] VFR_HUD
[02:09:00.138213] [227] HEARTBEAT
[02:09:00.247093] [228] VFR_HUD
[02:09:01.070135] [229] HEARTBEAT
[02:09:01.077000] [230] SYS_STATUS
[02:09:01.116987] [231] BATTERY_STATUS
[02:09:01.124104] [232] ATTITUDE_TARGET
[02:09:01.128947] [233] VFR_HUD
[02:09:02.092950] [234] VFR_HUD
[02:09:02.095916] [235] HEARTBEAT
[02:09:02.672874] [236] VFR_HUD
[02:09:03.246840] [237] HEARTBEAT
[02:09:03.254792] [238] ATTITUDE_TARGET
[02:09:03.467802] [239] VFR_HUD
[02:09:04.043715] [240] HEARTBEAT
[02:09:04.387737] [241] VFR_HUD
[02:09:05.085774] [242] HEARTBEAT
[02:09:05.092598] [243] SYS_STATUS
[02:09:05.330609] [244] BATTERY_STATUS
[02:09:05.338600] [245] ATTITUDE_TARGET
[02:09:05.368725] [246] VFR_HUD
[02:09:05.997560] [247] VFR_HUD
[02:09:06.118889] [248] HEARTBEAT
[02:09:06.687503] [249] VFR_HUD
[02:09:07.047589] [250] HEARTBEAT
[02:09:07.054453] [251] ATTITUDE_TARGET
[02:09:07.497425] [252] VFR_HUD
[02:09:08.063374] [253] HEARTBEAT
[02:09:08.297352] [254] VFR_HUD
[02:09:09.115257] [255] HEARTBEAT
[02:09:09.122212] [0] SYS_STATUS
[02:09:09.243148] [1] BATTERY_STATUS
[02:09:09.245129] [2] EXTENDED_SYS_STATE
[02:09:09.253165] [3] ATTITUDE_TARGET
[02:09:09.258168] [4] VFR_HUD
[02:09:09.261123] [5] SYSTEM_TIME
[02:09:09.908268] [6] VFR_HUD
[02:09:10.023164] [7] HEARTBEAT
[02:09:10.723193] [8] VFR_HUD
[02:09:11.067143] [9] HEARTBEAT
[02:09:11.075028] [10] ATTITUDE_TARGET
[02:09:11.518050] [11] VFR_HUD
[02:09:12.092973] [12] HEARTBEAT
[02:09:12.332947] [13] VFR_HUD
[02:09:13.135036] [14] HEARTBEAT
[02:09:13.141867] [15] SYS_STATUS
[02:09:13.256999] [16] BATTERY_STATUS
[02:09:13.374985] [17] ATTITUDE_TARGET
[02:09:13.378860] [18] VFR_HUD
[02:09:13.965735] [19] VFR_HUD
[02:09:14.042896] [20] HEARTBEAT
[02:09:14.627860] [21] VFR_HUD
[02:09:15.206709] [22] HEARTBEAT
[02:09:15.214699] [23] ATTITUDE_TARGET
[02:09:15.427785] [24] VFR_HUD
[02:09:16.030666] [25] HEARTBEAT
[02:09:16.347662] [26] VFR_HUD
[02:09:17.045516] [27] HEARTBEAT
[02:09:17.051490] [28] SYS_STATUS
[02:09:17.166497] [29] BATTERY_STATUS
[02:09:17.284460] [30] ATTITUDE_TARGET
[02:09:17.288411] [31] VFR_HUD
[02:09:17.847365] [32] VFR_HUD
[02:09:18.077346] [33] HEARTBEAT
[02:09:18.647275] [34] VFR_HUD
[02:09:19.116325] [35] HEARTBEAT
[02:09:19.124224] [36] ATTITUDE_TARGET
[02:09:19.462162] [37] VFR_HUD
[02:09:20.023258] [38] HEARTBEAT
[02:09:20.257116] [39] VFR_HUD
[02:09:21.185035] [40] HEARTBEAT
[02:09:21.191966] [41] SYS_STATUS
[02:09:21.305988] [42] BATTERY_STATUS
[02:09:21.424016] [43] ATTITUDE_TARGET
[02:09:21.428921] [44] VFR_HUD
[02:09:21.866933] [45] VFR_HUD
[02:09:22.092930] [46] HEARTBEAT
[02:09:22.681879] [47] VFR_HUD
[02:09:23.151926] [48] HEARTBEAT
[02:09:23.159892] [49] ATTITUDE_TARGET
[02:09:23.476754] [50] VFR_HUD
[02:09:24.080764] [51] HEARTBEAT
[02:09:24.397825] [52] VFR_HUD
[02:09:25.094890] [53] HEARTBEAT
[02:09:25.101655] [54] SYS_STATUS
[02:09:25.221671] [55] BATTERY_STATUS
[02:09:25.333670] [56] ATTITUDE_TARGET
[02:09:25.338708] [57] VFR_HUD
[02:09:25.897590] [58] VFR_HUD
[02:09:26.128694] [59] HEARTBEAT
[02:09:26.697485] [60] VFR_HUD
[02:09:27.166460] [61] HEARTBEAT
[02:09:27.174559] [62] ATTITUDE_TARGET
[02:09:27.507443] [63] VFR_HUD
[02:09:28.072473] [64] HEARTBEAT
[02:09:28.307440] [65] VFR_HUD
[02:09:29.234401] [66] HEARTBEAT
[02:09:29.241247] [67] SYS_STATUS
[02:09:29.359260] [68] BATTERY_STATUS
[02:09:29.361211] [69] EXTENDED_SYS_STATE
[02:09:29.480307] [70] ATTITUDE_TARGET
[02:09:29.485201] [71] VFR_HUD
[02:09:29.489154] [72] SYSTEM_TIME
[02:09:29.917337] [73] VFR_HUD
[02:09:30.143299] [74] HEARTBEAT
[02:09:30.732185] [75] VFR_HUD
[02:09:31.076208] [76] HEARTBEAT
[02:09:31.084130] [77] ATTITUDE_TARGET
[02:09:31.417085] [78] VFR_HUD
[02:09:32.103047] [79] HEARTBEAT
[02:09:32.342123] [80] VFR_HUD
[02:09:33.145065] [81] HEARTBEAT
[02:09:33.151933] [82] SYS_STATUS
[02:09:33.271928] [83] BATTERY_STATUS
[02:09:33.383907] [84] ATTITUDE_TARGET
[02:09:33.388915] [85] VFR_HUD
[02:09:33.827883] [86] VFR_HUD
[02:09:34.052955] [87] HEARTBEAT
[02:09:34.747761] [88] VFR_HUD
[02:09:35.216914] [89] HEARTBEAT
[02:09:35.224672] [90] ATTITUDE_TARGET
[02:09:35.437674] [91] VFR_HUD
[02:09:36.122716] [92] HEARTBEAT
[02:09:36.247583] [93] VFR_HUD
[02:09:37.054556] [94] HEARTBEAT
[02:09:37.061556] [95] SYS_STATUS
[02:09:37.176469] [96] BATTERY_STATUS
[02:09:37.293940] [97] ATTITUDE_TARGET
[02:09:37.298447] [98] VFR_HUD
[02:09:37.862388] [99] VFR_HUD
[02:09:38.192424] [100] HEARTBEAT
[02:09:38.657359] [101] VFR_HUD
[02:09:39.126438] [102] HEARTBEAT
[02:09:39.134438] [103] ATTITUDE_TARGET
[02:09:39.577351] [104] VFR_HUD
[02:09:40.032322] [105] HEARTBEAT
[02:09:40.267262] [106] VFR_HUD
[02:09:41.126283] [107] HEARTBEAT
[02:09:41.133329] [108] SYS_STATUS
[02:09:41.140141] [109] BATTERY_STATUS
[02:09:41.153152] [110] ATTITUDE_TARGET
[02:09:41.157162] [111] VFR_HUD
[02:09:41.877051] [112] VFR_HUD
[02:09:42.102192] [113] HEARTBEAT
[02:09:42.687011] [114] VFR_HUD
[02:09:43.035913] [115] HEARTBEAT
[02:09:43.044006] [116] ATTITUDE_TARGET
[02:09:43.486988] [117] VFR_HUD
[02:09:44.090005] [118] HEARTBEAT
[02:09:44.296791] [119] VFR_HUD
[02:09:45.103758] [120] HEARTBEAT
[02:09:45.110727] [121] SYS_STATUS
[02:09:45.225709] [122] BATTERY_STATUS
[02:09:45.342831] [123] ATTITUDE_TARGET
[02:09:45.347797] [124] VFR_HUD
[02:09:46.016704] [125] VFR_HUD
[02:09:46.136741] [126] HEARTBEAT
[02:09:46.706517] [127] VFR_HUD
[02:09:47.175481] [128] HEARTBEAT
[02:09:47.183493] [129] ATTITUDE_TARGET
[02:09:47.626495] [130] VFR_HUD
[02:09:48.082463] [131] HEARTBEAT
[02:09:48.234417] [132] VFR_HUD
[02:09:49.179368] [133] HEARTBEAT
[02:09:49.186351] [134] SYS_STATUS
[02:09:49.194373] [135] BATTERY_STATUS
[02:09:49.196242] [136] EXTENDED_SYS_STATE
[02:09:49.212265] [137] ATTITUDE_TARGET
[02:09:49.217228] [138] VFR_HUD
[02:09:49.221256] [139] SYSTEM_TIME
[02:09:49.927333] [140] VFR_HUD
[02:09:50.042298] [141] HEARTBEAT
[02:09:50.742197] [142] VFR_HUD
[02:09:51.086147] [143] HEARTBEAT
[02:09:51.094333] [144] ATTITUDE_TARGET
[02:09:51.427091] [145] VFR_HUD
[02:09:52.231089] [146] HEARTBEAT
[02:09:52.235990] [147] VFR_HUD
[02:09:53.045160] [148] HEARTBEAT
[02:09:53.050928] [149] SYS_STATUS
[02:09:53.170069] [150] BATTERY_STATUS
[02:09:53.177934] [151] ATTITUDE_TARGET
[02:09:53.207885] [152] VFR_HUD
[02:09:53.837010] [153] VFR_HUD
[02:09:54.061924] [154] HEARTBEAT
[02:09:54.646787] [155] VFR_HUD
[02:09:55.225709] [156] HEARTBEAT
[02:09:55.233699] [157] ATTITUDE_TARGET
[02:09:55.482727] [158] VFR_HUD
[02:09:56.022667] [159] HEARTBEAT
[02:09:56.261643] [160] VFR_HUD
[02:09:57.064603] [161] HEARTBEAT
[02:09:57.071619] [162] SYS_STATUS
[02:09:57.185512] [163] BATTERY_STATUS
[02:09:57.303653] [164] ATTITUDE_TARGET
[02:09:57.308482] [165] VFR_HUD
[02:09:57.872543] [166] VFR_HUD
[02:09:58.202415] [167] HEARTBEAT
[02:09:58.666350] [168] VFR_HUD
[02:09:59.012485] [169] HEARTBEAT
[02:09:59.035345] [170] ATTITUDE_TARGET
[02:09:59.482234] [171] VFR_HUD
[02:10:00.042279] [172] HEARTBEAT
[02:10:00.277140] [173] VFR_HUD
[02:10:01.094076] [174] HEARTBEAT
[02:10:01.101132] [175] SYS_STATUS
[02:10:01.220043] [176] BATTERY_STATUS
[02:10:01.228010] [177] ATTITUDE_TARGET
[02:10:01.258032] [178] VFR_HUD
[02:10:01.886924] [179] VFR_HUD
[02:10:02.113261] [180] HEARTBEAT
[02:10:02.696980] [181] VFR_HUD
[02:10:03.045983] [182] HEARTBEAT
[02:10:03.053867] [183] ATTITUDE_TARGET
[02:10:03.496895] [184] VFR_HUD
[02:10:04.077791] [185] HEARTBEAT
[02:10:04.306864] [186] VFR_HUD
[02:10:05.114655] [187] HEARTBEAT
[02:10:05.121687] [188] SYS_STATUS
[02:10:05.359629] [189] BATTERY_STATUS
[02:10:05.367696] [190] ATTITUDE_TARGET
[02:10:05.397617] [191] VFR_HUD
[02:10:05.922604] [192] VFR_HUD
[02:10:06.034668] [193] HEARTBEAT
[02:10:06.717595] [194] VFR_HUD
[02:10:07.081464] [195] HEARTBEAT
[02:10:07.089449] [196] ATTITUDE_TARGET
[02:10:07.532344] [197] VFR_HUD
[02:10:08.093490] [198] HEARTBEAT
[02:10:08.327299] [199] VFR_HUD
[02:10:09.025307] [200] HEARTBEAT
[02:10:09.032216] [201] SYS_STATUS
[02:10:09.273254] [202] BATTERY_STATUS
[02:10:09.275188] [203] EXTENDED_SYS_STATE
[02:10:09.283216] [204] ATTITUDE_TARGET
[02:10:09.288168] [205] VFR_HUD
[02:10:09.291205] [206] SYSTEM_TIME
[02:10:09.938108] [207] VFR_HUD
[02:10:10.058125] [208] HEARTBEAT
[02:10:10.628078] [209] VFR_HUD
[02:10:11.097087] [210] HEARTBEAT
[02:10:11.105153] [211] ATTITUDE_TARGET
[02:10:11.438020] [212] VFR_HUD
[02:10:12.128068] [213] HEARTBEAT
[02:10:12.237922] [214] VFR_HUD
[02:10:13.055913] [215] HEARTBEAT
[02:10:13.061902] [216] SYS_STATUS
[02:10:13.180830] [217] BATTERY_STATUS
[02:10:13.188825] [218] ATTITUDE_TARGET
[02:10:13.218836] [219] VFR_HUD
[02:10:13.848783] [220] VFR_HUD
[02:10:14.073746] [221] HEARTBEAT
[02:10:14.663764] [222] VFR_HUD
[02:10:15.132635] [223] HEARTBEAT
[02:10:15.140612] [224] ATTITUDE_TARGET
[02:10:15.458691] [225] VFR_HUD
[02:10:16.033546] [226] HEARTBEAT
[02:10:16.296591] [227] VFR_HUD
[02:10:17.075429] [228] HEARTBEAT
[02:10:17.082402] [229] SYS_STATUS
[02:10:17.320463] [230] BATTERY_STATUS
[02:10:17.328422] [231] ATTITUDE_TARGET
[02:10:17.358401] [232] VFR_HUD
[02:10:17.988342] [233] VFR_HUD
[02:10:18.016435] [234] HEARTBEAT
[02:10:18.678341] [235] VFR_HUD
[02:10:19.147369] [236] HEARTBEAT
[02:10:19.155227] [237] ATTITUDE_TARGET
[02:10:19.488301] [238] VFR_HUD
[02:10:20.053243] [239] HEARTBEAT
[02:10:20.288181] [240] VFR_HUD
[02:10:21.106079] [241] HEARTBEAT
[02:10:21.112005] [242] SYS_STATUS
[02:10:21.231106] [243] BATTERY_STATUS
[02:10:21.238995] [244] ATTITUDE_TARGET
[02:10:21.268995] [245] VFR_HUD
[02:10:21.897944] [246] VFR_HUD
[02:10:22.014045] [247] HEARTBEAT
[02:10:22.708031] [248] VFR_HUD
[02:10:23.057819] [249] HEARTBEAT
[02:10:23.065852] [250] ATTITUDE_TARGET
[02:10:23.508801] [251] VFR_HUD
[02:10:24.083795] [252] HEARTBEAT
[02:10:24.428743] [253] VFR_HUD
[02:10:25.126788] [254] HEARTBEAT
[02:10:25.132664] [255] SYS_STATUS
[02:10:25.247764] [0] BATTERY_STATUS
[02:10:25.365735] [1] ATTITUDE_TARGET
[02:10:25.370595] [2] VFR_HUD
[02:10:25.933581] [3] VFR_HUD
[02:10:26.045738] [4] HEARTBEAT
[02:10:26.728591] [5] VFR_HUD
[02:10:27.093565] [6] HEARTBEAT
[02:10:27.101430] [7] ATTITUDE_TARGET
[02:10:27.418395] [8] VFR_HUD
[02:10:28.104410] [9] HEARTBEAT
[02:10:28.339403] [10] VFR_HUD
[02:10:29.036300] [11] HEARTBEAT
[02:10:29.043373] [12] SYS_STATUS
[02:10:29.161267] [13] BATTERY_STATUS
[02:10:29.162194] [14] EXTENDED_SYS_STATE
[02:10:29.282276] [15] ATTITUDE_TARGET
[02:10:29.287338] [16] VFR_HUD
[02:10:29.290199] [17] SYSTEM_TIME
[02:10:29.839389] [18] VFR_HUD
[02:10:30.069288] [19] HEARTBEAT
[02:10:30.639117] [20] VFR_HUD
[02:10:31.108166] [21] HEARTBEAT
[02:10:31.116105] [22] ATTITUDE_TARGET
[02:10:31.448977] [23] VFR_HUD
[02:10:32.014024] [24] HEARTBEAT
[02:10:32.248889] [25] VFR_HUD
[02:10:33.177093] [26] HEARTBEAT
[02:10:33.182858] [27] SYS_STATUS
[02:10:33.318916] [28] BATTERY_STATUS
[02:10:33.345910] [29] ATTITUDE_TARGET
[02:10:33.350868] [30] VFR_HUD
[02:10:33.858888] [31] VFR_HUD
[02:10:34.084926] [32] HEARTBEAT
[02:10:34.673737] [33] VFR_HUD
[02:10:35.143791] [34] HEARTBEAT
[02:10:35.150677] [35] ATTITUDE_TARGET
[02:10:35.468690] [36] VFR_HUD
[02:10:36.154614] [37] HEARTBEAT
[02:10:36.283557] [38] VFR_HUD
[02:10:37.086526] [39] HEARTBEAT
[02:10:37.093496] [40] SYS_STATUS
[02:10:37.213595] [41] BATTERY_STATUS
[02:10:37.325562] [42] ATTITUDE_TARGET
[02:10:37.330485] [43] VFR_HUD
[02:10:37.889397] [44] VFR_HUD
[02:10:38.119454] [45] HEARTBEAT
[02:10:38.689424] [46] VFR_HUD
[02:10:39.048372] [47] HEARTBEAT
[02:10:39.056254] [48] ATTITUDE_TARGET
[02:10:39.609272] [49] VFR_HUD
[02:10:40.064316] [50] HEARTBEAT
[02:10:40.299276] [51] VFR_HUD
[02:10:41.116308] [52] HEARTBEAT
[02:10:41.123176] [53] SYS_STATUS
[02:10:41.241262] [54] BATTERY_STATUS
[02:10:41.249131] [55] ATTITUDE_TARGET
[02:10:41.279126] [56] VFR_HUD
[02:10:41.909099] [57] VFR_HUD
[02:10:42.134072] [58] HEARTBEAT
[02:10:42.724129] [59] VFR_HUD
[02:10:43.068131] [60] HEARTBEAT
[02:10:43.076072] [61] ATTITUDE_TARGET
[02:10:43.436976] [62] VFR_HUD
[02:10:44.095036] [63] HEARTBEAT
[02:10:44.214914] [64] VFR_HUD
[02:10:45.026910] [65] HEARTBEAT
[02:10:45.033863] [66] SYS_STATUS
[02:10:45.151879] [67] BATTERY_STATUS
[02:10:45.159810] [68] ATTITUDE_TARGET
[02:10:45.189752] [69] VFR_HUD
[02:10:45.819696] [70] VFR_HUD
[02:10:46.044710] [71] HEARTBEAT
[02:10:46.739705] [72] VFR_HUD
[02:10:47.098672] [73] HEARTBEAT
[02:10:47.106538] [74] ATTITUDE_TARGET
[02:10:47.429489] [75] VFR_HUD
[02:10:48.114527] [76] HEARTBEAT
[02:10:48.239406] [77] VFR_HUD
[02:10:49.046417] [78] HEARTBEAT
[02:10:49.053425] [79] SYS_STATUS
[02:10:49.171383] [80] BATTERY_STATUS
[02:10:49.173349] [81] EXTENDED_SYS_STATE
[02:10:49.292369] [82] ATTITUDE_TARGET
[02:10:49.297304] [83] VFR_HUD
[02:10:49.300312] [84] SYSTEM_TIME
[02:10:49.849320] [85] VFR_HUD
[02:10:50.079421] [86] HEARTBEAT
[02:10:50.649287] [87] VFR_HUD
[02:10:51.118219] [88] HEARTBEAT
[02:10:51.126219] [89] ATTITUDE_TARGET
[02:10:51.464308] [90] VFR_HUD
[02:10:52.025282] [91] HEARTBEAT
[02:10:52.259079] [92] VFR_HUD
[02:10:53.082035] [93] HEARTBEAT
[02:10:53.088956] [94] SYS_STATUS
[02:10:53.128087] [95] BATTERY_STATUS
[02:10:53.135962] [96] ATTITUDE_TARGET
[02:10:53.140945] [97] VFR_HUD
[02:10:54.105034] [98] VFR_HUD
[02:10:54.107862] [99] HEARTBEAT
[02:10:54.679773] [100] VFR_HUD
[02:10:55.014763] [101] HEARTBEAT
[02:10:55.037812] [102] ATTITUDE_TARGET
[02:10:55.479837] [103] VFR_HUD
[02:10:56.059688] [104] HEARTBEAT
[02:10:56.289607] [105] VFR_HUD
[02:10:57.096546] [106] HEARTBEAT
[02:10:57.103520] [107] SYS_STATUS
[02:10:57.223624] [108] BATTERY_STATUS
[02:10:57.336591] [109] ATTITUDE_TARGET
[02:10:57.340566] [110] VFR_HUD
[02:10:57.899448] [111] VFR_HUD
[02:10:58.130415] [112] HEARTBEAT
[02:10:58.699405] [113] VFR_HUD
[02:10:59.058425] [114] HEARTBEAT
[02:10:59.066322] [115] ATTITUDE_TARGET
[02:10:59.619379] [116] VFR_HUD
[02:11:00.075343] [117] HEARTBEAT
[02:11:00.309258] [118] VFR_HUD
[02:11:01.237201] [119] HEARTBEAT
[02:11:01.243141] [120] SYS_STATUS
[02:11:01.358284] [121] BATTERY_STATUS
[02:11:01.476137] [122] ATTITUDE_TARGET
[02:11:01.481074] [123] VFR_HUD
[02:11:01.814133] [124] VFR_HUD
[02:11:02.145181] [125] HEARTBEAT
[02:11:02.734105] [126] VFR_HUD
[02:11:03.078032] [127] HEARTBEAT
[02:11:03.085973] [128] ATTITUDE_TARGET
[02:11:03.418939] [129] VFR_HUD
[02:11:04.214872] [130] HEARTBEAT
[02:11:04.237818] [131] VFR_HUD
[02:11:05.037782] [132] HEARTBEAT
[02:11:05.043863] [133] SYS_STATUS
[02:11:05.162719] [134] BATTERY_STATUS
[02:11:05.170690] [135] ATTITUDE_TARGET
[02:11:05.200757] [136] VFR_HUD
[02:11:05.829639] [137] VFR_HUD
[02:11:06.054779] [138] HEARTBEAT
[02:11:06.749775] [139] VFR_HUD
[02:11:07.108606] [140] HEARTBEAT
[02:11:07.116545] [141] ATTITUDE_TARGET
[02:11:07.439542] [142] VFR_HUD
[02:11:08.014491] [143] HEARTBEAT
[02:11:08.249441] [144] VFR_HUD
[02:11:09.056428] [145] HEARTBEAT
[02:11:09.063383] [146] SYS_STATUS
[02:11:09.181469] [147] BATTERY_STATUS
[02:11:09.183318] [148] EXTENDED_SYS_STATE
[02:11:09.302500] [149] ATTITUDE_TARGET
[02:11:09.307359] [150] VFR_HUD
[02:11:09.310330] [151] SYSTEM_TIME
[02:11:09.864329] [152] VFR_HUD
[02:11:10.194484] [153] HEARTBEAT
[02:11:10.659333] [154] VFR_HUD
[02:11:11.010334] [155] HEARTBEAT
[02:11:11.127298] [156] ATTITUDE_TARGET
[02:11:11.497155] [157] VFR_HUD
[02:11:12.035207] [158] HEARTBEAT
[02:11:12.269139] [159] VFR_HUD
[02:11:13.092105] [160] HEARTBEAT
[02:11:13.098073] [161] SYS_STATUS
[02:11:13.138055] [162] BATTERY_STATUS
[02:11:13.146026] [163] ATTITUDE_TARGET
[02:11:13.151053] [164] VFR_HUD
[02:11:13.879045] [165] VFR_HUD
[02:11:14.104921] [166] HEARTBEAT
[02:11:14.688818] [167] VFR_HUD
[02:11:15.038878] [168] HEARTBEAT
[02:11:15.045747] [169] ATTITUDE_TARGET
[02:11:15.488694] [170] VFR_HUD
[02:11:16.069640] [171] HEARTBEAT
[02:11:16.298643] [172] VFR_HUD
[02:11:17.106727] [173] HEARTBEAT
[02:11:17.113529] [174] SYS_STATUS
[02:11:17.351537] [175] BATTERY_STATUS
[02:11:17.359512] [176] ATTITUDE_TARGET
[02:11:17.389522] [177] VFR_HUD
[02:11:17.909515] [178] VFR_HUD
[02:11:18.014514] [179] HEARTBEAT
[02:11:18.627497] [180] VFR_HUD
[02:11:19.073357] [181] HEARTBEAT
[02:11:19.081318] [182] ATTITUDE_TARGET
[02:11:19.547301] [183] VFR_HUD
[02:11:20.084370] [184] HEARTBEAT
[02:11:20.319313] [185] VFR_HUD
[02:11:21.247153] [186] HEARTBEAT
[02:11:21.254184] [187] SYS_STATUS
[02:11:21.369196] [188] BATTERY_STATUS
[02:11:21.486184] [189] ATTITUDE_TARGET
[02:11:21.491047] [190] VFR_HUD
[02:11:21.820088] [191] VFR_HUD
[02:11:22.155097] [192] HEARTBEAT
[02:11:22.619998] [193] VFR_HUD
[02:11:23.089032] [194] HEARTBEAT
[02:11:23.096988] [195] ATTITUDE_TARGET
[02:11:23.430000] [196] VFR_HUD
[02:11:24.120880] [197] HEARTBEAT
[02:11:24.229817] [198] VFR_HUD
[02:11:25.047797] [199] HEARTBEAT
[02:11:25.053732] [200] SYS_STATUS
[02:11:25.172746] [201] BATTERY_STATUS
[02:11:25.180806] [202] ATTITUDE_TARGET
[02:11:25.210722] [203] VFR_HUD
[02:11:25.839738] [204] VFR_HUD
[02:11:26.065796] [205] HEARTBEAT
[02:11:26.677689] [206] VFR_HUD
[02:11:27.119638] [207] HEARTBEAT
[02:11:27.127484] [208] ATTITUDE_TARGET
[02:11:27.449498] [209] VFR_HUD
[02:11:28.135552] [210] HEARTBEAT
[02:11:28.369360] [211] VFR_HUD
[02:11:29.067386] [212] HEARTBEAT
[02:11:29.074354] [213] SYS_STATUS
[02:11:29.315333] [214] BATTERY_STATUS
[02:11:29.317242] [215] EXTENDED_SYS_STATE
[02:11:29.325297] [216] ATTITUDE_TARGET
[02:11:29.330301] [217] VFR_HUD
[02:11:29.333246] [218] SYSTEM_TIME
[02:11:29.875226] [219] VFR_HUD
[02:11:30.095320] [220] HEARTBEAT
[02:11:30.670127] [221] VFR_HUD
[02:11:31.015107] [222] HEARTBEAT
[02:11:31.038073] [223] ATTITUDE_TARGET
[02:11:31.485055] [224] VFR_HUD
[02:11:32.046063] [225] HEARTBEAT
[02:11:32.279925] [226] VFR_HUD
[02:11:33.097883] [227] HEARTBEAT
[02:11:33.104839] [228] SYS_STATUS
[02:11:33.222837] [229] BATTERY_STATUS
[02:11:33.230896] [230] ATTITUDE_TARGET
[02:11:33.260811] [231] VFR_HUD
[02:11:33.890845] [232] VFR_HUD
[02:11:34.010913] [233] HEARTBEAT
[02:11:34.700685] [234] VFR_HUD
[02:11:35.049704] [235] HEARTBEAT
[02:11:35.057672] [236] ATTITUDE_TARGET
[02:11:35.500651] [237] VFR_HUD
[02:11:36.080730] [238] HEARTBEAT
[02:11:36.310656] [239] VFR_HUD
[02:11:37.117534] [240] HEARTBEAT
[02:11:37.124581] [241] SYS_STATUS
[02:11:37.239547] [242] BATTERY_STATUS
[02:11:37.356468] [243] ATTITUDE_TARGET
[02:11:37.361598] [244] VFR_HUD
[02:11:37.925360] [245] VFR_HUD
[02:11:38.037482] [246] HEARTBEAT
[02:11:38.638371] [247] VFR_HUD
[02:11:39.189244] [248] HEARTBEAT
[02:11:39.197211] [249] ATTITUDE_TARGET
[02:11:39.410227] [250] VFR_HUD
[02:11:40.096225] [251] HEARTBEAT
[02:11:40.220143] [252] VFR_HUD
[02:11:41.016057] [253] HEARTBEAT
[02:11:41.036051] [254] SYS_STATUS
[02:11:41.273147] [255] BATTERY_STATUS
[02:11:41.281024] [0] ATTITUDE_TARGET
[02:11:41.310991] [1] VFR_HUD
[02:11:41.829945] [2] VFR_HUD
[02:11:42.061063] [3] HEARTBEAT
[02:11:42.630029] [4] VFR_HUD
[02:11:43.099907] [5] HEARTBEAT
[02:11:43.106993] [6] ATTITUDE_TARGET
[02:11:43.439828] [7] VFR_HUD
[02:11:44.005846] [8] HEARTBEAT
[02:11:44.239791] [9] VFR_HUD
[02:11:45.057728] [10] HEARTBEAT
[02:11:45.064725] [11] SYS_STATUS
[02:11:45.182682] [12] BATTERY_STATUS
[02:11:45.190664] [13] ATTITUDE_TARGET
[02:11:45.221683] [14] VFR_HUD
[02:11:45.850755] [15] VFR_HUD
[02:11:46.075734] [16] HEARTBEAT
[02:11:46.687548] [17] VFR_HUD
[02:11:47.239560] [18] HEARTBEAT
[02:11:47.247529] [19] ATTITUDE_TARGET
[02:11:47.460603] [20] VFR_HUD
[02:11:48.035420] [21] HEARTBEAT
[02:11:48.275508] [22] VFR_HUD
[02:11:49.078301] [23] HEARTBEAT
[02:11:49.084302] [24] SYS_STATUS
[02:11:49.207424] [25] BATTERY_STATUS
[02:11:49.209261] [26] EXTENDED_SYS_STATE
[02:11:49.241350] [27] ATTITUDE_TARGET
[02:11:49.246263] [28] VFR_HUD
[02:11:49.250284] [29] SYSTEM_TIME
[02:11:49.885242] [30] VFR_HUD
[02:11:50.216284] [31] HEARTBEAT
[02:11:50.680117] [32] VFR_HUD
[02:11:51.040160] [33] HEARTBEAT
[02:11:51.047109] [34] ATTITUDE_TARGET
[02:11:51.490147] [35] VFR_HUD
[02:11:52.056088] [36] HEARTBEAT
[02:11:52.290969] [37] VFR_HUD
[02:11:53.107975] [38] HEARTBEAT
[02:11:53.114945] [39] SYS_STATUS
[02:11:53.233957] [40] BATTERY_STATUS
[02:11:53.240944] [41] ATTITUDE_TARGET
[02:11:53.271928] [42] VFR_HUD
[02:11:53.900939] [43] VFR_HUD
[02:11:54.015940] [44] HEARTBEAT
[02:11:54.820734] [45] VFR_HUD
[02:11:55.059779] [46] HEARTBEAT
[02:11:55.067735] [47] ATTITUDE_TARGET
[02:11:55.510643] [48] VFR_HUD
[02:11:56.195694] [49] HEARTBEAT
[02:11:56.219626] [50] VFR_HUD
[02:11:57.023564] [51] HEARTBEAT
[02:11:57.030525] [52] SYS_STATUS
[02:11:57.069540] [53] BATTERY_STATUS
[02:11:57.077555] [54] ATTITUDE_TARGET
[02:11:57.082519] [55] VFR_HUD
[02:11:58.046463] [56] VFR_HUD
[02:11:58.049398] [57] HEARTBEAT
[02:11:58.620376] [58] VFR_HUD
[02:11:59.095370] [59] HEARTBEAT
[02:11:59.103342] [60] ATTITUDE_TARGET
[02:11:59.420365] [61] VFR_HUD
[02:12:00.106279] [62] HEARTBEAT
[02:12:00.230259] [63] VFR_HUD
[02:12:01.038147] [64] HEARTBEAT
[02:12:01.045150] [65] SYS_STATUS
[02:12:01.159150] [66] BATTERY_STATUS
[02:12:01.277103] [67] ATTITUDE_TARGET
[02:12:01.282074] [68] VFR_HUD
[02:12:01.950060] [69] VFR_HUD
[02:12:02.071052] [70] HEARTBEAT
[02:12:02.639962] [71] VFR_HUD
[02:12:03.108949] [72] HEARTBEAT
[02:12:03.116916] [73] ATTITUDE_TARGET
[02:12:03.449931] [74] VFR_HUD
[02:12:04.015859] [75] HEARTBEAT
[02:12:04.249891] [76] VFR_HUD
[02:12:05.072760] [77] HEARTBEAT
[02:12:05.079822] [78] SYS_STATUS
[02:12:05.118744] [79] BATTERY_STATUS
[02:12:05.126684] [80] ATTITUDE_TARGET
[02:12:05.131666] [81] VFR_HUD
[02:12:06.095728] [82] VFR_HUD
[02:12:06.098656] [83] HEARTBEAT
[02:12:06.674718] [84] VFR_HUD
[02:12:07.005588] [85] HEARTBEAT
[02:12:07.027573] [86] ATTITUDE_TARGET
[02:12:07.469595] [87] VFR_HUD
[02:12:08.044448] [88] HEARTBEAT
[02:12:08.284352] [89] VFR_HUD
[02:12:09.087335] [90] HEARTBEAT
[02:12:09.093260] [91] SYS_STATUS
[02:12:09.335299] [92] BATTERY_STATUS
[02:12:09.337207] [93] EXTENDED_SYS_STATE
[02:12:09.344260] [94] ATTITUDE_TARGET
[02:12:09.349186] [95] VFR_HUD
[02:12:09.353213] [96] SYSTEM_TIME
[02:12:09.999233] [97] VFR_HUD
[02:12:10.018475] [98] HEARTBEAT
[02:12:10.689091] [99] VFR_HUD
[02:12:11.048104] [100] HEARTBEAT
[02:12:11.055996] [101] ATTITUDE_TARGET
[02:12:11.499027] [102] VFR_HUD
[02:12:12.065016] [103] HEARTBEAT
[02:12:12.298963] [104] VFR_HUD
[02:12:13.116869] [105] HEARTBEAT
[02:12:13.123820] [106] SYS_STATUS
[02:12:13.242928] [107] BATTERY_STATUS
[02:12:13.250822] [108] ATTITUDE_TARGET
[02:12:13.280915] [109] VFR_HUD
[02:12:13.827760] [110] VFR_HUD
[02:12:14.024773] [111] HEARTBEAT
[02:12:14.724667] [112] VFR_HUD
[02:12:15.068669] [113] HEARTBEAT
[02:12:15.076584] [114] ATTITUDE_TARGET
[02:12:15.414572] [115] VFR_HUD
[02:12:16.094558] [116] HEARTBEAT
[02:12:16.439539] [117] VFR_HUD
[02:12:17.137442] [118] HEARTBEAT
[02:12:17.143449] [119] SYS_STATUS
[02:12:17.258425] [120] BATTERY_STATUS
[02:12:17.376409] [121] ATTITUDE_TARGET
[02:12:17.381353] [122] VFR_HUD
[02:12:17.819344] [123] VFR_HUD
[02:12:18.045450] [124] HEARTBEAT
[02:12:18.629262] [125] VFR_HUD
[02:12:19.099289] [126] HEARTBEAT
[02:12:19.106232] [127] ATTITUDE_TARGET
[02:12:19.429182] [128] VFR_HUD
[02:12:20.010139] [129] HEARTBEAT
[02:12:20.239230] [130] VFR_HUD
[02:12:21.047059] [131] HEARTBEAT
[02:12:21.054030] [132] SYS_STATUS
[02:12:21.169593] [133] BATTERY_STATUS
[02:12:21.286019] [134] ATTITUDE_TARGET
[02:12:21.291003] [135] VFR_HUD
[02:12:21.877048] [136] VFR_HUD
[02:12:22.074995] [137] HEARTBEAT
[02:12:22.649019] [138] VFR_HUD
[02:12:22.999838] [139] HEARTBEAT
[02:12:23.034839] [140] ATTITUDE_TARGET
[02:12:23.463814] [141] VFR_HUD
[02:12:24.024722] [142] HEARTBEAT
[02:12:24.258645] [143] VFR_HUD
[02:12:25.081757] [144] HEARTBEAT
[02:12:25.087580] [145] SYS_STATUS
[02:12:25.127671] [146] BATTERY_STATUS
[02:12:25.135697] [147] ATTITUDE_TARGET
[02:12:25.140559] [148] VFR_HUD
[02:12:26.103556] [149] VFR_HUD
[02:12:26.106486] [150] HEARTBEAT
[02:12:26.788532] [151] VFR_HUD
[02:12:27.027472] [152] HEARTBEAT
[02:12:27.035419] [153] ATTITUDE_TARGET
[02:12:27.478377] [154] VFR_HUD
[02:12:28.059336] [155] HEARTBEAT
[02:12:28.288417] [156] VFR_HUD
[02:12:29.096247] [157] HEARTBEAT
[02:12:29.102343] [158] SYS_STATUS
[02:12:29.344224] [159] BATTERY_STATUS
[02:12:29.346118] [160] EXTENDED_SYS_STATE
[02:12:29.353156] [161] ATTITUDE_TARGET
[02:12:29.358128] [162] VFR_HUD
[02:12:29.362133] [163] SYSTEM_TIME
[02:12:30.008135] [164] VFR_HUD
[02:12:30.037191] [165] HEARTBEAT
[02:12:30.698107] [166] VFR_HUD
[02:12:31.168147] [167] HEARTBEAT
[02:12:31.175031] [168] ATTITUDE_TARGET
[02:12:31.508002] [169] VFR_HUD
[02:12:32.073964] [170] HEARTBEAT
[02:12:32.307931] [171] VFR_HUD
[02:12:32.998863] [172] HEARTBEAT
[02:12:33.019044] [173] SYS_STATUS
[02:12:33.061934] [174] BATTERY_STATUS
[02:12:33.069852] [175] ATTITUDE_TARGET
[02:12:33.074833] [176] VFR_HUD
[02:12:34.045780] [177] VFR_HUD
[02:12:34.047708] [178] HEARTBEAT
[02:12:34.614670] [179] VFR_HUD
[02:12:35.078636] [180] HEARTBEAT
[02:12:35.086625] [181] ATTITUDE_TARGET
[02:12:35.419677] [182] VFR_HUD
[02:12:36.104520] [183] HEARTBEAT
[02:12:36.219555] [184] VFR_HUD
[02:12:37.147435] [185] HEARTBEAT
[02:12:37.153555] [186] SYS_STATUS
[02:12:37.273462] [187] BATTERY_STATUS
[02:12:37.386450] [188] ATTITUDE_TARGET
[02:12:37.390379] [189] VFR_HUD
[02:12:37.829328] [190] VFR_HUD
[02:12:38.054389] [191] HEARTBEAT
[02:12:38.639340] [192] VFR_HUD
[02:12:39.108407] [193] HEARTBEAT
[02:12:39.116229] [194] ATTITUDE_TARGET
[02:12:39.439252] [195] VFR_HUD
[02:12:40.015274] [196] HEARTBEAT
[02:12:40.250137] [197] VFR_HUD
[02:12:41.057185] [198] HEARTBEAT
[02:12:41.064015] [199] SYS_STATUS
[02:12:41.179109] [200] BATTERY_STATUS
[02:12:41.296032] [201] ATTITUDE_TARGET
[02:12:41.300968] [202] VFR_HUD
[02:12:41.864905] [203] VFR_HUD
[02:12:42.093997] [204] HEARTBEAT
[02:12:42.659906] [205] VFR_HUD
[02:12:43.010881] [206] HEARTBEAT
[02:12:43.127853] [207] ATTITUDE_TARGET
[02:12:43.579825] [208] VFR_HUD
[02:12:44.034712] [209] HEARTBEAT
[02:12:44.269772] [210] VFR_HUD
[02:12:45.092681] [211] HEARTBEAT
[02:12:45.099653] [212] SYS_STATUS
[02:12:45.138760] [213] BATTERY_STATUS
[02:12:45.146641] [214] ATTITUDE_TARGET
[02:12:45.151731] [215] VFR_HUD
[02:12:46.115645] [216] VFR_HUD
[02:12:46.118477] [217] HEARTBEAT
[02:12:46.799417] [218] VFR_HUD
[02:12:47.038563] [219] HEARTBEAT
[02:12:47.046400] [220] ATTITUDE_TARGET
[02:12:47.489394] [221] VFR_HUD
[02:12:48.070326] [222] HEARTBEAT
[02:12:48.299282] [223] VFR_HUD
[02:12:49.025248] [224] HEARTBEAT
[02:12:49.032352] [225] SYS_STATUS
[02:12:49.063194] [226] BATTERY_STATUS
[02:12:49.065311] [227] EXTENDED_SYS_STATE
[02:12:49.073277] [228] ATTITUDE_TARGET
[02:12:49.078170] [229] VFR_HUD
[02:12:49.081139] [230] SYSTEM_TIME
[02:12:49.909085] [231] VFR_HUD
[02:12:50.015087] [232] HEARTBEAT
[02:12:50.709050] [233] VFR_HUD
[02:12:51.074012] [234] HEARTBEAT
[02:12:51.081983] [235] ATTITUDE_TARGET
[02:12:51.524976] [236] VFR_HUD
[02:12:52.084970] [237] HEARTBEAT
[02:12:52.214856] [238] VFR_HUD
[02:12:53.009836] [239] HEARTBEAT
[02:12:53.029802] [240] SYS_STATUS
[02:12:53.073746] [241] BATTERY_STATUS
[02:12:53.080748] [242] ATTITUDE_TARGET
[02:12:53.085755] [243] VFR_HUD
[02:12:54.084657] [244] VFR_HUD
[02:12:54.087741] [245] HEARTBEAT
[02:12:54.620712] [246] VFR_HUD
[02:12:55.090565] [247] HEARTBEAT
[02:12:55.097591] [248] ATTITUDE_TARGET
[02:12:55.430600] [249] VFR_HUD
[02:12:56.001524] [250] HEARTBEAT
[02:12:56.230467] [251] VFR_HUD
[02:12:57.158478] [252] HEARTBEAT
[02:12:57.165391] [253] SYS_STATUS
[02:12:57.285495] [254] BATTERY_STATUS
[02:12:57.397436] [255] ATTITUDE_TARGET
[02:12:57.402440] [0] VFR_HUD
[02:12:57.841405] [1] VFR_HUD
[02:12:58.066389] [2] HEARTBEAT
[02:12:58.761344] [3] VFR_HUD
[02:12:59.120274] [4] HEARTBEAT
[02:12:59.128176] [5] ATTITUDE_TARGET
[02:12:59.451205] [6] VFR_HUD
[02:13:00.136216] [7] HEARTBEAT
[02:13:00.371074] [8] VFR_HUD
[02:13:01.068136] [9] HEARTBEAT
[02:13:01.075017] [10] SYS_STATUS
[02:13:01.314044] [11] BATTERY_STATUS
[02:13:01.320992] [12] ATTITUDE_TARGET
[02:13:01.352037] [13] VFR_HUD
[02:13:01.876035] [14] VFR_HUD
[02:13:02.105021] [15] HEARTBEAT
[02:13:02.670826] [16] VFR_HUD
[02:13:03.139828] [17] HEARTBEAT
[02:13:03.147805] [18] ATTITUDE_TARGET
[02:13:03.485881] [19] VFR_HUD
[02:13:04.045816] [20] HEARTBEAT
[02:13:04.280711] [21] VFR_HUD
[02:13:05.207620] [22] HEARTBEAT
[02:13:05.214591] [23] SYS_STATUS
[02:13:05.334589] [24] BATTERY_STATUS
[02:13:05.446576] [25] ATTITUDE_TARGET
[02:13:05.451537] [26] VFR_HUD
[02:13:05.890534] [27] VFR_HUD
[02:13:06.010623] [28] HEARTBEAT
[02:13:06.700469] [29] VFR_HUD
[02:13:07.049540] [30] HEARTBEAT
[02:13:07.057403] [31] ATTITUDE_TARGET
[02:13:07.500430] [32] VFR_HUD
[02:13:08.103430] [33] HEARTBEAT
[02:13:08.310304] [34] VFR_HUD
[02:13:09.001187] [35] HEARTBEAT
[02:13:09.133236] [36] SYS_STATUS
[02:13:09.141231] [37] BATTERY_STATUS
[02:13:09.142137] [38] EXTENDED_SYS_STATE
[02:13:09.166244] [39] ATTITUDE_TARGET
[02:13:09.171321] [40] VFR_HUD
[02:13:09.174298] [41] SYSTEM_TIME
[02:13:09.925242] [42] VFR_HUD
[02:13:10.037124] [43] HEARTBEAT
[02:13:10.615020] [44] VFR_HUD
[02:13:11.107083] [45] HEARTBEAT
[02:13:11.115000] [46] ATTITUDE_TARGET
[02:13:11.409957] [47] VFR_HUD
[02:13:12.095969] [48] HEARTBEAT
[02:13:12.329881] [49] VFR_HUD
[02:13:13.027827] [50] HEARTBEAT
[02:13:13.034852] [51] SYS_STATUS
[02:13:13.272925] [52] BATTERY_STATUS
[02:13:13.280790] [53] ATTITUDE_TARGET
[02:13:13.310872] [54] VFR_HUD
[02:13:13.829773] [55] VFR_HUD
[02:13:14.082837] [56] HEARTBEAT
[02:13:14.629718] [57] VFR_HUD
[02:13:15.099714] [58] HEARTBEAT
[02:13:15.107728] [59] ATTITUDE_TARGET
[02:13:15.439661] [60] VFR_HUD
[02:13:16.005641] [61] HEARTBEAT
[02:13:16.240586] [62] VFR_HUD
[02:13:17.058484] [63] HEARTBEAT
[02:13:17.064580] [64] SYS_STATUS
[02:13:17.183526] [65] BATTERY_STATUS
[02:13:17.191446] [66] ATTITUDE_TARGET
[02:13:17.221521] [67] VFR_HUD
[02:13:17.850498] [68] VFR_HUD
[02:13:18.076356] [69] HEARTBEAT
[02:13:18.665295] [70] VFR_HUD
[02:13:19.158325] [71] HEARTBEAT
[02:13:19.165267] [72] ATTITUDE_TARGET
[02:13:19.460299] [73] VFR_HUD
[02:13:20.146132] [74] HEARTBEAT
[02:13:20.381101] [75] VFR_HUD
[02:13:21.077987] [76] HEARTBEAT
[02:13:21.084972] [77] SYS_STATUS
[02:13:21.205014] [78] BATTERY_STATUS
[02:13:21.317087] [79] ATTITUDE_TARGET
[02:13:21.321927] [80] VFR_HUD
[02:13:21.886100] [81] VFR_HUD
[02:13:22.215912] [82] HEARTBEAT
[02:13:22.680897] [83] VFR_HUD
[02:13:23.039933] [84] HEARTBEAT
[02:13:23.047846] [85] ATTITUDE_TARGET
[02:13:23.600841] [86] VFR_HUD
[02:13:24.055760] [87] HEARTBEAT
[02:13:24.290722] [88] VFR_HUD
[02:13:25.107746] [89] HEARTBEAT
[02:13:25.114641] [90] SYS_STATUS
[02:13:25.233645] [91] BATTERY_STATUS
[02:13:25.240597] [92] ATTITUDE_TARGET
[02:13:25.271596] [93] VFR_HUD
[02:13:25.900530] [94] VFR_HUD
[02:13:26.015621] [95] HEARTBEAT
[02:13:26.710397] [96] VFR_HUD
[02:13:27.059427] [97] HEARTBEAT
[02:13:27.067397] [98] ATTITUDE_TARGET
[02:13:27.510323] [99] VFR_HUD
[02:13:28.195468] [100] HEARTBEAT
[02:13:28.218389] [101] VFR_HUD
[02:13:29.128278] [102] HEARTBEAT
[02:13:29.134297] [103] SYS_STATUS
[02:13:29.376225] [104] BATTERY_STATUS
[02:13:29.378239] [105] EXTENDED_SYS_STATE
[02:13:29.386311] [106] ATTITUDE_TARGET
[02:13:29.391191] [107] VFR_HUD
[02:13:29.394148] [108] SYSTEM_TIME
[02:13:29.810142] [109] VFR_HUD
[02:13:30.036232] [110] HEARTBEAT
[02:13:30.731147] [111] VFR_HUD
[02:13:31.095147] [112] HEARTBEAT
[02:13:31.102985] [113] ATTITUDE_TARGET
[02:13:31.421016] [114] VFR_HUD
[02:13:32.107080] [115] HEARTBEAT
[02:13:32.341006] [116] VFR_HUD
[02:13:33.037946] [117] HEARTBEAT
[02:13:33.044811] [118] SYS_STATUS
[02:13:33.159776] [119] BATTERY_STATUS
[02:13:33.277769] [120] ATTITUDE_TARGET
[02:13:33.281733] [121] VFR_HUD
[02:13:33.840727] [122] VFR_HUD
[02:13:34.071716] [123] HEARTBEAT
[02:13:34.640676] [124] VFR_HUD
[02:13:35.109664] [125] HEARTBEAT
[02:13:35.117633] [126] ATTITUDE_TARGET
[02:13:35.450604] [127] VFR_HUD
[02:13:36.016654] [128] HEARTBEAT
[02:13:36.250530] [129] VFR_HUD
[02:13:37.072416] [130] HEARTBEAT
[02:13:37.079399] [131] SYS_STATUS
[02:13:37.119421] [132] BATTERY_STATUS
[02:13:37.127417] [133] ATTITUDE_TARGET
[02:13:37.131381] [134] VFR_HUD
[02:13:38.096356] [135] VFR_HUD
[02:13:38.099282] [136] HEARTBEAT
[02:13:38.675388] [137] VFR_HUD
[02:13:39.005385] [138] HEARTBEAT
[02:13:39.028264] [139] ATTITUDE_TARGET
[02:13:39.470349] [140] VFR_HUD
[02:13:40.046161] [141] HEARTBEAT
[02:13:40.308096] [142] VFR_HUD
[02:13:41.088157] [143] HEARTBEAT
[02:13:41.095039] [144] SYS_STATUS
[02:13:41.259142] [145] BATTERY_STATUS
[02:13:41.267019] [146] ATTITUDE_TARGET
[02:13:41.271934] [147] VFR_HUD
[02:13:42.130990] [148] VFR_HUD
[02:13:42.133957] [149] HEARTBEAT
[02:13:42.689960] [150] VFR_HUD
