[01:18:36.126313] [170] HEARTBEAT
[01:18:36.134160] [171] ATTITUDE_TARGET
[01:18:36.495253] [172] VFR_HUD
[01:18:37.032011] [173] HEARTBEAT
[01:18:37.267069] [174] VFR_HUD
[01:18:38.084868] [175] HEARTBEAT
[01:18:38.090855] [176] SYS_STATUS
[01:18:38.212859] [177] BATTERY_STATUS
[01:18:38.214825] [178] EXTENDED_SYS_STATE
[01:18:38.222813] [179] ATTITUDE_TARGET
[01:18:38.226804] [180] VFR_HUD
[01:18:38.230887] [181] SYSTEM_TIME
[01:18:38.876784] [182] VFR_HUD
[01:18:38.997790] [183] HEARTBEAT
[01:18:39.686528] [184] VFR_HUD
[01:18:40.036543] [185] HEARTBEAT
[01:18:40.043450] [186] ATTITUDE_TARGET
[01:18:40.486406] [187] VFR_HUD
[01:18:41.067362] [188] HEARTBEAT
[01:18:41.296245] [189] VFR_HUD
[01:18:42.104147] [190] HEARTBEAT
[01:18:42.111286] [191] SYS_STATUS
[01:18:42.226103] [192] BATTERY_STATUS
[01:18:42.343138] [193] ATTITUDE_TARGET
[01:18:42.348046] [194] VFR_HUD
[01:18:42.913208] [195] VFR_HUD
[01:18:43.023974] [196] HEARTBEAT
[01:18:43.706886] [197] VFR_HUD
[01:18:44.070932] [198] HEARTBEAT
[01:18:44.078899] [199] ATTITUDE_TARGET
[01:18:44.544756] [200] VFR_HUD
[01:18:45.082672] [201] HEARTBEAT
[01:18:45.316654] [202] VFR_HUD
[01:18:46.139441] [203] HEARTBEAT
[01:18:46.146412] [204] SYS_STATUS
[01:18:46.186461] [205] BATTERY_STATUS
[01:18:46.193868] [206] ATTITUDE_TARGET
[01:18:46.198405] [207] VFR_HUD
[01:18:46.817266] [208] VFR_HUD
[01:18:47.047409] [209] HEARTBEAT
[01:18:47.617170] [210] VFR_HUD
[01:18:48.086224] [211] HEARTBEAT
[01:18:48.094201] [212] ATTITUDE_TARGET
[01:18:48.427012] [213] VFR_HUD
[01:18:49.117006] [214] HEARTBEAT
[01:18:49.226929] [215] VFR_HUD
[01:18:50.044946] [216] HEARTBEAT
[01:18:50.050921] [217] SYS_STATUS
[01:18:50.169877] [218] BATTERY_STATUS
[01:18:50.177819] [219] ATTITUDE_TARGET
[01:18:50.207773] [220] VFR_HUD
[01:18:50.836649] [221] VFR_HUD
[01:18:51.062763] [222] HEARTBEAT
[01:18:51.651540] [223] VFR_HUD
[01:18:52.120584] [224] HEARTBEAT
[01:18:52.128487] [225] ATTITUDE_TARGET
[01:18:52.446466] [226] VFR_HUD
[01:18:53.022356] [227] HEARTBEAT
[01:18:53.261407] [228] VFR_HUD
[01:18:54.064154] [229] HEARTBEAT
[01:18:54.071110] [230] SYS_STATUS
[01:18:54.191205] [231] BATTERY_STATUS
[01:18:54.303089] [232] ATTITUDE_TARGET
[01:18:54.308127] [233] VFR_HUD
[01:18:54.872037] [234] VFR_HUD
[01:18:55.091936] [235] HEARTBEAT
[01:18:55.666818] [236] VFR_HUD
[01:18:56.025839] [237] HEARTBEAT
[01:18:56.033782] [238] ATTITUDE_TARGET
[01:18:56.476637] [239] VFR_HUD
[01:18:57.041636] [240] HEARTBEAT
[01:18:57.276607] [241] VFR_HUD
[01:18:58.093507] [242] HEARTBEAT
[01:18:58.100382] [243] SYS_STATUS
[01:18:58.222386] [244] BATTERY_STATUS
[01:18:58.224298] [245] EXTENDED_SYS_STATE
[01:18:58.231344] [246] ATTITUDE_TARGET
[01:18:58.236291] [247] VFR_HUD
[01:18:58.240303] [248] SYSTEM_TIME
[01:18:58.886382] [249] VFR_HUD
[01:18:59.113810] [250] HEARTBEAT
[01:18:59.696091] [251] VFR_HUD
[01:19:00.045053] [252] HEARTBEAT
[01:19:00.052987] [253] ATTITUDE_TARGET
[01:19:00.496242] [254] VFR_HUD
[01:19:01.071861] [255] HEARTBEAT
[01:19:01.310753] [0] VFR_HUD
[01:19:02.113699] [1] HEARTBEAT
[01:19:02.120660] [2] SYS_STATUS
[01:19:02.234684] [3] BATTERY_STATUS
[01:19:02.352631] [4] ATTITUDE_TARGET
[01:19:02.357555] [5] VFR_HUD
[01:19:02.921526] [6] VFR_HUD
[01:19:03.032487] [7] HEARTBEAT
[01:19:03.715292] [8] VFR_HUD
[01:19:04.080341] [9] HEARTBEAT
[01:19:04.088212] [10] ATTITUDE_TARGET
[01:19:04.531190] [11] VFR_HUD
[01:19:05.091143] [12] HEARTBEAT
[01:19:05.215033] [13] VFR_HUD
[01:19:06.023068] [14] HEARTBEAT
[01:19:06.030059] [15] SYS_STATUS
[01:19:06.145047] [16] BATTERY_STATUS
[01:19:06.261894] [17] ATTITUDE_TARGET
[01:19:06.266839] [18] VFR_HUD
[01:19:06.825955] [19] VFR_HUD
[01:19:07.055779] [20] HEARTBEAT
[01:19:07.625886] [21] VFR_HUD
[01:19:08.094878] [22] HEARTBEAT
[01:19:08.102720] [23] ATTITUDE_TARGET
[01:19:08.435671] [24] VFR_HUD
[01:19:09.126625] [25] HEARTBEAT
[01:19:09.235469] [26] VFR_HUD
[01:19:10.058348] [27] HEARTBEAT
[01:19:10.065358] [28] SYS_STATUS
[01:19:10.104330] [29] BATTERY_STATUS
[01:19:10.113063] [30] ATTITUDE_TARGET
[01:19:10.117320] [31] VFR_HUD
[01:19:11.081186] [32] VFR_HUD
[01:19:11.084181] [33] HEARTBEAT
[01:19:11.683128] [34] VFR_HUD
[01:19:12.129985] [35] HEARTBEAT
[01:19:12.137910] [36] ATTITUDE_TARGET
[01:19:12.455992] [37] VFR_HUD
[01:19:13.030953] [38] HEARTBEAT
[01:19:13.270870] [39] VFR_HUD
[01:19:14.072756] [40] HEARTBEAT
[01:19:14.079618] [41] SYS_STATUS
[01:19:14.199712] [42] BATTERY_STATUS
[01:19:14.312647] [43] ATTITUDE_TARGET
[01:19:14.316623] [44] VFR_HUD
[01:19:14.875486] [45] VFR_HUD
[01:19:15.106516] [46] HEARTBEAT
[01:19:15.675410] [47] VFR_HUD
[01:19:16.035264] [48] HEARTBEAT
[01:19:16.042289] [49] ATTITUDE_TARGET
[01:19:16.486469] [50] VFR_HUD
[01:19:17.051317] [51] HEARTBEAT
[01:19:17.286052] [52] VFR_HUD
[01:19:18.102823] [53] HEARTBEAT
[01:19:18.109818] [54] SYS_STATUS
[01:19:18.231850] [55] BATTERY_STATUS
[01:19:18.233768] [56] EXTENDED_SYS_STATE
[01:19:18.240778] [57] ATTITUDE_TARGET
[01:19:18.245770] [58] VFR_HUD
[01:19:18.249865] [59] SYSTEM_TIME
[01:19:18.895677] [60] VFR_HUD
[01:19:19.010662] [61] HEARTBEAT
[01:19:19.733539] [62] VFR_HUD
[01:19:20.054517] [63] HEARTBEAT
[01:19:20.062507] [64] ATTITUDE_TARGET
[01:19:20.505418] [65] VFR_HUD
[01:19:21.081367] [66] HEARTBEAT
[01:19:21.320248] [67] VFR_HUD
[01:19:22.001179] [68] HEARTBEAT
[01:19:22.021147] [69] SYS_STATUS
[01:19:22.064146] [70] BATTERY_STATUS
[01:19:22.072170] [71] ATTITUDE_TARGET
[01:19:22.077090] [72] VFR_HUD
[01:19:23.040978] [73] VFR_HUD
[01:19:23.043943] [74] HEARTBEAT
[01:19:23.615829] [75] VFR_HUD
[01:19:24.084906] [76] HEARTBEAT
[01:19:24.092820] [77] ATTITUDE_TARGET
[01:19:24.415639] [78] VFR_HUD
[01:19:25.100534] [79] HEARTBEAT
[01:19:25.225717] [80] VFR_HUD
[01:19:26.033367] [81] HEARTBEAT
[01:19:26.039461] [82] SYS_STATUS
[01:19:26.154356] [83] BATTERY_STATUS
[01:19:26.272383] [84] ATTITUDE_TARGET
[01:19:26.277333] [85] VFR_HUD
[01:19:26.835210] [86] VFR_HUD
[01:19:27.066217] [87] HEARTBEAT
[01:19:27.636014] [88] VFR_HUD
[01:19:28.105053] [89] HEARTBEAT
[01:19:28.113039] [90] ATTITUDE_TARGET
[01:19:28.450895] [91] VFR_HUD
[01:19:29.010915] [92] HEARTBEAT
[01:19:29.244874] [93] VFR_HUD
[01:19:30.067721] [94] HEARTBEAT
[01:19:30.074619] [95] SYS_STATUS
[01:19:30.114622] [96] BATTERY_STATUS
[01:19:30.121571] [97] ATTITUDE_TARGET
[01:19:30.126686] [98] VFR_HUD
[01:19:31.090490] [99] VFR_HUD
[01:19:31.093488] [100] HEARTBEAT
[01:19:31.670428] [101] VFR_HUD
[01:19:32.000302] [102] HEARTBEAT
[01:19:32.138258] [103] ATTITUDE_TARGET
[01:19:32.465358] [104] VFR_HUD
[01:19:33.045173] [105] HEARTBEAT
[01:19:33.275199] [106] VFR_HUD
[01:19:34.082045] [107] HEARTBEAT
[01:19:34.089133] [108] SYS_STATUS
[01:19:34.208973] [109] BATTERY_STATUS
[01:19:34.321035] [110] ATTITUDE_TARGET
[01:19:34.325906] [111] VFR_HUD
[01:19:34.884819] [112] VFR_HUD
[01:19:35.114793] [113] HEARTBEAT
[01:19:35.684736] [114] VFR_HUD
[01:19:36.043689] [115] HEARTBEAT
[01:19:36.051621] [116] ATTITUDE_TARGET
[01:19:36.494735] [117] VFR_HUD
[01:19:37.059574] [118] HEARTBEAT
[01:19:37.294403] [119] VFR_HUD
[01:19:38.117521] [120] HEARTBEAT
[01:19:38.123263] [121] SYS_STATUS
[01:19:38.158338] [122] BATTERY_STATUS
[01:19:38.159201] [123] EXTENDED_SYS_STATE
[01:19:38.167263] [124] ATTITUDE_TARGET
[01:19:38.172270] [125] VFR_HUD
[01:19:38.175319] [126] SYSTEM_TIME
[01:19:38.822110] [127] VFR_HUD
[01:19:39.020232] [128] HEARTBEAT
[01:19:39.719184] [129] VFR_HUD
[01:19:40.063130] [130] HEARTBEAT
[01:19:40.070952] [131] ATTITUDE_TARGET
[01:19:40.513895] [132] VFR_HUD
[01:19:41.089847] [133] HEARTBEAT
[01:19:41.329739] [134] VFR_HUD
[01:19:42.021652] [135] HEARTBEAT
[01:19:42.028563] [136] SYS_STATUS
[01:19:42.146574] [137] BATTERY_STATUS
[01:19:42.154671] [138] ATTITUDE_TARGET
[01:19:42.184497] [139] VFR_HUD
[01:19:42.813530] [140] VFR_HUD
[01:19:43.039500] [141] HEARTBEAT
[01:19:43.624388] [142] VFR_HUD
[01:19:44.093203] [143] HEARTBEAT
[01:19:44.101165] [144] ATTITUDE_TARGET
[01:19:44.424283] [145] VFR_HUD
[01:19:44.999140] [146] HEARTBEAT
[01:19:45.234020] [147] VFR_HUD
[01:19:46.041907] [148] HEARTBEAT
[01:19:46.047852] [149] SYS_STATUS
[01:19:46.162896] [150] BATTERY_STATUS
[01:19:46.280853] [151] ATTITUDE_TARGET
[01:19:46.285758] [152] VFR_HUD
[01:19:46.871772] [153] VFR_HUD
[01:19:47.069661] [154] HEARTBEAT
[01:19:47.643587] [155] VFR_HUD
[01:19:48.113673] [156] HEARTBEAT
[01:19:48.121465] [157] ATTITUDE_TARGET
[01:19:48.459498] [158] VFR_HUD
[01:19:49.019323] [159] HEARTBEAT
[01:19:49.254246] [160] VFR_HUD
[01:19:50.071144] [161] HEARTBEAT
[01:19:50.078094] [162] SYS_STATUS
[01:19:50.197093] [163] BATTERY_STATUS
[01:19:50.205076] [164] ATTITUDE_TARGET
[01:19:50.235168] [165] VFR_HUD
[01:19:50.863954] [166] VFR_HUD
[01:19:51.089975] [167] HEARTBEAT
[01:19:51.673804] [168] VFR_HUD
[01:19:52.009819] [169] HEARTBEAT
[01:19:52.031831] [170] ATTITUDE_TARGET
[01:19:52.474730] [171] VFR_HUD
[01:19:53.054596] [172] HEARTBEAT
[01:19:53.284518] [173] VFR_HUD
[01:19:54.091366] [174] HEARTBEAT
[01:19:54.098359] [175] SYS_STATUS
[01:19:54.213357] [176] BATTERY_STATUS
[01:19:54.331336] [177] ATTITUDE_TARGET
[01:19:54.335324] [178] VFR_HUD
[01:19:55.010219] [179] VFR_HUD
[01:19:55.013191] [180] HEARTBEAT
[01:19:55.694139] [181] VFR_HUD
[01:19:56.059072] [182] HEARTBEAT
[01:19:56.066155] [183] ATTITUDE_TARGET
[01:19:56.510007] [184] VFR_HUD
[01:19:57.069943] [185] HEARTBEAT
[01:19:57.304873] [186] VFR_HUD
[01:19:58.126808] [187] HEARTBEAT
[01:19:58.133727] [188] SYS_STATUS
[01:19:58.167796] [189] BATTERY_STATUS
[01:19:58.169952] [190] EXTENDED_SYS_STATE
[01:19:58.177850] [191] ATTITUDE_TARGET
[01:19:58.182756] [192] VFR_HUD
[01:19:58.185790] [193] SYSTEM_TIME
[01:19:58.914576] [194] VFR_HUD
[01:19:59.029568] [195] HEARTBEAT
[01:19:59.729496] [196] VFR_HUD
[01:20:00.073430] [197] HEARTBEAT
[01:20:00.081415] [198] ATTITUDE_TARGET
[01:20:00.414348] [199] VFR_HUD
[01:20:01.105207] [200] HEARTBEAT
[01:20:01.214179] [201] VFR_HUD
[01:20:02.032059] [202] HEARTBEAT
[01:20:02.038074] [203] SYS_STATUS
[01:20:02.157015] [204] BATTERY_STATUS
[01:20:02.165015] [205] ATTITUDE_TARGET
[01:20:02.195034] [206] VFR_HUD
[01:20:02.823895] [207] VFR_HUD
[01:20:03.049968] [208] HEARTBEAT
[01:20:03.633907] [209] VFR_HUD
[01:20:04.103768] [210] HEARTBEAT
[01:20:04.110756] [211] ATTITUDE_TARGET
[01:20:04.434663] [212] VFR_HUD
[01:20:05.009555] [213] HEARTBEAT
[01:20:05.249613] [214] VFR_HUD
[01:20:06.051434] [215] HEARTBEAT
[01:20:06.058357] [216] SYS_STATUS
[01:20:06.173291] [217] BATTERY_STATUS
[01:20:06.290378] [218] ATTITUDE_TARGET
[01:20:06.295474] [219] VFR_HUD
[01:20:06.859285] [220] VFR_HUD
[01:20:07.088213] [221] HEARTBEAT
[01:20:07.654040] [222] VFR_HUD
[01:20:08.000084] [223] HEARTBEAT
[01:20:08.022013] [224] ATTITUDE_TARGET
[01:20:08.468930] [225] VFR_HUD
[01:20:09.029779] [226] HEARTBEAT
[01:20:09.263771] [227] VFR_HUD
[01:20:10.081697] [228] HEARTBEAT
[01:20:10.088614] [229] SYS_STATUS
[01:20:10.206619] [230] BATTERY_STATUS
[01:20:10.214617] [231] ATTITUDE_TARGET
[01:20:10.244717] [232] VFR_HUD
[01:20:10.874517] [233] VFR_HUD
[01:20:11.099470] [234] HEARTBEAT
[01:20:11.684540] [235] VFR_HUD
[01:20:12.033366] [236] HEARTBEAT
[01:20:12.041355] [237] ATTITUDE_TARGET
[01:20:12.484243] [238] VFR_HUD
[01:20:13.065343] [239] HEARTBEAT
[01:20:13.294418] [240] VFR_HUD
[01:20:14.020041] [241] HEARTBEAT
[01:20:14.027098] [242] SYS_STATUS
[01:20:14.064068] [243] BATTERY_STATUS
[01:20:14.071034] [244] ATTITUDE_TARGET
[01:20:14.076102] [245] VFR_HUD
[01:20:15.019839] [246] VFR_HUD
[01:20:15.022921] [247] HEARTBEAT
[01:20:15.704828] [248] VFR_HUD
[01:20:16.068858] [249] HEARTBEAT
[01:20:16.076734] [250] ATTITUDE_TARGET
[01:20:16.519716] [251] VFR_HUD
[01:20:16.997654] [252] HEARTBEAT
[01:20:17.314574] [253] VFR_HUD
[01:20:18.000424] [254] HEARTBEAT
[01:20:18.020434] [255] SYS_STATUS
[01:20:18.063381] [0] BATTERY_STATUS
[01:20:18.065300] [1] EXTENDED_SYS_STATE
[01:20:18.072386] [2] ATTITUDE_TARGET
[01:20:18.077496] [3] VFR_HUD
[01:20:18.081446] [4] SYSTEM_TIME
[01:20:18.814391] [5] VFR_HUD
[01:20:19.068304] [6] HEARTBEAT
[01:20:19.614199] [7] VFR_HUD
[01:20:20.084093] [8] HEARTBEAT
[01:20:20.091933] [9] ATTITUDE_TARGET
[01:20:20.425009] [10] VFR_HUD
[01:20:21.114821] [11] HEARTBEAT
[01:20:21.224768] [12] VFR_HUD
[01:20:22.083649] [13] HEARTBEAT
[01:20:22.090645] [14] SYS_STATUS
[01:20:22.097625] [15] BATTERY_STATUS
[01:20:22.110656] [16] ATTITUDE_TARGET
[01:20:22.115615] [17] VFR_HUD
[01:20:22.834468] [18] VFR_HUD
[01:20:23.060556] [19] HEARTBEAT
[01:20:23.649298] [20] VFR_HUD
[01:20:24.119385] [21] HEARTBEAT
[01:20:24.126255] [22] ATTITUDE_TARGET
[01:20:24.444340] [23] VFR_HUD
[01:20:25.130141] [24] HEARTBEAT
[01:20:25.260201] [25] VFR_HUD
[01:20:26.061943] [26] HEARTBEAT
[01:20:26.068929] [27] SYS_STATUS
[01:20:26.189003] [28] BATTERY_STATUS
[01:20:26.301012] [29] ATTITUDE_TARGET
[01:20:26.305873] [30] VFR_HUD
[01:20:26.869888] [31] VFR_HUD
[01:20:27.199721] [32] HEARTBEAT
[01:20:27.664601] [33] VFR_HUD
[01:20:28.023551] [34] HEARTBEAT
[01:20:28.031668] [35] ATTITUDE_TARGET
[01:20:28.474498] [36] VFR_HUD
[01:20:29.039547] [37] HEARTBEAT
[01:20:29.274385] [38] VFR_HUD
[01:20:30.201202] [39] HEARTBEAT
[01:20:30.208203] [40] SYS_STATUS
[01:20:30.328331] [41] BATTERY_STATUS
[01:20:30.440183] [42] ATTITUDE_TARGET
[01:20:30.445220] [43] VFR_HUD
[01:20:30.884107] [44] VFR_HUD
[01:20:31.109146] [45] HEARTBEAT
[01:20:31.694139] [46] VFR_HUD
[01:20:32.042933] [47] HEARTBEAT
[01:20:32.050927] [48] ATTITUDE_TARGET
[01:20:32.493886] [49] VFR_HUD
[01:20:33.178666] [50] HEARTBEAT
[01:20:33.218754] [51] VFR_HUD
[01:20:34.111530] [52] HEARTBEAT
[01:20:34.117550] [53] SYS_STATUS
[01:20:34.253527] [54] BATTERY_STATUS
[01:20:34.280513] [55] ATTITUDE_TARGET
[01:20:34.285523] [56] VFR_HUD
[01:20:34.919509] [57] VFR_HUD
[01:20:35.030445] [58] HEARTBEAT
[01:20:35.714266] [59] VFR_HUD
[01:20:36.101268] [60] HEARTBEAT
[01:20:36.109237] [61] ATTITUDE_TARGET
[01:20:36.409233] [62] VFR_HUD
[01:20:37.089063] [63] HEARTBEAT
[01:20:37.323977] [64] VFR_HUD
[01:20:38.021008] [65] HEARTBEAT
[01:20:38.028234] [66] SYS_STATUS
[01:20:38.163839] [67] BATTERY_STATUS
[01:20:38.193953] [68] EXTENDED_SYS_STATE
[01:20:38.201913] [69] ATTITUDE_TARGET
[01:20:38.206886] [70] VFR_HUD
[01:20:38.210837] [71] SYSTEM_TIME
[01:20:39.064750] [72] VFR_HUD
[01:20:39.067617] [73] HEARTBEAT
[01:20:39.623584] [74] VFR_HUD
[01:20:40.092585] [75] HEARTBEAT
[01:20:40.100530] [76] ATTITUDE_TARGET
[01:20:40.432420] [77] VFR_HUD
[01:20:41.003517] [78] HEARTBEAT
[01:20:41.233336] [79] VFR_HUD
[01:20:42.055208] [80] HEARTBEAT
[01:20:42.062263] [81] SYS_STATUS
[01:20:42.102151] [82] BATTERY_STATUS
[01:20:42.110259] [83] ATTITUDE_TARGET
[01:20:42.114145] [84] VFR_HUD
[01:20:43.079083] [85] VFR_HUD
[01:20:43.081955] [86] HEARTBEAT
[01:20:43.658013] [87] VFR_HUD
[01:20:44.149826] [88] HEARTBEAT
[01:20:44.157821] [89] ATTITUDE_TARGET
[01:20:44.452794] [90] VFR_HUD
[01:20:45.028658] [91] HEARTBEAT
[01:20:45.268672] [92] VFR_HUD
[01:20:46.070541] [93] HEARTBEAT
[01:20:46.077579] [94] SYS_STATUS
[01:20:46.197593] [95] BATTERY_STATUS
[01:20:46.309462] [96] ATTITUDE_TARGET
[01:20:46.314418] [97] VFR_HUD
[01:20:46.873363] [98] VFR_HUD
[01:20:47.126328] [99] HEARTBEAT
[01:20:47.673304] [100] VFR_HUD
[01:20:48.032183] [101] HEARTBEAT
[01:20:48.040048] [102] ATTITUDE_TARGET
[01:20:48.483151] [103] VFR_HUD
[01:20:49.049066] [104] HEARTBEAT
[01:20:49.200970] [105] VFR_HUD
[01:20:50.100845] [106] HEARTBEAT
[01:20:50.107928] [107] SYS_STATUS
[01:20:50.226767] [108] BATTERY_STATUS
[01:20:50.234757] [109] ATTITUDE_TARGET
[01:20:50.264693] [110] VFR_HUD
[01:20:50.893763] [111] VFR_HUD
[01:20:51.008715] [112] HEARTBEAT
[01:20:51.708593] [113] VFR_HUD
[01:20:52.052512] [114] HEARTBEAT
[01:20:52.060355] [115] ATTITUDE_TARGET
[01:20:52.503434] [116] VFR_HUD
[01:20:53.079340] [117] HEARTBEAT
[01:20:53.319174] [118] VFR_HUD
[01:20:54.121014] [119] HEARTBEAT
[01:20:54.127979] [120] SYS_STATUS
[01:20:54.292963] [121] BATTERY_STATUS
[01:20:54.300006] [122] ATTITUDE_TARGET
[01:20:54.304914] [123] VFR_HUD
[01:20:55.038995] [124] VFR_HUD
[01:20:55.041931] [125] HEARTBEAT
[01:20:55.613812] [126] VFR_HUD
[01:20:56.082792] [127] HEARTBEAT
[01:20:56.090701] [128] ATTITUDE_TARGET
[01:20:56.413753] [129] VFR_HUD
[01:20:56.994716] [130] HEARTBEAT
[01:20:57.333549] [131] VFR_HUD
[01:20:58.031567] [132] HEARTBEAT
[01:20:58.038449] [133] SYS_STATUS
[01:20:58.155654] [134] BATTERY_STATUS
[01:20:58.157402] [135] EXTENDED_SYS_STATE
[01:20:58.277508] [136] ATTITUDE_TARGET
[01:20:58.281371] [137] VFR_HUD
[01:20:58.285324] [138] SYSTEM_TIME
[01:20:58.833337] [139] VFR_HUD
[01:20:59.064360] [140] HEARTBEAT
[01:20:59.633122] [141] VFR_HUD
[01:21:00.103084] [142] HEARTBEAT
[01:21:00.110068] [143] ATTITUDE_TARGET
[01:21:00.448200] [144] VFR_HUD
[01:21:01.008972] [145] HEARTBEAT
[01:21:01.242890] [146] VFR_HUD
[01:21:02.065867] [147] HEARTBEAT
[01:21:02.072841] [148] SYS_STATUS
[01:21:02.111806] [149] BATTERY_STATUS
[01:21:02.119792] [150] ATTITUDE_TARGET
[01:21:02.124763] [151] VFR_HUD
[01:21:03.088716] [152] VFR_HUD
[01:21:03.091629] [153] HEARTBEAT
[01:21:03.668475] [154] VFR_HUD
[01:21:04.003500] [155] HEARTBEAT
[01:21:04.026502] [156] ATTITUDE_TARGET
[01:21:04.463300] [157] VFR_HUD
[01:21:05.044196] [158] HEARTBEAT
[01:21:05.383187] [159] VFR_HUD
[01:21:06.081159] [160] HEARTBEAT
[01:21:06.087034] [161] SYS_STATUS
[01:21:06.206945] [162] BATTERY_STATUS
[01:21:06.319963] [163] ATTITUDE_TARGET
[01:21:06.324917] [164] VFR_HUD
[01:21:06.882853] [165] VFR_HUD
[01:21:06.993788] [166] HEARTBEAT
[01:21:07.682805] [167] VFR_HUD
[01:21:08.042687] [168] HEARTBEAT
[01:21:08.050586] [169] ATTITUDE_TARGET
[01:21:08.493678] [170] VFR_HUD
[01:21:09.058618] [171] HEARTBEAT
[01:21:09.293458] [172] VFR_HUD
[01:21:10.115333] [173] HEARTBEAT
[01:21:10.122349] [174] SYS_STATUS
[01:21:10.162323] [175] BATTERY_STATUS
[01:21:10.170375] [176] ATTITUDE_TARGET
[01:21:10.174301] [177] VFR_HUD
[01:21:11.028240] [178] VFR_HUD
[01:21:11.031240] [179] HEARTBEAT
[01:21:11.718198] [180] VFR_HUD
[01:21:12.062051] [181] HEARTBEAT
[01:21:12.070021] [182] ATTITUDE_TARGET
[01:21:12.402961] [183] VFR_HUD
[01:21:13.088915] [184] HEARTBEAT
[01:21:13.202840] [185] VFR_HUD
[01:21:14.020777] [186] HEARTBEAT
[01:21:14.027681] [187] SYS_STATUS
[01:21:14.145668] [188] BATTERY_STATUS
[01:21:14.153644] [189] ATTITUDE_TARGET
[01:21:14.183735] [190] VFR_HUD
[01:21:14.813575] [191] VFR_HUD
[01:21:15.038640] [192] HEARTBEAT
[01:21:15.623353] [193] VFR_HUD
[01:21:16.092324] [194] HEARTBEAT
[01:21:16.100330] [195] ATTITUDE_TARGET
[01:21:16.423242] [196] VFR_HUD
[01:21:16.999251] [197] HEARTBEAT
[01:21:17.233078] [198] VFR_HUD
[01:21:18.040977] [199] HEARTBEAT
[01:21:18.047938] [200] SYS_STATUS
[01:21:18.165955] [201] BATTERY_STATUS
[01:21:18.166866] [202] EXTENDED_SYS_STATE
[01:21:18.287043] [203] ATTITUDE_TARGET
[01:21:18.291865] [204] VFR_HUD
[01:21:18.295097] [205] SYSTEM_TIME
[01:21:18.848802] [206] VFR_HUD
[01:21:19.068905] [207] HEARTBEAT
[01:21:19.643738] [208] VFR_HUD
[01:21:19.994813] [209] HEARTBEAT
[01:21:20.113122] [210] ATTITUDE_TARGET
[01:21:20.458611] [211] VFR_HUD
[01:21:21.019541] [212] HEARTBEAT
[01:21:21.253445] [213] VFR_HUD
[01:21:22.076386] [214] HEARTBEAT
[01:21:22.083313] [215] SYS_STATUS
[01:21:22.122364] [216] BATTERY_STATUS
[01:21:22.130324] [217] ATTITUDE_TARGET
[01:21:22.135327] [218] VFR_HUD
[01:21:23.099157] [219] VFR_HUD
[01:21:23.102121] [220] HEARTBEAT
[01:21:23.673206] [221] VFR_HUD
[01:21:24.023022] [222] HEARTBEAT
[01:21:24.030995] [223] ATTITUDE_TARGET
[01:21:24.473998] [224] VFR_HUD
[01:21:25.055255] [225] HEARTBEAT
[01:21:25.283941] [226] VFR_HUD
[01:21:26.091951] [227] HEARTBEAT
[01:21:26.097866] [228] SYS_STATUS
[01:21:26.212927] [229] BATTERY_STATUS
[01:21:26.330748] [230] ATTITUDE_TARGET
[01:21:26.335746] [231] VFR_HUD
[01:21:26.893662] [232] VFR_HUD
[01:21:27.004702] [233] HEARTBEAT
[01:21:27.693519] [234] VFR_HUD
[01:21:28.058471] [235] HEARTBEAT
[01:21:28.066413] [236] ATTITUDE_TARGET
[01:21:28.509376] [237] VFR_HUD
[01:21:29.069440] [238] HEARTBEAT
[01:21:29.304354] [239] VFR_HUD
[01:21:30.127127] [240] HEARTBEAT
[01:21:30.134101] [241] SYS_STATUS
[01:21:30.173078] [242] BATTERY_STATUS
[01:21:30.181106] [243] ATTITUDE_TARGET
[01:21:30.186316] [244] VFR_HUD
[01:21:31.040374] [245] VFR_HUD
[01:21:31.043125] [246] HEARTBEAT
[01:21:31.608925] [247] VFR_HUD
[01:21:32.072974] [248] HEARTBEAT
[01:21:32.080817] [249] ATTITUDE_TARGET
[01:21:32.523825] [250] VFR_HUD
[01:21:33.104672] [251] HEARTBEAT
[01:21:33.213759] [252] VFR_HUD
[01:21:34.031597] [253] HEARTBEAT
[01:21:34.038479] [254] SYS_STATUS
[01:21:34.156447] [255] BATTERY_STATUS
[01:21:34.164425] [0] ATTITUDE_TARGET
[01:21:34.194642] [1] VFR_HUD
[01:21:34.824322] [2] VFR_HUD
[01:21:35.049241] [3] HEARTBEAT
[01:21:35.634174] [4] VFR_HUD
[01:21:36.103128] [5] HEARTBEAT
[01:21:36.111110] [6] ATTITUDE_TARGET
[01:21:36.434041] [7] VFR_HUD
[01:21:37.008949] [8] HEARTBEAT
[01:21:37.248951] [9] VFR_HUD
[01:21:38.051869] [10] HEARTBEAT
[01:21:38.057727] [11] SYS_STATUS
[01:21:38.175730] [12] BATTERY_STATUS
[01:21:38.177660] [13] EXTENDED_SYS_STATE
[01:21:38.296800] [14] ATTITUDE_TARGET
[01:21:38.301652] [15] VFR_HUD
[01:21:38.305643] [16] SYSTEM_TIME
[01:21:38.858610] [17] VFR_HUD
[01:21:39.079608] [18] HEARTBEAT
[01:21:39.654523] [19] VFR_HUD
[01:21:40.013434] [20] HEARTBEAT
[01:21:40.021405] [21] ATTITUDE_TARGET
[01:21:40.491356] [22] VFR_HUD
[01:21:41.029378] [23] HEARTBEAT
[01:21:41.264307] [24] VFR_HUD
[01:21:42.081057] [25] HEARTBEAT
[01:21:42.088175] [26] SYS_STATUS
[01:21:42.207104] [27] BATTERY_STATUS
[01:21:42.215026] [28] ATTITUDE_TARGET
[01:21:42.245000] [29] VFR_HUD
[01:21:42.874056] [30] VFR_HUD
[01:21:42.995188] [31] HEARTBEAT
[01:21:43.683808] [32] VFR_HUD
[01:21:44.033735] [33] HEARTBEAT
[01:21:44.040692] [34] ATTITUDE_TARGET
[01:21:44.484655] [35] VFR_HUD
[01:21:45.064555] [36] HEARTBEAT
[01:21:45.294484] [37] VFR_HUD
[01:21:46.101357] [38] HEARTBEAT
[01:21:46.108347] [39] SYS_STATUS
[01:21:46.223322] [40] BATTERY_STATUS
[01:21:46.341415] [41] ATTITUDE_TARGET
[01:21:46.346285] [42] VFR_HUD
[01:21:46.909394] [43] VFR_HUD
[01:21:47.021199] [44] HEARTBEAT
[01:21:47.600090] [45] VFR_HUD
[01:21:48.069030] [46] HEARTBEAT
[01:21:48.077096] [47] ATTITUDE_TARGET
[01:21:48.520057] [48] VFR_HUD
[01:21:49.079956] [49] HEARTBEAT
[01:21:49.314809] [50] VFR_HUD
[01:21:50.011875] [51] HEARTBEAT
[01:21:50.018802] [52] SYS_STATUS
[01:21:50.138716] [53] BATTERY_STATUS
[01:21:50.250650] [54] ATTITUDE_TARGET
[01:21:50.255598] [55] VFR_HUD
[01:21:50.814604] [56] VFR_HUD
[01:21:51.044563] [57] HEARTBEAT
[01:21:51.614477] [58] VFR_HUD
[01:21:52.083358] [59] HEARTBEAT
[01:21:52.091326] [60] ATTITUDE_TARGET
[01:21:52.534275] [61] VFR_HUD
[01:21:53.115199] [62] HEARTBEAT
[01:21:53.224310] [63] VFR_HUD
[01:21:54.042032] [64] HEARTBEAT
[01:21:54.049136] [65] SYS_STATUS
[01:21:54.167077] [66] BATTERY_STATUS
[01:21:54.174989] [67] ATTITUDE_TARGET
[01:21:54.204999] [68] VFR_HUD
[01:21:54.834916] [69] VFR_HUD
[01:21:55.059843] [70] HEARTBEAT
[01:21:55.649812] [71] VFR_HUD
[01:21:56.113710] [72] HEARTBEAT
[01:21:56.121680] [73] ATTITUDE_TARGET
[01:21:56.444594] [74] VFR_HUD
[01:21:57.019571] [75] HEARTBEAT
[01:21:57.259495] [76] VFR_HUD
[01:21:58.062416] [77] HEARTBEAT
[01:21:58.069423] [78] SYS_STATUS
[01:21:58.192347] [79] BATTERY_STATUS
[01:21:58.193282] [80] EXTENDED_SYS_STATE
[01:21:58.225363] [81] ATTITUDE_TARGET
[01:21:58.230451] [82] VFR_HUD
[01:21:58.234293] [83] SYSTEM_TIME
[01:21:58.870368] [84] VFR_HUD
[01:21:59.090341] [85] HEARTBEAT
[01:21:59.665897] [86] VFR_HUD
[01:22:00.024134] [87] HEARTBEAT
[01:22:00.032059] [88] ATTITUDE_TARGET
[01:22:00.584978] [89] VFR_HUD
[01:22:01.039917] [90] HEARTBEAT
[01:22:01.274844] [91] VFR_HUD
[01:22:02.091737] [92] HEARTBEAT
[01:22:02.098786] [93] SYS_STATUS
[01:22:02.217705] [94] BATTERY_STATUS
[01:22:02.225673] [95] ATTITUDE_TARGET
[01:22:02.255675] [96] VFR_HUD
[01:22:02.884665] [97] VFR_HUD
[01:22:03.000187] [98] HEARTBEAT
[01:22:03.694609] [99] VFR_HUD
[01:22:04.043407] [100] HEARTBEAT
[01:22:04.051361] [101] ATTITUDE_TARGET
[01:22:04.495069] [102] VFR_HUD
[01:22:05.070364] [103] HEARTBEAT
[01:22:05.304388] [104] VFR_HUD
[01:22:05.995281] [105] HEARTBEAT
[01:22:06.125154] [106] SYS_STATUS
[01:22:06.132117] [107] BATTERY_STATUS
[01:22:06.242132] [108] ATTITUDE_TARGET
[01:22:06.247039] [109] VFR_HUD
[01:22:06.920079] [110] VFR_HUD
[01:22:07.032023] [111] HEARTBEAT
[01:22:07.604820] [112] VFR_HUD
[01:22:08.079694] [113] HEARTBEAT
[01:22:08.087692] [114] ATTITUDE_TARGET
[01:22:08.404747] [115] VFR_HUD
[01:22:09.090514] [116] HEARTBEAT
[01:22:09.214460] [117] VFR_HUD
[01:22:10.022380] [118] HEARTBEAT
[01:22:10.029409] [119] SYS_STATUS
[01:22:10.149314] [120] BATTERY_STATUS
[01:22:10.261313] [121] ATTITUDE_TARGET
[01:22:10.266303] [122] VFR_HUD
[01:22:10.825334] [123] VFR_HUD
[01:22:11.056183] [124] HEARTBEAT
[01:22:11.624998] [125] VFR_HUD
[01:22:12.094185] [126] HEARTBEAT
[01:22:12.102002] [127] ATTITUDE_TARGET
[01:22:12.434930] [128] VFR_HUD
[01:22:13.000928] [129] HEARTBEAT
[01:22:13.234853] [130] VFR_HUD
[01:22:14.057802] [131] HEARTBEAT
[01:22:14.064708] [132] SYS_STATUS
[01:22:14.104821] [133] BATTERY_STATUS
[01:22:14.111626] [134] ATTITUDE_TARGET
[01:22:14.116708] [135] VFR_HUD
[01:22:15.080469] [136] VFR_HUD
[01:22:15.083445] [137] HEARTBEAT
[01:22:15.660373] [138] VFR_HUD
[01:22:16.129444] [139] HEARTBEAT
[01:22:16.137365] [140] ATTITUDE_TARGET
[01:22:16.455303] [141] VFR_HUD
[01:22:17.030397] [142] HEARTBEAT
[01:22:17.270177] [143] VFR_HUD
[01:22:18.073058] [144] HEARTBEAT
[01:22:18.079142] [145] SYS_STATUS
[01:22:18.201941] [146] BATTERY_STATUS
[01:22:18.203943] [147] EXTENDED_SYS_STATE
[01:22:18.236062] [148] ATTITUDE_TARGET
[01:22:18.240973] [149] VFR_HUD
[01:22:18.244060] [150] SYSTEM_TIME
[01:22:18.874908] [151] VFR_HUD
[01:22:19.100847] [152] HEARTBEAT
[01:22:19.674804] [153] VFR_HUD
[01:22:20.034817] [154] HEARTBEAT
[01:22:20.041730] [155] ATTITUDE_TARGET
[01:22:20.484542] [156] VFR_HUD
[01:22:21.050586] [157] HEARTBEAT
[01:22:21.284430] [158] VFR_HUD
[01:22:22.102365] [159] HEARTBEAT
[01:22:22.109262] [160] SYS_STATUS
[01:22:22.227308] [161] BATTERY_STATUS
[01:22:22.235295] [162] ATTITUDE_TARGET
[01:22:22.265300] [163] VFR_HUD
[01:22:22.895273] [164] VFR_HUD
[01:22:23.010237] [165] HEARTBEAT
[01:22:23.705113] [166] VFR_HUD
[01:22:24.054020] [167] HEARTBEAT
[01:22:24.061980] [168] ATTITUDE_TARGET
[01:22:24.504884] [169] VFR_HUD
[01:22:25.080823] [170] HEARTBEAT
[01:22:25.319863] [171] VFR_HUD
[01:22:26.012772] [172] HEARTBEAT
[01:22:26.019654] [173] SYS_STATUS
[01:22:26.137634] [174] BATTERY_STATUS
[01:22:26.145619] [175] ATTITUDE_TARGET
[01:22:26.175607] [176] VFR_HUD
[01:22:26.804537] [177] VFR_HUD
[01:22:27.030565] [178] HEARTBEAT
[01:22:27.725441] [179] VFR_HUD
[01:22:28.084368] [180] HEARTBEAT
[01:22:28.092443] [181] ATTITUDE_TARGET
[01:22:28.415476] [182] VFR_HUD
[01:22:29.100284] [183] HEARTBEAT
[01:22:29.225319] [184] VFR_HUD
[01:22:30.033086] [185] HEARTBEAT
[01:22:30.040009] [186] SYS_STATUS
[01:22:30.154036] [187] BATTERY_STATUS
[01:22:30.272103] [188] ATTITUDE_TARGET
[01:22:30.277020] [189] VFR_HUD
[01:22:30.834897] [190] VFR_HUD
[01:22:31.065994] [191] HEARTBEAT
[01:22:31.634866] [192] VFR_HUD
[01:22:32.104819] [193] HEARTBEAT
[01:22:32.111674] [194] ATTITUDE_TARGET
[01:22:32.450575] [195] VFR_HUD
[01:22:33.010655] [196] HEARTBEAT
[01:22:33.245605] [197] VFR_HUD
[01:22:34.068387] [198] HEARTBEAT
[01:22:34.075424] [199] SYS_STATUS
[01:22:34.114831] [200] BATTERY_STATUS
[01:22:34.122351] [201] ATTITUDE_TARGET
[01:22:34.127520] [202] VFR_HUD
[01:22:35.091128] [203] VFR_HUD
[01:22:35.094139] [204] HEARTBEAT
[01:22:35.693135] [205] VFR_HUD
[01:22:36.014164] [206] HEARTBEAT
[01:22:36.022058] [207] ATTITUDE_TARGET
[01:22:36.464994] [208] VFR_HUD
[01:22:37.045818] [209] HEARTBEAT
[01:22:37.274732] [210] VFR_HUD
[01:22:38.082657] [211] HEARTBEAT
[01:22:38.089628] [212] SYS_STATUS
[01:22:38.213149] [213] BATTERY_STATUS
[01:22:38.213533] [214] EXTENDED_SYS_STATE
[01:22:38.246578] [215] ATTITUDE_TARGET
[01:22:38.251634] [216] VFR_HUD
[01:22:38.254610] [217] SYSTEM_TIME
[01:22:38.885527] [218] VFR_HUD
[01:22:39.116530] [219] HEARTBEAT
[01:22:39.685412] [220] VFR_HUD
[01:22:40.044252] [221] HEARTBEAT
[01:22:40.052272] [222] ATTITUDE_TARGET
[01:22:40.495248] [223] VFR_HUD
[01:22:41.061147] [224] HEARTBEAT
[01:22:41.295168] [225] VFR_HUD
[01:22:42.112860] [226] HEARTBEAT
[01:22:42.119865] [227] SYS_STATUS
[01:22:42.237929] [228] BATTERY_STATUS
[01:22:42.245781] [229] ATTITUDE_TARGET
[01:22:42.275938] [230] VFR_HUD
[01:22:42.800858] [231] VFR_HUD
[01:22:43.020705] [232] HEARTBEAT
[01:22:43.743648] [233] VFR_HUD
[01:22:44.064532] [234] HEARTBEAT
[01:22:44.072544] [235] ATTITUDE_TARGET
[01:22:44.405399] [236] VFR_HUD
[01:22:45.091300] [237] HEARTBEAT
[01:22:45.205191] [238] VFR_HUD
[01:22:46.023266] [239] HEARTBEAT
[01:22:46.030251] [240] SYS_STATUS
[01:22:46.148129] [241] BATTERY_STATUS
[01:22:46.156119] [242] ATTITUDE_TARGET
[01:22:46.186173] [243] VFR_HUD
[01:22:46.816074] [244] VFR_HUD
[01:22:47.041033] [245] HEARTBEAT
[01:22:47.625930] [246] VFR_HUD
[01:22:48.094905] [247] HEARTBEAT
[01:22:48.102708] [248] ATTITUDE_TARGET
[01:22:48.425701] [249] VFR_HUD
[01:22:49.001664] [250] HEARTBEAT
[01:22:49.235460] [251] VFR_HUD
[01:22:50.043408] [252] HEARTBEAT
[01:22:50.050395] [253] SYS_STATUS
[01:22:50.164390] [254] BATTERY_STATUS
[01:22:50.282376] [255] ATTITUDE_TARGET
[01:22:50.287385] [0] VFR_HUD
[01:22:50.851326] [1] VFR_HUD
[01:22:51.071223] [2] HEARTBEAT
[01:22:51.645237] [3] VFR_HUD
[01:22:51.996089] [4] HEARTBEAT
[01:22:52.114050] [5] ATTITUDE_TARGET
[01:22:52.461042] [6] VFR_HUD
[01:22:53.020937] [7] HEARTBEAT
[01:22:53.255982] [8] VFR_HUD
[01:22:54.079439] [9] HEARTBEAT
[01:22:54.084871] [10] SYS_STATUS
[01:22:54.125747] [11] BATTERY_STATUS
[01:22:54.132975] [12] ATTITUDE_TARGET
[01:22:54.137713] [13] VFR_HUD
[01:22:55.101639] [14] VFR_HUD
[01:22:55.104732] [15] HEARTBEAT
[01:22:55.675434] [16] VFR_HUD
[01:22:56.025441] [17] HEARTBEAT
[01:22:56.032373] [18] ATTITUDE_TARGET
[01:22:56.475422] [19] VFR_HUD
[01:22:57.056251] [20] HEARTBEAT
[01:22:57.285331] [21] VFR_HUD
[01:22:58.093146] [22] HEARTBEAT
[01:22:58.099156] [23] SYS_STATUS
[01:22:58.217118] [24] BATTERY_STATUS
[01:22:58.218979] [25] EXTENDED_SYS_STATE
[01:22:58.338997] [26] ATTITUDE_TARGET
[01:22:58.344068] [27] VFR_HUD
[01:22:58.346942] [28] SYSTEM_TIME
[01:22:58.895818] [29] VFR_HUD
[01:22:59.001003] [30] HEARTBEAT
[01:22:59.695692] [31] VFR_HUD
[01:23:00.059764] [32] HEARTBEAT
[01:23:00.067645] [33] ATTITUDE_TARGET
[01:23:00.505667] [34] VFR_HUD
[01:23:01.070491] [35] HEARTBEAT
[01:23:01.200406] [36] VFR_HUD
[01:23:01.991384] [37] HEARTBEAT
[01:23:02.011475] [38] SYS_STATUS
[01:23:02.059332] [39] BATTERY_STATUS
[01:23:02.067263] [40] ATTITUDE_TARGET
[01:23:02.072304] [41] VFR_HUD
[01:23:03.042243] [42] VFR_HUD
[01:23:03.045219] [43] HEARTBEAT
[01:23:03.607011] [44] VFR_HUD
[01:23:04.075978] [45] HEARTBEAT
[01:23:04.084201] [46] ATTITUDE_TARGET
[01:23:04.416892] [47] VFR_HUD
[01:23:05.102969] [48] HEARTBEAT
[01:23:05.216747] [49] VFR_HUD
[01:23:06.034627] [50] HEARTBEAT
[01:23:06.041623] [51] SYS_STATUS
[01:23:06.159601] [52] BATTERY_STATUS
[01:23:06.167608] [53] ATTITUDE_TARGET
[01:23:06.197684] [54] VFR_HUD
[01:23:06.827589] [55] VFR_HUD
[01:23:07.052597] [56] HEARTBEAT
[01:23:07.637482] [57] VFR_HUD
[01:23:08.106441] [58] HEARTBEAT
[01:23:08.114313] [59] ATTITUDE_TARGET
[01:23:08.437252] [60] VFR_HUD
[01:23:09.013181] [61] HEARTBEAT
[01:23:09.252117] [62] VFR_HUD
[01:23:10.054974] [63] HEARTBEAT
[01:23:10.061937] [64] SYS_STATUS
[01:23:10.176946] [65] BATTERY_STATUS
[01:23:10.294006] [66] ATTITUDE_TARGET
[01:23:10.298943] [67] VFR_HUD
[01:23:10.884963] [68] VFR_HUD
[01:23:11.082742] [69] HEARTBEAT
[01:23:11.657689] [70] VFR_HUD
[01:23:12.002703] [71] HEARTBEAT
[01:23:12.025735] [72] ATTITUDE_TARGET
[01:23:12.472513] [73] VFR_HUD
[01:23:13.033459] [74] HEARTBEAT
[01:23:13.267404] [75] VFR_HUD
[01:23:14.085618] [76] HEARTBEAT
[01:23:14.091359] [77] SYS_STATUS
[01:23:14.213922] [78] BATTERY_STATUS
[01:23:14.219407] [79] ATTITUDE_TARGET
[01:23:14.248297] [80] VFR_HUD
[01:23:14.878326] [81] VFR_HUD
[01:23:14.998088] [82] HEARTBEAT
[01:23:15.687853] [83] VFR_HUD
[01:23:16.036857] [84] HEARTBEAT
[01:23:16.044968] [85] ATTITUDE_TARGET
[01:23:16.487851] [86] VFR_HUD
[01:23:17.067676] [87] HEARTBEAT
[01:23:17.297907] [88] VFR_HUD
[01:23:18.104490] [89] HEARTBEAT
[01:23:18.111614] [90] SYS_STATUS
[01:23:18.229448] [91] BATTERY_STATUS
[01:23:18.231410] [92] EXTENDED_SYS_STATE
[01:23:18.350494] [93] ATTITUDE_TARGET
[01:23:18.355421] [94] VFR_HUD
[01:23:18.359581] [95] SYSTEM_TIME
[01:23:18.935375] [96] VFR_HUD
[01:23:19.012470] [97] HEARTBEAT
[01:23:19.707159] [98] VFR_HUD
[01:23:20.072121] [99] HEARTBEAT
[01:23:20.079194] [100] ATTITUDE_TARGET
[01:23:20.397026] [101] VFR_HUD
[01:23:21.082979] [102] HEARTBEAT
[01:23:21.206870] [103] VFR_HUD
[01:23:22.014776] [104] HEARTBEAT
[01:23:22.021758] [105] SYS_STATUS
[01:23:22.141744] [106] BATTERY_STATUS
[01:23:22.253783] [107] ATTITUDE_TARGET
[01:23:22.258810] [108] VFR_HUD
[01:23:22.817627] [109] VFR_HUD
[01:23:23.047578] [110] HEARTBEAT
[01:23:23.617587] [111] VFR_HUD
[01:23:24.086413] [112] HEARTBEAT
[01:23:24.094365] [113] ATTITUDE_TARGET
[01:23:24.427322] [114] VFR_HUD
[01:23:24.992354] [115] HEARTBEAT
[01:23:25.229274] [116] VFR_HUD
[01:23:26.044058] [117] HEARTBEAT
[01:23:26.051170] [118] SYS_STATUS
[01:23:26.170103] [119] BATTERY_STATUS
[01:23:26.178065] [120] ATTITUDE_TARGET
[01:23:26.208116] [121] VFR_HUD
[01:23:26.837006] [122] VFR_HUD
[01:23:27.061924] [123] HEARTBEAT
[01:23:27.651825] [124] VFR_HUD
[01:23:28.115716] [125] HEARTBEAT
[01:23:28.123817] [126] ATTITUDE_TARGET
[01:23:28.446689] [127] VFR_HUD
[01:23:29.022543] [128] HEARTBEAT
[01:23:29.262645] [129] VFR_HUD
[01:23:30.064463] [130] HEARTBEAT
[01:23:30.071452] [131] SYS_STATUS
[01:23:30.191427] [132] BATTERY_STATUS
[01:23:30.303411] [133] ATTITUDE_TARGET
[01:23:30.308351] [134] VFR_HUD
[01:23:30.872251] [135] VFR_HUD
[01:23:31.092356] [136] HEARTBEAT
[01:23:31.667155] [137] VFR_HUD
[01:23:32.026085] [138] HEARTBEAT
[01:23:32.034049] [139] ATTITUDE_TARGET
[01:23:32.477212] [140] VFR_HUD
[01:23:33.042978] [141] HEARTBEAT
[01:23:33.278057] [142] VFR_HUD
[01:23:34.094757] [143] HEARTBEAT
[01:23:34.101805] [144] SYS_STATUS
[01:23:34.220844] [145] BATTERY_STATUS
[01:23:34.227703] [146] ATTITUDE_TARGET
[01:23:34.258832] [147] VFR_HUD
[01:23:34.887635] [148] VFR_HUD
[01:23:35.002746] [149] HEARTBEAT
[01:23:35.697582] [150] VFR_HUD
[01:23:36.046563] [151] HEARTBEAT
[01:23:36.054449] [152] ATTITUDE_TARGET
[01:23:36.497365] [153] VFR_HUD
[01:23:37.073356] [154] HEARTBEAT
[01:23:37.307213] [155] VFR_HUD
[01:23:38.050175] [156] HEARTBEAT
[01:23:38.057162] [157] SYS_STATUS
[01:23:38.065092] [158] BATTERY_STATUS
[01:23:38.065993] [159] EXTENDED_SYS_STATE
[01:23:38.083068] [160] ATTITUDE_TARGET
[01:23:38.088039] [161] VFR_HUD
[01:23:38.091025] [162] SYSTEM_TIME
[01:23:38.803031] [163] VFR_HUD
[01:23:39.022933] [164] HEARTBEAT
[01:23:39.607848] [165] VFR_HUD
[01:23:40.082734] [166] HEARTBEAT
[01:23:40.089708] [167] ATTITUDE_TARGET
[01:23:40.407665] [168] VFR_HUD
[01:23:41.011739] [169] HEARTBEAT
[01:23:41.217613] [170] VFR_HUD
[01:23:42.025403] [171] HEARTBEAT
[01:23:42.032410] [172] SYS_STATUS
[01:23:42.197324] [173] BATTERY_STATUS
[01:23:42.204371] [174] ATTITUDE_TARGET
[01:23:42.209319] [175] VFR_HUD
[01:23:43.068269] [176] VFR_HUD
[01:23:43.071189] [177] HEARTBEAT
[01:23:43.628200] [178] VFR_HUD
[01:23:44.015134] [179] HEARTBEAT
[01:23:44.023003] [180] ATTITUDE_TARGET
[01:23:44.437918] [181] VFR_HUD
[01:23:45.003016] [182] HEARTBEAT
[01:23:45.237957] [183] VFR_HUD
[01:23:46.097259] [184] HEARTBEAT
[01:23:46.102712] [185] SYS_STATUS
[01:23:46.114022] [186] BATTERY_STATUS
[01:23:46.122628] [187] ATTITUDE_TARGET
[01:23:46.129963] [188] VFR_HUD
[01:23:46.847488] [189] VFR_HUD
[01:23:47.072589] [190] HEARTBEAT
[01:23:47.662471] [191] VFR_HUD
[01:23:47.993455] [192] HEARTBEAT
[01:23:48.015367] [193] ATTITUDE_TARGET
[01:23:48.457208] [194] VFR_HUD
[01:23:49.143174] [195] HEARTBEAT
[01:23:49.272113] [196] VFR_HUD
[01:23:50.075115] [197] HEARTBEAT
[01:23:50.081970] [198] SYS_STATUS
[01:23:50.202109] [199] BATTERY_STATUS
[01:23:50.314068] [200] ATTITUDE_TARGET
[01:23:50.318926] [201] VFR_HUD
[01:23:50.876887] [202] VFR_HUD
[01:23:51.102804] [203] HEARTBEAT
[01:23:51.677802] [204] VFR_HUD
[01:23:52.146650] [205] HEARTBEAT
[01:23:52.154595] [206] ATTITUDE_TARGET
[01:23:52.487652] [207] VFR_HUD
[01:23:53.052412] [208] HEARTBEAT
[01:23:53.287496] [209] VFR_HUD
[01:23:54.214247] [210] HEARTBEAT
[01:23:54.221255] [211] SYS_STATUS
[01:23:54.341251] [212] BATTERY_STATUS
[01:23:54.453216] [213] ATTITUDE_TARGET
[01:23:54.458158] [214] VFR_HUD
[01:23:54.897186] [215] VFR_HUD
[01:23:55.122102] [216] HEARTBEAT
[01:23:55.707145] [217] VFR_HUD
[01:23:56.056049] [218] HEARTBEAT
[01:23:56.063901] [219] ATTITUDE_TARGET
[01:23:56.401952] [220] VFR_HUD
[01:23:57.191796] [221] HEARTBEAT
[01:23:57.215731] [222] VFR_HUD
[01:23:58.014644] [223] HEARTBEAT
[01:23:58.020467] [224] SYS_STATUS
[01:23:58.142468] [225] BATTERY_STATUS
[01:23:58.144402] [226] EXTENDED_SYS_STATE
[01:23:58.152441] [227] ATTITUDE_TARGET
[01:23:58.156402] [228] VFR_HUD
[01:23:58.160467] [229] SYSTEM_TIME
[01:23:58.806380] [230] VFR_HUD
[01:23:59.032454] [231] HEARTBEAT
[01:23:59.616280] [232] VFR_HUD
[01:24:00.195317] [233] HEARTBEAT
[01:24:00.203260] [234] ATTITUDE_TARGET
[01:24:00.416134] [235] VFR_HUD
[01:24:00.997079] [236] HEARTBEAT
[01:24:01.226058] [237] VFR_HUD
[01:24:02.033983] [238] HEARTBEAT
[01:24:02.039829] [239] SYS_STATUS
[01:24:02.175851] [240] BATTERY_STATUS
[01:24:02.202998] [241] ATTITUDE_TARGET
[01:24:02.207721] [242] VFR_HUD
[01:24:02.835681] [243] VFR_HUD
[01:24:03.088722] [244] HEARTBEAT
[01:24:03.635584] [245] VFR_HUD
[01:24:04.105560] [246] HEARTBEAT
[01:24:04.112557] [247] ATTITUDE_TARGET
[01:24:04.450427] [248] VFR_HUD
[01:24:05.011439] [249] HEARTBEAT
[01:24:05.245291] [250] VFR_HUD
[01:24:06.068197] [251] HEARTBEAT
[01:24:06.075112] [252] SYS_STATUS
[01:24:06.114140] [253] BATTERY_STATUS
[01:24:06.122088] [254] ATTITUDE_TARGET
[01:24:06.127057] [255] VFR_HUD
[01:24:07.090950] [0] VFR_HUD
[01:24:07.094102] [1] HEARTBEAT
[01:24:07.670858] [2] VFR_HUD
[01:24:08.014895] [3] HEARTBEAT
[01:24:08.022739] [4] ATTITUDE_TARGET
[01:24:08.465754] [5] VFR_HUD
[01:24:09.046618] [6] HEARTBEAT
[01:24:09.275527] [7] VFR_HUD
[01:24:10.083443] [8] HEARTBEAT
[01:24:10.090402] [9] SYS_STATUS
[01:24:10.254414] [10] BATTERY_STATUS
[01:24:10.262386] [11] ATTITUDE_TARGET
[01:24:10.267348] [12] VFR_HUD
[01:24:11.001397] [13] VFR_HUD
[01:24:11.004357] [14] HEARTBEAT
[01:24:11.686162] [15] VFR_HUD
[01:24:12.045118] [16] HEARTBEAT
[01:24:12.053138] [17] ATTITUDE_TARGET
[01:24:12.497134] [18] VFR_HUD
[01:24:13.062005] [19] HEARTBEAT
[01:24:13.214176] [20] VFR_HUD
[01:24:14.113880] [21] HEARTBEAT
[01:24:14.119767] [22] SYS_STATUS
[01:24:14.238724] [23] BATTERY_STATUS
[01:24:14.246794] [24] ATTITUDE_TARGET
[01:24:14.276814] [25] VFR_HUD
[01:24:14.801636] [26] VFR_HUD
[01:24:15.021647] [27] HEARTBEAT
[01:24:15.596503] [28] VFR_HUD
[01:24:16.065606] [29] HEARTBEAT
[01:24:16.073460] [30] ATTITUDE_TARGET
[01:24:16.406443] [31] VFR_HUD
[01:24:17.091406] [32] HEARTBEAT
[01:24:17.206296] [33] VFR_HUD
[01:24:18.024248] [34] HEARTBEAT
[01:24:18.030190] [35] SYS_STATUS
[01:24:18.152170] [36] BATTERY_STATUS
[01:24:18.154141] [37] EXTENDED_SYS_STATE
[01:24:18.162140] [38] ATTITUDE_TARGET
[01:24:18.166154] [39] VFR_HUD
[01:24:18.170226] [40] SYSTEM_TIME
[01:24:18.816089] [41] VFR_HUD
[01:24:19.042136] [42] HEARTBEAT
[01:24:19.625930] [43] VFR_HUD
[01:24:20.099282] [44] HEARTBEAT
[01:24:20.103963] [45] ATTITUDE_TARGET
[01:24:20.427028] [46] VFR_HUD
[01:24:21.001837] [47] HEARTBEAT
[01:24:21.346678] [48] VFR_HUD
[01:24:22.044581] [49] HEARTBEAT
[01:24:22.050715] [50] SYS_STATUS
[01:24:22.166173] [51] BATTERY_STATUS
[01:24:22.283507] [52] ATTITUDE_TARGET
[01:24:22.287495] [53] VFR_HUD
[01:24:22.851375] [54] VFR_HUD
[01:24:23.072474] [55] HEARTBEAT
[01:24:23.646389] [56] VFR_HUD
[01:24:23.997249] [57] HEARTBEAT
[01:24:24.115167] [58] ATTITUDE_TARGET
[01:24:24.461118] [59] VFR_HUD
[01:24:25.022073] [60] HEARTBEAT
[01:24:25.256048] [61] VFR_HUD
[01:24:26.078941] [62] HEARTBEAT
[01:24:26.086000] [63] SYS_STATUS
[01:24:26.124878] [64] BATTERY_STATUS
[01:24:26.132901] [65] ATTITUDE_TARGET
[01:24:26.137943] [66] VFR_HUD
[01:24:26.998669] [67] VFR_HUD
[01:24:26.999844] [68] HEARTBEAT
[01:24:27.675675] [69] VFR_HUD
[01:24:28.025649] [70] HEARTBEAT
[01:24:28.032590] [71] ATTITUDE_TARGET
[01:24:28.475546] [72] VFR_HUD
[01:24:29.056439] [73] HEARTBEAT
[01:24:29.395314] [74] VFR_HUD
[01:24:30.093305] [75] HEARTBEAT
[01:24:30.100312] [76] SYS_STATUS
[01:24:30.235310] [77] BATTERY_STATUS
[01:24:30.262327] [78] ATTITUDE_TARGET
[01:24:30.267216] [79] VFR_HUD
[01:24:30.896087] [80] VFR_HUD
[01:24:31.001068] [81] HEARTBEAT
[01:24:31.696064] [82] VFR_HUD
[01:24:32.060005] [83] HEARTBEAT
[01:24:32.067866] [84] ATTITUDE_TARGET
[01:24:32.505704] [85] VFR_HUD
[01:24:33.071688] [86] HEARTBEAT
[01:24:33.200746] [87] VFR_HUD
[01:24:33.991631] [88] HEARTBEAT
[01:24:34.011551] [89] SYS_STATUS
[01:24:34.059517] [90] BATTERY_STATUS
[01:24:34.067489] [91] ATTITUDE_TARGET
[01:24:34.072437] [92] VFR_HUD
[01:24:35.043309] [93] VFR_HUD
[01:24:35.046229] [94] HEARTBEAT
[01:24:35.607196] [95] VFR_HUD
[01:24:36.077223] [96] HEARTBEAT
[01:24:36.085167] [97] ATTITUDE_TARGET
[01:24:36.417025] [98] VFR_HUD
[01:24:36.983085] [99] HEARTBEAT
[01:24:37.217947] [100] VFR_HUD
[01:24:38.034783] [101] HEARTBEAT
[01:24:38.041805] [102] SYS_STATUS
[01:24:38.163786] [103] BATTERY_STATUS
[01:24:38.164738] [104] EXTENDED_SYS_STATE
[01:24:38.172805] [105] ATTITUDE_TARGET
[01:24:38.177739] [106] VFR_HUD
[01:24:38.181711] [107] SYSTEM_TIME
[01:24:38.827740] [108] VFR_HUD
[01:24:39.052695] [109] HEARTBEAT
[01:24:39.637523] [110] VFR_HUD
[01:24:40.106558] [111] HEARTBEAT
[01:24:40.114394] [112] ATTITUDE_TARGET
[01:24:40.437508] [113] VFR_HUD
[01:24:41.013288] [114] HEARTBEAT
[01:24:41.275254] [115] VFR_HUD
[01:24:42.055158] [116] HEARTBEAT
[01:24:42.062065] [117] SYS_STATUS
[01:24:42.177054] [118] BATTERY_STATUS
[01:24:42.294230] [119] ATTITUDE_TARGET
[01:24:42.299150] [120] VFR_HUD
[01:24:42.862985] [121] VFR_HUD
[01:24:43.083021] [122] HEARTBEAT
[01:24:43.658011] [123] VFR_HUD
[01:24:44.016871] [124] HEARTBEAT
[01:24:44.024805] [125] ATTITUDE_TARGET
[01:24:44.472821] [126] VFR_HUD
[01:24:45.033728] [127] HEARTBEAT
[01:24:45.267640] [128] VFR_HUD
[01:24:46.085408] [129] HEARTBEAT
[01:24:46.091405] [130] SYS_STATUS
[01:24:46.210433] [131] BATTERY_STATUS
[01:24:46.218527] [132] ATTITUDE_TARGET
[01:24:46.248373] [133] VFR_HUD
[01:24:46.877415] [134] VFR_HUD
[01:24:46.998382] [135] HEARTBEAT
[01:24:47.687185] [136] VFR_HUD
[01:24:48.037100] [137] HEARTBEAT
[01:24:48.044070] [138] ATTITUDE_TARGET
[01:24:48.487125] [139] VFR_HUD
[01:24:49.067952] [140] HEARTBEAT
[01:24:49.406869] [141] VFR_HUD
[01:24:49.988834] [142] HEARTBEAT
[01:24:50.117751] [143] SYS_STATUS
[01:24:50.124684] [144] BATTERY_STATUS
[01:24:50.234704] [145] ATTITUDE_TARGET
[01:24:50.239619] [146] VFR_HUD
[01:24:50.907550] [147] VFR_HUD
[01:24:51.013551] [148] HEARTBEAT
[01:24:51.602403] [149] VFR_HUD
[01:24:52.072327] [150] HEARTBEAT
[01:24:52.080334] [151] ATTITUDE_TARGET
[01:24:52.398300] [152] VFR_HUD
[01:24:53.083279] [153] HEARTBEAT
[01:24:53.208078] [154] VFR_HUD
[01:24:54.016126] [155] HEARTBEAT
[01:24:54.022086] [156] SYS_STATUS
[01:24:54.141968] [157] BATTERY_STATUS
[01:24:54.254976] [158] ATTITUDE_TARGET
[01:24:54.258962] [159] VFR_HUD
[01:24:54.817905] [160] VFR_HUD
[01:24:55.048787] [161] HEARTBEAT
[01:24:55.617697] [162] VFR_HUD
[01:24:56.087729] [163] HEARTBEAT
[01:24:56.094986] [164] ATTITUDE_TARGET
[01:24:56.427629] [165] VFR_HUD
[01:24:56.993600] [166] HEARTBEAT
[01:24:57.228325] [167] VFR_HUD
[01:24:58.045176] [168] HEARTBEAT
[01:24:58.052157] [169] SYS_STATUS
[01:24:58.174225] [170] BATTERY_STATUS
[01:24:58.175110] [171] EXTENDED_SYS_STATE
[01:24:58.183211] [172] ATTITUDE_TARGET
[01:24:58.188110] [173] VFR_HUD
[01:24:58.192172] [174] SYSTEM_TIME
[01:24:58.838093] [175] VFR_HUD
[01:24:59.064196] [176] HEARTBEAT
[01:24:59.652994] [177] VFR_HUD
[01:24:59.984113] [178] HEARTBEAT
[01:25:00.005899] [179] ATTITUDE_TARGET
[01:25:00.448049] [180] VFR_HUD
[01:25:01.023844] [181] HEARTBEAT
[01:25:01.263018] [182] VFR_HUD
[01:25:02.065662] [183] HEARTBEAT
[01:25:02.072603] [184] SYS_STATUS
[01:25:02.192542] [185] BATTERY_STATUS
[01:25:02.304544] [186] ATTITUDE_TARGET
[01:25:02.309528] [187] VFR_HUD
[01:25:02.873451] [188] VFR_HUD
[01:25:03.093426] [189] HEARTBEAT
[01:25:03.668414] [190] VFR_HUD
[01:25:04.027288] [191] HEARTBEAT
[01:25:04.035220] [192] ATTITUDE_TARGET
[01:25:04.478223] [193] VFR_HUD
[01:25:05.044119] [194] HEARTBEAT
[01:25:05.278033] [195] VFR_HUD
[01:25:06.095938] [196] HEARTBEAT
[01:25:06.102882] [197] SYS_STATUS
[01:25:06.221926] [198] BATTERY_STATUS
[01:25:06.228796] [199] ATTITUDE_TARGET
[01:25:06.259848] [200] VFR_HUD
[01:25:06.888857] [201] VFR_HUD
[01:25:07.003723] [202] HEARTBEAT
[01:25:07.698769] [203] VFR_HUD
[01:25:08.048019] [204] HEARTBEAT
[01:25:08.055842] [205] ATTITUDE_TARGET
[01:25:08.416603] [206] VFR_HUD
[01:25:09.074470] [207] HEARTBEAT
[01:25:09.308637] [208] VFR_HUD
[01:25:10.011292] [209] HEARTBEAT
[01:25:10.018342] [210] SYS_STATUS
[01:25:10.058254] [211] BATTERY_STATUS
[01:25:10.065302] [212] ATTITUDE_TARGET
[01:25:10.070445] [213] VFR_HUD
[01:25:10.799133] [214] VFR_HUD
[01:25:11.024096] [215] HEARTBEAT
[01:25:11.608984] [216] VFR_HUD
[01:25:12.082889] [217] HEARTBEAT
[01:25:12.090885] [218] ATTITUDE_TARGET
[01:25:12.408927] [219] VFR_HUD
[01:25:12.989897] [220] HEARTBEAT
[01:25:13.218838] [221] VFR_HUD
