[23:08:25.894795] [125] RADIO
[23:08:25.897717] [125] RADIO_STATUS
[23:08:26.130839] [145] HEARTBEAT
[23:08:26.370917] [146] VFR_HUD
[23:08:26.814845] [126] RADIO
[23:08:26.817856] [126] RADIO_STATUS
[23:08:27.067917] [147] HEARTBEAT
[23:08:27.074868] [148] SYS_STATUS
[23:08:27.109028] [149] BATTERY_STATUS
[23:08:27.110820] [150] EXTENDED_SYS_STATE
[23:08:27.117976] [151] ATTITUDE_TARGET
[23:08:27.123012] [152] VFR_HUD
[23:08:27.126954] [153] SYSTEM_TIME
[23:08:27.854979] [154] VFR_HUD
[23:08:27.887001] [127] RADIO
[23:08:27.889924] [127] RADIO_STATUS
[23:08:28.079991] [155] HEARTBEAT
[23:08:28.664042] [156] VFR_HUD
[23:08:28.884158] [128] RADIO
[23:08:28.886996] [128] RADIO_STATUS
[23:08:29.134094] [157] HEARTBEAT
[23:08:29.141059] [158] ATTITUDE_TARGET
[23:08:29.464189] [159] VFR_HUD
[23:08:29.929136] [129] RADIO
[23:08:29.931179] [129] RADIO_STATUS
[23:08:30.045168] [160] HEARTBEAT
[23:08:30.274165] [161] VFR_HUD
[23:08:30.848290] [130] RADIO
[23:08:30.851252] [130] RADIO_STATUS
[23:08:31.081687] [162] HEARTBEAT
[23:08:31.088352] [163] SYS_STATUS
[23:08:31.203398] [164] BATTERY_STATUS
[23:08:31.320367] [165] ATTITUDE_TARGET
[23:08:31.325316] [166] VFR_HUD
[23:08:31.873308] [131] RADIO
[23:08:31.876250] [131] RADIO_STATUS
[23:08:31.994303] [167] VFR_HUD
[23:08:32.114361] [168] HEARTBEAT
[23:08:32.683459] [169] VFR_HUD
[23:08:32.918481] [132] RADIO
[23:08:32.921314] [132] RADIO_STATUS
[23:08:33.153595] [170] HEARTBEAT
[23:08:33.160414] [171] ATTITUDE_TARGET
[23:08:33.493395] [172] VFR_HUD
[23:08:33.942496] [133] RADIO
[23:08:33.945435] [133] RADIO_STATUS
[23:08:34.059481] [173] HEARTBEAT
[23:08:34.293642] [174] VFR_HUD
[23:08:34.862573] [134] RADIO
[23:08:34.865543] [134] RADIO_STATUS
[23:08:35.115554] [175] HEARTBEAT
[23:08:35.122559] [176] SYS_STATUS
[23:08:35.162583] [177] BATTERY_STATUS
[23:08:35.169739] [178] ATTITUDE_TARGET
[23:08:35.174750] [179] VFR_HUD
[23:08:35.902738] [135] RADIO
[23:08:35.905610] [135] RADIO_STATUS
[23:08:36.138685] [180] VFR_HUD
[23:08:36.141646] [181] HEARTBEAT
[23:08:36.718824] [182] VFR_HUD
[23:08:36.932836] [136] RADIO
[23:08:36.934820] [136] RADIO_STATUS
[23:08:37.061745] [183] HEARTBEAT
[23:08:37.069732] [184] ATTITUDE_TARGET
[23:08:37.512893] [185] VFR_HUD
[23:08:37.976869] [137] RADIO
[23:08:37.979809] [137] RADIO_STATUS
[23:08:38.087863] [186] HEARTBEAT
[23:08:38.327865] [187] VFR_HUD
[23:08:38.891962] [138] RADIO
[23:08:38.895041] [138] RADIO_STATUS
[23:08:39.130088] [188] HEARTBEAT
[23:08:39.136955] [189] SYS_STATUS
[23:08:39.257048] [190] BATTERY_STATUS
[23:08:39.368980] [191] ATTITUDE_TARGET
[23:08:39.374080] [192] VFR_HUD
[23:08:39.922113] [139] RADIO
[23:08:39.924965] [139] RADIO_STATUS
[23:08:40.042138] [193] VFR_HUD
[23:08:40.071050] [194] HEARTBEAT
[23:08:40.732234] [195] VFR_HUD
[23:08:40.961173] [140] RADIO
[23:08:40.964176] [140] RADIO_STATUS
[23:08:41.091214] [196] HEARTBEAT
[23:08:41.099142] [197] ATTITUDE_TARGET
[23:08:41.542154] [198] VFR_HUD
[23:08:41.881194] [141] RADIO
[23:08:41.884220] [141] RADIO_STATUS
[23:08:42.107258] [199] HEARTBEAT
[23:08:42.342297] [200] VFR_HUD
[23:08:42.913224] [142] RADIO
[23:08:42.914412] [142] RADIO_STATUS
[23:08:43.159417] [201] HEARTBEAT
[23:08:43.166444] [202] SYS_STATUS
[23:08:43.284531] [203] BATTERY_STATUS
[23:08:43.292394] [204] ATTITUDE_TARGET
[23:08:43.322446] [205] VFR_HUD
[23:08:43.951586] [206] VFR_HUD
[23:08:43.978631] [143] RADIO
[23:08:43.981499] [143] RADIO_STATUS
[23:08:44.066615] [207] HEARTBEAT
[23:08:44.646577] [208] VFR_HUD
[23:08:44.887578] [144] RADIO
[23:08:44.890500] [144] RADIO_STATUS
[23:08:45.110574] [209] HEARTBEAT
[23:08:45.118544] [210] ATTITUDE_TARGET
[23:08:45.456556] [211] VFR_HUD
[23:08:45.900758] [145] RADIO
[23:08:45.903747] [145] RADIO_STATUS
[23:08:46.136690] [212] HEARTBEAT
[23:08:46.256525] [213] VFR_HUD
[23:08:46.940689] [146] RADIO
[23:08:46.942615] [146] RADIO_STATUS
[23:08:47.196726] [216] BATTERY_STATUS
[23:08:47.198869] [217] EXTENDED_SYS_STATE
[23:08:47.206693] [218] ATTITUDE_TARGET
[23:08:47.211653] [219] VFR_HUD
[23:08:47.214647] [220] SYSTEM_TIME
[23:08:47.860726] [221] VFR_HUD
[23:08:47.969741] [147] RADIO
[23:08:47.972719] [147] RADIO_STATUS
[23:08:48.095774] [222] HEARTBEAT
[23:08:49.010037] [148] RADIO
[23:08:49.013008] [148] RADIO_STATUS
[23:08:49.140004] [224] HEARTBEAT
[23:08:49.146983] [225] ATTITUDE_TARGET
[23:08:49.469941] [226] VFR_HUD
[23:08:49.934055] [149] RADIO
[23:08:49.936955] [149] RADIO_STATUS
[23:08:50.051036] [227] HEARTBEAT
[23:08:50.280027] [228] VFR_HUD
[23:08:50.959112] [150] RADIO
[23:08:50.962131] [150] RADIO_STATUS
[23:08:51.087140] [229] HEARTBEAT
[23:08:51.094319] [230] SYS_STATUS
[23:08:51.208197] [231] BATTERY_STATUS
[23:08:51.326508] [232] ATTITUDE_TARGET
[23:08:51.331176] [233] VFR_HUD
[23:08:51.889234] [234] VFR_HUD
[23:08:52.108321] [151] RADIO
[23:08:52.111482] [151] RADIO_STATUS
[23:08:53.028319] [152] RADIO
[23:08:53.030326] [152] RADIO_STATUS
[23:08:53.075464] [237] HEARTBEAT
[23:08:53.083352] [238] ATTITUDE_TARGET
[23:08:53.503409] [239] VFR_HUD
[23:08:53.947421] [153] RADIO
[23:08:53.950416] [153] RADIO_STATUS
[23:08:54.063526] [240] HEARTBEAT
[23:08:54.500802] JAMMING_START
[23:08:55.096548] [154] RADIO
[23:08:55.099499] [154] RADIO_STATUS
[23:08:55.156584] [242] HEARTBEAT
[23:08:55.163541] [243] SYS_STATUS
[23:08:55.170530] [244] BATTERY_STATUS
[23:08:55.183532] [245] ATTITUDE_TARGET
[23:08:55.188528] [246] VFR_HUD
[23:08:55.907555] [247] VFR_HUD
[23:08:56.016607] [155] RADIO
[23:08:56.019609] [155] RADIO_STATUS
[23:08:56.050783] [248] HEARTBEAT
[23:08:56.826669] [249] VFR_HUD
[23:08:57.065703] [250] HEARTBEAT
[23:08:57.073734] [251] ATTITUDE_TARGET
[23:08:57.083661] [156] RADIO
[23:08:57.086656] [156] RADIO_STATUS
[23:08:57.516793] [252] VFR_HUD
[23:08:57.975820] [157] RADIO
[23:08:57.978812] [157] RADIO_STATUS
[23:08:58.096875] [253] HEARTBEAT
[23:08:58.325881] [254] VFR_HUD
[23:08:59.004934] [158] RADIO
[23:08:59.007936] [158] RADIO_STATUS
[23:08:59.132947] [255] HEARTBEAT
[23:08:59.139994] [0] SYS_STATUS
[23:08:59.259986] [1] BATTERY_STATUS
[23:08:59.372022] [2] ATTITUDE_TARGET
[23:08:59.376991] [3] VFR_HUD
[23:08:59.936047] [4] VFR_HUD
[23:09:00.155057] [159] RADIO
[23:09:00.158194] [159] RADIO_STATUS
[23:09:00.747162] [6] VFR_HUD
[23:09:00.965154] [160] RADIO
[23:09:00.967214] [160] RADIO_STATUS
[23:09:01.094197] [7] HEARTBEAT
[23:09:01.102362] [8] ATTITUDE_TARGET
[23:09:01.545248] [9] VFR_HUD
[23:09:01.994283] [161] RADIO
[23:09:01.997265] [161] RADIO_STATUS
[23:09:02.110347] [10] HEARTBEAT
[23:09:03.143374] [162] RADIO
[23:09:03.146384] [162] RADIO_STATUS
[23:09:03.203403] [12] HEARTBEAT
[23:09:03.209433] [13] SYS_STATUS
[23:09:03.217652] [14] BATTERY_STATUS
[23:09:03.230705] [15] ATTITUDE_TARGET
[23:09:03.234613] [16] VFR_HUD
[23:09:03.954516] [17] VFR_HUD
[23:09:03.981538] [163] RADIO
[23:09:03.984532] [163] RADIO_STATUS
[23:09:04.069520] [18] HEARTBEAT
[23:09:04.982646] [164] RADIO
[23:09:04.985583] [164] RADIO_STATUS
[23:09:05.112668] [20] HEARTBEAT
[23:09:05.120630] [21] ATTITUDE_TARGET
[23:09:05.453703] [22] VFR_HUD
[23:09:06.022753] [165] RADIO
[23:09:06.025698] [165] RADIO_STATUS
[23:09:06.138807] [23] HEARTBEAT
[23:09:06.252729] [24] VFR_HUD
[23:09:07.051858] [166] RADIO
[23:09:07.054849] [166] RADIO_STATUS
[23:09:07.179866] [25] HEARTBEAT
[23:09:07.186866] [26] SYS_STATUS
[23:09:07.309946] [27] BATTERY_STATUS
[23:09:07.311816] [28] EXTENDED_SYS_STATE
[23:09:07.343885] [29] ATTITUDE_TARGET
[23:09:07.348840] [30] VFR_HUD
[23:09:07.351820] [31] SYSTEM_TIME
[23:09:07.862945] [32] VFR_HUD
[23:09:08.201948] [167] RADIO
[23:09:08.204962] [167] RADIO_STATUS
[23:09:08.672003] [34] VFR_HUD
[23:09:09.011023] [168] RADIO
[23:09:09.013987] [168] RADIO_STATUS
[23:09:09.141115] [35] HEARTBEAT
[23:09:09.149302] [36] ATTITUDE_TARGET
[23:09:09.472085] [37] VFR_HUD
[23:09:10.041127] [169] RADIO
[23:09:10.044117] [169] RADIO_STATUS
[23:09:10.157147] [38] HEARTBEAT
[23:09:10.281126] [39] VFR_HUD
[23:09:11.089213] [40] HEARTBEAT
[23:09:11.095355] [41] SYS_STATUS
[23:09:11.190200] [170] RADIO
[23:09:11.193165] [170] RADIO_STATUS
[23:09:11.231208] [42] BATTERY_STATUS
[23:09:11.258263] [43] ATTITUDE_TARGET
[23:09:11.263197] [44] VFR_HUD
[23:09:11.896300] [45] VFR_HUD
[23:09:12.017309] [171] RADIO
[23:09:12.020284] [171] RADIO_STATUS
[23:09:12.116349] [46] HEARTBEAT
[23:09:13.030456] [172] RADIO
[23:09:13.033403] [172] RADIO_STATUS
[23:09:13.077433] [48] HEARTBEAT
[23:09:13.085793] [49] ATTITUDE_TARGET
[23:09:13.505427] [50] VFR_HUD
[23:09:14.065503] [51] HEARTBEAT
[23:09:14.097502] [173] RADIO
[23:09:14.100439] [173] RADIO_STATUS
[23:09:14.300486] [52] VFR_HUD
[23:09:15.099587] [174] RADIO
[23:09:15.102524] [174] RADIO_STATUS
[23:09:15.227807] [53] HEARTBEAT
[23:09:15.234579] [54] SYS_STATUS
[23:09:15.348616] [55] BATTERY_STATUS
[23:09:15.466635] [56] ATTITUDE_TARGET
[23:09:15.471610] [57] VFR_HUD
[23:09:15.909632] [58] VFR_HUD
[23:09:16.018713] [175] RADIO
[23:09:16.021606] [175] RADIO_STATUS
[23:09:16.052752] [59] HEARTBEAT
[23:09:16.719683] [60] VFR_HUD
[23:09:17.067788] [61] HEARTBEAT
[23:09:17.075730] [62] ATTITUDE_TARGET
[23:09:17.085819] [176] RADIO
[23:09:17.088756] [176] RADIO_STATUS
[23:09:17.518794] [63] VFR_HUD
[23:09:18.087863] [177] RADIO
[23:09:18.090811] [177] RADIO_STATUS
[23:09:18.121919] [64] HEARTBEAT
[23:09:18.328955] [65] VFR_HUD
[23:09:19.156022] [178] RADIO
[23:09:19.158983] [178] RADIO_STATUS
[23:09:19.258001] [68] BATTERY_STATUS
[23:09:19.375001] [69] ATTITUDE_TARGET
[23:09:19.379932] [70] VFR_HUD
[23:09:19.937977] [71] VFR_HUD
[23:09:20.044096] [72] HEARTBEAT
[23:09:20.075025] [179] RADIO
[23:09:20.078007] [179] RADIO_STATUS
[23:09:21.077316] [180] RADIO
[23:09:21.080124] [180] RADIO_STATUS
[23:09:21.125160] [74] HEARTBEAT
[23:09:21.132134] [75] ATTITUDE_TARGET
[23:09:21.552147] [76] VFR_HUD
[23:09:22.112423] [77] HEARTBEAT
[23:09:22.144384] [181] RADIO
[23:09:22.147270] [181] RADIO_STATUS
[23:09:22.242235] [78] VFR_HUD
[23:09:23.145377] [182] RADIO
[23:09:23.148324] [182] RADIO_STATUS
[23:09:23.282392] [82] ATTITUDE_TARGET
[23:09:23.287323] [83] VFR_HUD
[23:09:23.956384] [84] VFR_HUD
[23:09:24.065503] [183] RADIO
[23:09:24.068416] [183] RADIO_STATUS
[23:09:24.099464] [85] HEARTBEAT
[23:09:24.651491] [86] VFR_HUD
[23:09:25.115603] [87] HEARTBEAT
[23:09:25.123570] [88] ATTITUDE_TARGET
[23:09:25.133597] [184] RADIO
[23:09:25.136558] [184] RADIO_STATUS
[23:09:25.455579] [89] VFR_HUD
[23:09:26.134667] [185] RADIO
[23:09:26.137819] [185] RADIO_STATUS
[23:09:26.168826] [90] HEARTBEAT
[23:09:26.255660] [91] VFR_HUD
[23:09:27.072737] [92] HEARTBEAT
[23:09:27.079737] [93] SYS_STATUS
[23:09:27.284741] [186] RADIO
[23:09:27.287735] [186] RADIO_STATUS
[23:09:27.864853] [99] VFR_HUD
[23:09:28.089827] [100] HEARTBEAT
[23:09:28.203799] [187] RADIO
[23:09:28.206759] [187] RADIO_STATUS
[23:09:28.674870] [101] VFR_HUD
[23:09:29.123988] [188] RADIO
[23:09:29.126954] [188] RADIO_STATUS
[23:09:29.254055] [102] HEARTBEAT
[23:09:29.261026] [103] ATTITUDE_TARGET
[23:09:29.486003] [104] VFR_HUD
[23:09:30.049099] [105] HEARTBEAT
[23:09:30.165408] [189] RADIO
[23:09:30.166093] [189] RADIO_STATUS
[23:09:30.289110] [106] VFR_HUD
[23:09:31.193168] [190] RADIO
[23:09:31.196200] [190] RADIO_STATUS
[23:09:32.115209] [191] RADIO_STATUS
[23:09:32.693309] [114] VFR_HUD
[23:09:33.038355] [115] HEARTBEAT
[23:09:33.061343] [116] ATTITUDE_TARGET
[23:09:33.152382] [192] RADIO
[23:09:33.155286] [192] RADIO_STATUS
[23:09:33.612390] [117] VFR_HUD
[23:09:34.077509] [118] HEARTBEAT
[23:09:34.181417] [193] RADIO
[23:09:34.184458] [193] RADIO_STATUS
[23:09:34.302429] [119] VFR_HUD
[23:09:35.119572] [120] HEARTBEAT
[23:09:35.126564] [121] SYS_STATUS
[23:09:35.294585] [124] VFR_HUD
[23:09:35.305552] [194] RADIO
[23:09:35.309107] [194] RADIO_STATUS
[23:09:35.911775] [125] VFR_HUD
[23:09:36.137667] [126] HEARTBEAT
[23:09:36.250695] [195] RADIO
[23:09:36.253610] [195] RADIO_STATUS
[23:09:36.721689] [127] VFR_HUD
[23:09:37.070716] [128] HEARTBEAT
[23:09:37.077680] [129] ATTITUDE_TARGET
[23:09:37.170702] [196] RADIO
[23:09:37.173696] [196] RADIO_STATUS
[23:09:37.520746] [130] VFR_HUD
[23:09:38.209943] [197] RADIO
[23:09:38.212758] [197] RADIO_STATUS
[23:09:38.329832] [132] VFR_HUD
[23:09:39.238920] [198] RADIO
[23:09:39.242033] [198] RADIO_STATUS
[23:09:39.944983] [138] VFR_HUD
[23:09:40.056014] [139] HEARTBEAT
[23:09:40.159821] [199] RADIO
[23:09:40.162150] [199] RADIO_STATUS
[23:09:40.739090] [140] VFR_HUD
[23:09:41.103191] [141] HEARTBEAT
[23:09:41.113488] [142] ATTITUDE_TARGET
[23:09:41.198228] [200] RADIO
[23:09:41.201947] [200] RADIO_STATUS
[23:09:41.658180] [143] VFR_HUD
[23:09:42.228272] [201] RADIO
[23:09:42.230269] [201] RADIO_STATUS
[23:09:42.348299] [145] VFR_HUD
[23:09:43.039393] [146] HEARTBEAT
[23:09:43.059378] [147] SYS_STATUS
[23:09:43.102385] [148] BATTERY_STATUS
[23:09:43.110436] [149] ATTITUDE_TARGET
[23:09:43.115300] [150] VFR_HUD
[23:09:43.379321] [202] RADIO
[23:09:43.382319] [202] RADIO_STATUS
[23:09:44.090416] [151] VFR_HUD
[23:09:44.093433] [152] HEARTBEAT
[23:09:44.298528] [203] RADIO
[23:09:44.301466] [203] RADIO_STATUS
[23:09:44.649494] [153] VFR_HUD
[23:09:45.118544] [154] HEARTBEAT
[23:09:45.125516] [155] ATTITUDE_TARGET
[23:09:45.219924] [204] RADIO
[23:09:45.220461] [204] RADIO_STATUS
[23:09:45.458556] [156] VFR_HUD
[23:09:46.158938] [157] HEARTBEAT
[23:09:46.258644] [158] VFR_HUD
[23:09:46.290741] [205] RADIO
[23:09:46.293870] [205] RADIO_STATUS
[23:09:47.075784] [159] HEARTBEAT
[23:09:47.082720] [160] SYS_STATUS
[23:09:47.287724] [206] RADIO
[23:09:47.290680] [206] RADIO_STATUS
[23:09:47.867847] [166] VFR_HUD
[23:09:48.094159] [167] HEARTBEAT
[23:09:48.206826] [207] RADIO
[23:09:48.209765] [207] RADIO_STATUS
[23:09:48.682889] [168] VFR_HUD
[23:09:49.152017] [169] HEARTBEAT
[23:09:49.160009] [170] ATTITUDE_TARGET
[23:09:49.251984] [208] RADIO
[23:09:49.254938] [208] RADIO_STATUS
[23:09:50.053268] [172] HEARTBEAT
[23:09:50.276110] [209] RADIO
[23:09:50.279100] [209] RADIO_STATUS
[23:09:50.315114] [173] VFR_HUD
[23:09:51.094174] [174] HEARTBEAT
[23:09:51.101159] [175] SYS_STATUS
[23:09:51.201140] [210] RADIO
[23:09:51.204129] [210] RADIO_STATUS
[23:09:51.266205] [176] BATTERY_STATUS
[23:09:51.273170] [177] ATTITUDE_TARGET
[23:09:51.278120] [178] VFR_HUD
[23:09:52.134213] [179] VFR_HUD
[23:09:52.137190] [180] HEARTBEAT
[23:09:52.347244] [211] RADIO
[23:09:52.350245] [211] RADIO_STATUS
[23:09:52.698312] [181] VFR_HUD
[23:09:53.166548] [182] HEARTBEAT
[23:09:53.174397] [183] ATTITUDE_TARGET
[23:09:53.267358] [212] RADIO
[23:09:53.270330] [212] RADIO_STATUS
[23:09:53.507417] [184] VFR_HUD
[23:09:54.307488] [186] VFR_HUD
[23:09:54.339446] [213] RADIO
[23:09:54.342466] [213] RADIO_STATUS
[23:09:55.124584] [187] HEARTBEAT
[23:09:55.131562] [188] SYS_STATUS
[23:09:55.336560] [214] RADIO
[23:09:55.339502] [214] RADIO_STATUS
[23:09:55.917651] [192] VFR_HUD
[23:09:56.142605] [193] HEARTBEAT
[23:09:56.256609] [215] RADIO
[23:09:56.259597] [215] RADIO_STATUS
[23:09:56.726710] [194] VFR_HUD
[23:09:57.195831] [195] HEARTBEAT
[23:09:57.202786] [196] ATTITUDE_TARGET
[23:09:57.295783] [216] RADIO
[23:09:57.298749] [216] RADIO_STATUS
[23:09:58.101897] [198] HEARTBEAT
[23:09:58.325902] [217] RADIO
[23:09:58.328928] [217] RADIO_STATUS
[23:09:58.363958] [199] VFR_HUD
[23:09:59.144061] [200] HEARTBEAT
[23:09:59.150237] [201] SYS_STATUS
[23:09:59.245076] [218] RADIO
[23:09:59.247961] [218] RADIO_STATUS
[23:09:59.286051] [202] BATTERY_STATUS
[23:09:59.312989] [203] ATTITUDE_TARGET
[23:09:59.318014] [204] VFR_HUD
[23:10:00.061052] [205] VFR_HUD
[23:10:00.064073] [206] HEARTBEAT
[23:10:00.285094] [219] RADIO
[23:10:00.288094] [219] RADIO_STATUS
[23:10:00.745146] [207] VFR_HUD
[23:10:01.314217] [220] RADIO
[23:10:01.317128] [220] RADIO_STATUS
[23:10:01.560235] [210] VFR_HUD
[23:10:02.355344] [212] VFR_HUD
[23:10:02.382422] [221] RADIO
[23:10:02.385321] [221] RADIO_STATUS
[23:10:03.040385] [213] HEARTBEAT
[23:10:03.060386] [214] SYS_STATUS
[23:10:03.108431] [215] BATTERY_STATUS
[23:10:03.116364] [216] ATTITUDE_TARGET
[23:10:03.121346] [217] VFR_HUD
[23:10:03.385385] [222] RADIO
[23:10:03.388424] [222] RADIO_STATUS
[23:10:04.096403] [218] VFR_HUD
[23:10:04.099382] [219] HEARTBEAT
[23:10:04.304428] [223] RADIO
[23:10:04.307377] [223] RADIO_STATUS
[23:10:04.655511] [220] VFR_HUD
[23:10:05.243528] [221] HEARTBEAT
[23:10:05.251531] [222] ATTITUDE_TARGET
[23:10:05.344532] [224] RADIO
[23:10:05.347523] [224] RADIO_STATUS
[23:10:05.465550] [223] VFR_HUD
[23:10:06.155644] [224] HEARTBEAT
[23:10:06.276623] [225] VFR_HUD
[23:10:06.373677] [225] RADIO
[23:10:06.376627] [225] RADIO_STATUS
[23:10:07.086778] [226] HEARTBEAT
[23:10:07.093712] [227] SYS_STATUS
[23:10:07.127778] [228] BATTERY_STATUS
[23:10:07.129730] [229] EXTENDED_SYS_STATE
[23:10:07.137787] [230] ATTITUDE_TARGET
[23:10:07.141788] [231] VFR_HUD
[23:10:07.145772] [232] SYSTEM_TIME
[23:10:07.292805] [226] RADIO
[23:10:07.295732] [226] RADIO_STATUS
[23:10:08.098894] [234] HEARTBEAT
[23:10:08.332834] [227] RADIO
[23:10:08.335843] [227] RADIO_STATUS
[23:10:08.688894] [235] VFR_HUD
[23:10:09.361967] [228] RADIO
[23:10:09.365015] [228] RADIO_STATUS
[23:10:09.482961] [238] VFR_HUD
[23:10:10.058017] [239] HEARTBEAT
[23:10:10.402029] [240] VFR_HUD
[23:10:10.413093] [229] RADIO
[23:10:10.416008] [229] RADIO_STATUS
[23:10:11.099165] [241] HEARTBEAT
[23:10:11.106098] [242] SYS_STATUS
[23:10:11.226103] [243] BATTERY_STATUS
[23:10:11.431142] [230] RADIO
[23:10:11.434112] [230] RADIO_STATUS
[23:10:11.902199] [246] VFR_HUD
[23:10:12.137770] [247] HEARTBEAT
[23:10:12.351269] [231] RADIO
[23:10:12.354141] [231] RADIO_STATUS
[23:10:12.701249] [248] VFR_HUD
[23:10:13.060380] [249] HEARTBEAT
[23:10:13.068306] [250] ATTITUDE_TARGET
[23:10:13.390269] [232] RADIO
[23:10:13.393851] [232] RADIO_STATUS
[23:10:13.511399] [251] VFR_HUD
[23:10:14.076429] [252] HEARTBEAT
[23:10:14.311411] [253] VFR_HUD
[23:10:14.419373] [233] RADIO
[23:10:14.422347] [233] RADIO_STATUS
[23:10:15.127610] [254] HEARTBEAT
[23:10:15.134462] [255] SYS_STATUS
[23:10:15.252492] [0] BATTERY_STATUS
[23:10:15.260599] [1] ATTITUDE_TARGET
[23:10:15.291482] [2] VFR_HUD
[23:10:15.318492] [234] RADIO
[23:10:15.321433] [234] RADIO_STATUS
[23:10:16.145633] [4] HEARTBEAT
[23:10:16.384627] [235] RADIO
[23:10:16.387545] [235] RADIO_STATUS
[23:10:16.734689] [5] VFR_HUD
[23:10:17.408710] [236] RADIO
[23:10:17.411663] [236] RADIO_STATUS
[23:10:17.446699] [8] VFR_HUD
[23:10:18.104756] [9] HEARTBEAT
[23:10:18.448845] [10] VFR_HUD
[23:10:18.464819] [237] RADIO
[23:10:18.467817] [237] RADIO_STATUS
[23:10:19.145883] [11] HEARTBEAT
[23:10:19.152888] [12] SYS_STATUS
[23:10:19.267824] [13] BATTERY_STATUS
[23:10:19.477832] [238] RADIO
[23:10:19.480772] [238] RADIO_STATUS
[23:10:19.953996] [16] VFR_HUD
[23:10:20.065047] [17] HEARTBEAT
[23:10:20.397969] [239] RADIO
[23:10:20.401050] [239] RADIO_STATUS
[23:10:20.747987] [18] VFR_HUD
[23:10:21.107033] [19] HEARTBEAT
[23:10:21.115070] [20] ATTITUDE_TARGET
[23:10:21.442054] [240] RADIO
[23:10:21.445045] [240] RADIO_STATUS
[23:10:21.558019] [21] VFR_HUD
[23:10:22.123135] [22] HEARTBEAT
[23:10:22.247148] [23] VFR_HUD
[23:10:22.467113] [241] RADIO
[23:10:22.470102] [241] RADIO_STATUS
[23:10:23.055236] [24] HEARTBEAT
[23:10:23.065781] [25] SYS_STATUS
[23:10:23.177417] [26] BATTERY_STATUS
[23:10:23.294388] [27] ATTITUDE_TARGET
[23:10:23.299183] [28] VFR_HUD
[23:10:23.386251] [242] RADIO
[23:10:23.389225] [242] RADIO_STATUS
[23:10:23.857286] [29] VFR_HUD
[23:10:24.426271] [243] RADIO
[23:10:24.429236] [243] RADIO_STATUS
[23:10:25.456388] [244] RADIO
[23:10:25.458345] [244] RADIO_STATUS
[23:10:25.494690] [34] VFR_HUD
[23:10:26.037441] [35] HEARTBEAT
[23:10:26.500701] [245] RADIO
[23:10:26.503445] [245] RADIO_STATUS
[23:10:27.091416] [37] HEARTBEAT
[23:10:27.095625] [38] SYS_STATUS
[23:10:27.129630] [39] BATTERY_STATUS
[23:10:27.131504] [40] EXTENDED_SYS_STATE
[23:10:27.139571] [41] ATTITUDE_TARGET
[23:10:27.144560] [42] VFR_HUD
[23:10:27.147534] [43] SYSTEM_TIME
[23:10:27.524592] [246] RADIO
[23:10:27.527525] [246] RADIO_STATUS
[23:10:27.875618] [44] VFR_HUD
[23:10:28.444695] [247] RADIO
[23:10:28.447672] [247] RADIO_STATUS
[23:10:29.161861] [47] HEARTBEAT
[23:10:29.169903] [48] ATTITUDE_TARGET
[23:10:29.484867] [49] VFR_HUD
[23:10:29.513838] [248] RADIO
[23:10:29.514818] [248] RADIO_STATUS
[23:10:30.065941] [50] HEARTBEAT
[23:10:30.295108] [51] VFR_HUD
[23:10:30.513868] [249] RADIO
[23:10:30.517075] [249] RADIO_STATUS
[23:10:31.102050] [52] HEARTBEAT
[23:10:31.109020] [53] SYS_STATUS
[23:10:31.228999] [54] BATTERY_STATUS
[23:10:31.341056] [55] ATTITUDE_TARGET
[23:10:31.345977] [56] VFR_HUD
[23:10:31.433925] [250] RADIO
[23:10:31.436039] [250] RADIO_STATUS
[23:10:31.902124] [57] VFR_HUD
[23:10:32.472151] [251] RADIO
[23:10:32.474190] [251] RADIO_STATUS
[23:10:33.061241] [60] HEARTBEAT
[23:10:33.069197] [61] ATTITUDE_TARGET
[23:10:33.501228] [252] RADIO
[23:10:33.505553] [252] RADIO_STATUS
[23:10:33.622229] [62] VFR_HUD
[23:10:34.077313] [63] HEARTBEAT
[23:10:34.421333] [253] RADIO
[23:10:34.424243] [253] RADIO_STATUS
[23:10:35.134462] [65] HEARTBEAT
[23:10:35.141366] [66] SYS_STATUS
[23:10:35.180397] [67] BATTERY_STATUS
[23:10:35.188419] [68] ATTITUDE_TARGET
[23:10:35.193762] [69] VFR_HUD
[23:10:35.570419] [254] RADIO
[23:10:35.573387] [254] RADIO_STATUS
[23:10:36.046465] [70] VFR_HUD
[23:10:36.049507] [71] HEARTBEAT
[23:10:36.490551] [255] RADIO
[23:10:36.493577] [255] RADIO_STATUS
[23:10:36.840560] [72] VFR_HUD
[23:10:37.080618] [73] HEARTBEAT
[23:10:37.087662] [74] ATTITUDE_TARGET
[23:10:37.530656] [75] VFR_HUD
[23:10:37.557881] [0] RADIO
[23:10:37.560613] [0] RADIO_STATUS
[23:10:38.105775] [76] HEARTBEAT
[23:10:38.345824] [77] VFR_HUD
[23:10:38.559794] [1] RADIO
[23:10:38.562795] [1] RADIO_STATUS
[23:10:39.148022] [78] HEARTBEAT
[23:10:39.153973] [79] SYS_STATUS
[23:10:39.273959] [80] BATTERY_STATUS
[23:10:39.386887] [81] ATTITUDE_TARGET
[23:10:39.390810] [82] VFR_HUD
[23:10:39.478914] [2] RADIO
[23:10:39.481888] [2] RADIO_STATUS
[23:10:39.949004] [83] VFR_HUD
[23:10:40.524099] [3] RADIO
[23:10:40.526941] [3] RADIO_STATUS
[23:10:40.639105] [85] VFR_HUD
[23:10:41.108099] [86] HEARTBEAT
[23:10:41.116103] [87] ATTITUDE_TARGET
[23:10:41.444120] [88] VFR_HUD
[23:10:41.471116] [4] RADIO
[23:10:41.474091] [4] RADIO_STATUS
[23:10:42.124183] [89] HEARTBEAT
[23:10:42.249191] [90] VFR_HUD
[23:10:42.468226] [5] RADIO
[23:10:42.471159] [5] RADIO_STATUS
[23:10:43.177315] [93] BATTERY_STATUS
[23:10:43.295370] [94] ATTITUDE_TARGET
[23:10:43.300304] [95] VFR_HUD
[23:10:43.617345] [6] RADIO
[23:10:43.620324] [6] RADIO_STATUS
[23:10:43.863421] [96] VFR_HUD
[23:10:44.084480] [97] HEARTBEAT
[23:10:44.537466] [7] RADIO
[23:10:44.540449] [7] RADIO_STATUS
[23:10:45.127539] [99] HEARTBEAT
[23:10:45.134499] [100] ATTITUDE_TARGET
[23:10:45.472512] [101] VFR_HUD
[23:10:45.593642] [8] RADIO
[23:10:45.596567] [8] RADIO_STATUS
[23:10:46.038667] [102] HEARTBEAT
[23:10:46.267657] [103] VFR_HUD
[23:10:46.606691] [9] RADIO
[23:10:46.609635] [9] RADIO_STATUS
[23:10:47.526860] [10] RADIO
[23:10:47.528768] [10] RADIO_STATUS
[23:10:47.876830] [111] VFR_HUD
[23:10:48.570846] [11] RADIO
[23:10:48.573816] [11] RADIO_STATUS
[23:10:48.686872] [113] VFR_HUD
[23:10:49.156010] [114] HEARTBEAT
[23:10:49.163908] [115] ATTITUDE_TARGET
[23:10:49.485924] [116] VFR_HUD
[23:10:49.518932] [12] RADIO
[23:10:49.521983] [12] RADIO_STATUS
[23:10:50.067076] [117] HEARTBEAT
[23:10:50.295997] [118] VFR_HUD
[23:10:50.515008] [13] RADIO
[23:10:50.518045] [13] RADIO_STATUS
[23:10:51.103174] [119] HEARTBEAT
[23:10:51.110025] [120] SYS_STATUS
[23:10:51.224049] [121] BATTERY_STATUS
[23:10:51.342098] [122] ATTITUDE_TARGET
[23:10:51.347043] [123] VFR_HUD
[23:10:51.665136] [14] RADIO
[23:10:51.667101] [14] RADIO_STATUS
[23:10:51.905120] [124] VFR_HUD
[23:10:52.136153] [125] HEARTBEAT
[23:10:52.584210] [15] RADIO
[23:10:52.587155] [15] RADIO_STATUS
[23:10:53.069264] [127] HEARTBEAT
[23:10:53.077262] [128] ATTITUDE_TARGET
[23:10:53.504231] [16] RADIO
[23:10:53.507173] [16] RADIO_STATUS
[23:10:53.542197] [129] VFR_HUD
[23:10:54.080268] [130] HEARTBEAT
[23:10:54.314296] [131] VFR_HUD
[23:10:54.653348] [17] RADIO
[23:10:54.660205] [17] RADIO_STATUS
[23:10:55.183353] [134] BATTERY_STATUS
[23:10:55.190363] [135] ATTITUDE_TARGET
[23:10:55.195695] [136] VFR_HUD
[23:10:55.573457] [18] RADIO
[23:10:55.575478] [18] RADIO_STATUS
[23:10:55.925480] [137] VFR_HUD
[23:10:56.040493] [138] HEARTBEAT
[23:10:56.614529] [19] RADIO
[23:10:56.617461] [19] RADIO_STATUS
[23:10:56.740505] [139] VFR_HUD
[23:10:57.083524] [140] HEARTBEAT
[23:10:57.091568] [141] ATTITUDE_TARGET
[23:10:57.534699] [142] VFR_HUD
[23:10:57.561667] [20] RADIO
[23:10:57.564539] [20] RADIO_STATUS
[23:10:58.114828] [143] HEARTBEAT
[23:10:58.343764] [144] VFR_HUD
[23:10:58.562694] [21] RADIO
[23:10:58.565642] [21] RADIO_STATUS
[23:10:59.277846] [147] BATTERY_STATUS
[23:10:59.389914] [148] ATTITUDE_TARGET
[23:10:59.394816] [149] VFR_HUD
[23:10:59.712891] [22] RADIO
[23:10:59.714883] [22] RADIO_STATUS
[23:10:59.952827] [150] VFR_HUD
[23:11:00.058900] [151] HEARTBEAT
[23:11:00.632011] [23] RADIO
[23:11:00.634965] [23] RADIO_STATUS
[23:11:00.670928] [152] VFR_HUD
[23:11:01.112074] [153] HEARTBEAT
[23:11:01.121231] [154] ATTITUDE_TARGET
[23:11:01.454032] [155] VFR_HUD
[23:11:01.552062] [24] RADIO
[23:11:01.555040] [24] RADIO_STATUS
[23:11:02.128154] [156] HEARTBEAT
[23:11:02.257058] [157] VFR_HUD
[23:11:02.591115] [25] RADIO
[23:11:02.594096] [25] RADIO_STATUS
[23:11:03.180179] [160] BATTERY_STATUS
[23:11:03.298181] [161] ATTITUDE_TARGET
[23:11:03.303121] [162] VFR_HUD
[23:11:03.620197] [26] RADIO
[23:11:03.623194] [26] RADIO_STATUS
[23:11:03.866220] [163] VFR_HUD
[23:11:04.086241] [164] HEARTBEAT
[23:11:04.660270] [165] VFR_HUD
[23:11:04.687236] [27] RADIO
[23:11:04.690248] [27] RADIO_STATUS
[23:11:05.129332] [166] HEARTBEAT
[23:11:05.137550] [167] ATTITUDE_TARGET
[23:11:05.475446] [168] VFR_HUD
[23:11:05.595551] [28] RADIO
[23:11:05.598342] [28] RADIO_STATUS
[23:11:06.035422] [169] HEARTBEAT
[23:11:06.269468] [170] VFR_HUD
[23:11:06.608489] [29] RADIO
[23:11:06.611615] [29] RADIO_STATUS
[23:11:07.086513] [171] HEARTBEAT
[23:11:07.093491] [172] SYS_STATUS
[23:11:07.757562] [30] RADIO
[23:11:07.760519] [30] RADIO_STATUS
[23:11:07.878598] [178] VFR_HUD
[23:11:08.104672] [179] HEARTBEAT
[23:11:08.677634] [31] RADIO
[23:11:08.680598] [31] RADIO_STATUS
[23:11:09.157747] [181] HEARTBEAT
[23:11:09.165778] [182] ATTITUDE_TARGET
[23:11:09.488663] [183] VFR_HUD
[23:11:09.596677] [32] RADIO
[23:11:09.599627] [32] RADIO_STATUS
[23:11:10.067738] [184] HEARTBEAT
[23:11:10.296758] [185] VFR_HUD
[23:11:10.745895] [33] RADIO
[23:11:10.748885] [33] RADIO_STATUS
[23:11:11.342845] [189] ATTITUDE_TARGET
[23:11:11.347825] [190] VFR_HUD
[23:11:11.665857] [34] RADIO
[23:11:11.668862] [34] RADIO_STATUS
[23:11:11.912078] [191] VFR_HUD
[23:11:12.132014] [192] HEARTBEAT
[23:11:12.706012] [193] VFR_HUD
[23:11:12.738040] [35] RADIO
[23:11:12.740936] [35] RADIO_STATUS
[23:11:13.070093] [194] HEARTBEAT
[23:11:13.078151] [195] ATTITUDE_TARGET
[23:11:13.521083] [196] VFR_HUD
[23:11:13.641119] [36] RADIO
[23:11:13.644049] [36] RADIO_STATUS
[23:11:14.315257] [198] VFR_HUD
[23:11:14.654223] [37] RADIO
[23:11:14.657216] [37] RADIO_STATUS
[23:11:15.137283] [199] HEARTBEAT
[23:11:15.144274] [200] SYS_STATUS
[23:11:15.184263] [201] BATTERY_STATUS
[23:11:15.191301] [202] ATTITUDE_TARGET
[23:11:15.196292] [203] VFR_HUD
[23:11:15.804343] [38] RADIO
[23:11:15.806318] [38] RADIO_STATUS
[23:11:16.055400] [204] VFR_HUD
[23:11:16.058375] [205] HEARTBEAT
[23:11:16.723459] [39] RADIO
[23:11:16.726433] [39] RADIO_STATUS
[23:11:17.083496] [207] HEARTBEAT
[23:11:17.091523] [208] ATTITUDE_TARGET
[23:11:17.643504] [40] RADIO
[23:11:17.646481] [40] RADIO_STATUS
[23:11:18.343620] [211] VFR_HUD
[23:11:18.687622] [41] RADIO
[23:11:18.690772] [41] RADIO_STATUS
[23:11:19.389733] [215] ATTITUDE_TARGET
[23:11:19.394824] [216] VFR_HUD
[23:11:19.712727] [42] RADIO
[23:11:19.715705] [42] RADIO_STATUS
[23:11:19.953750] [217] VFR_HUD
[23:11:20.058752] [218] HEARTBEAT
[23:11:20.648795] [219] VFR_HUD
[23:11:20.768853] [43] RADIO
[23:11:20.771844] [43] RADIO_STATUS
[23:11:21.116913] [220] HEARTBEAT
[23:11:21.124933] [221] ATTITUDE_TARGET
[23:11:21.671925] [44] RADIO
[23:11:21.674956] [44] RADIO_STATUS
[23:11:22.138107] [223] HEARTBEAT
[23:11:22.258004] [224] VFR_HUD
[23:11:22.701997] [45] RADIO
[23:11:22.705044] [45] RADIO_STATUS
[23:11:23.060088] [225] HEARTBEAT
[23:11:23.067064] [226] SYS_STATUS
[23:11:23.186075] [227] BATTERY_STATUS
[23:11:23.851181] [46] RADIO
[23:11:23.854102] [46] RADIO_STATUS
[23:11:23.901165] [230] VFR_HUD
[23:11:24.087182] [231] HEARTBEAT
[23:11:24.662253] [232] VFR_HUD
[23:11:24.689255] [47] RADIO
[23:11:24.691192] [47] RADIO_STATUS
[23:11:25.130335] [233] HEARTBEAT
[23:11:25.138330] [234] ATTITUDE_TARGET
[23:11:25.471318] [235] VFR_HUD
[23:11:25.690350] [48] RADIO
[23:11:25.693300] [48] RADIO_STATUS
[23:11:26.271493] [237] VFR_HUD
[23:11:26.839499] [49] RADIO
[23:11:26.842492] [49] RADIO_STATUS
[23:11:27.088556] [238] HEARTBEAT
[23:11:27.094729] [239] SYS_STATUS
[23:11:27.759651] [50] RADIO
[23:11:27.762574] [50] RADIO_STATUS
[23:11:27.880660] [245] VFR_HUD
[23:11:28.105702] [246] HEARTBEAT
[23:11:28.689695] [247] VFR_HUD
[23:11:28.798705] [51] RADIO
[23:11:28.801740] [51] RADIO_STATUS
[23:11:29.158882] [248] HEARTBEAT
[23:11:29.166821] [249] ATTITUDE_TARGET
[23:11:29.717871] [52] RADIO
[23:11:29.720810] [52] RADIO_STATUS
[23:11:30.064958] [251] HEARTBEAT
[23:11:30.303918] [252] VFR_HUD
[23:11:30.748053] [53] RADIO
[23:11:30.751088] [53] RADIO_STATUS
[23:11:31.106062] [253] HEARTBEAT
[23:11:31.113073] [254] SYS_STATUS
[23:11:31.228037] [255] BATTERY_STATUS
[23:11:31.574110] [0] ATTITUDE_TARGET
[23:11:31.578994] [1] VFR_HUD
[23:11:31.897087] [54] RADIO
[23:11:31.900074] [54] RADIO_STATUS
[23:11:32.133187] [3] HEARTBEAT
[23:11:32.708290] [4] VFR_HUD
[23:11:32.735493] [55] RADIO
[23:11:32.738271] [55] RADIO_STATUS
[23:11:33.094294] [5] HEARTBEAT
[23:11:33.102234] [6] ATTITUDE_TARGET
[23:11:33.523299] [7] VFR_HUD
[23:11:33.737360] [56] RADIO
[23:11:33.739278] [56] RADIO_STATUS
[23:11:34.317355] [9] VFR_HUD
[23:11:34.776382] [57] RADIO
[23:11:34.779399] [57] RADIO_STATUS
[23:11:35.134456] [10] HEARTBEAT
[23:11:35.141453] [11] SYS_STATUS
[23:11:35.806469] [58] RADIO
[23:11:35.809433] [58] RADIO_STATUS
[23:11:36.047546] [16] HEARTBEAT
[23:11:36.725602] [59] RADIO
[23:11:36.728785] [59] RADIO_STATUS
[23:11:36.846608] [17] VFR_HUD
[23:11:37.204623] [18] HEARTBEAT
[23:11:37.212720] [19] ATTITUDE_TARGET
[23:11:37.770655] [60] RADIO
[23:11:37.773653] [60] RADIO_STATUS
[23:11:38.116727] [21] HEARTBEAT
[23:11:38.345724] [22] VFR_HUD
[23:11:38.794772] [61] RADIO
[23:11:38.797768] [61] RADIO_STATUS
[23:11:39.036833] [23] HEARTBEAT
[23:11:39.165879] [24] SYS_STATUS
[23:11:39.173849] [25] BATTERY_STATUS
[23:11:39.282921] [26] ATTITUDE_TARGET
[23:11:39.287911] [27] VFR_HUD
[23:11:39.944854] [62] RADIO
[23:11:39.947834] [62] RADIO_STATUS
[23:11:40.060971] [29] HEARTBEAT
[23:11:40.652752] [30] VFR_HUD
[23:11:40.771159] [63] RADIO
[23:11:40.774007] [63] RADIO_STATUS
[23:11:41.445064] [33] VFR_HUD
[23:11:41.784065] [64] RADIO
[23:11:41.787228] [64] RADIO_STATUS
[23:11:42.364154] [35] VFR_HUD
[23:11:42.933217] [65] RADIO
[23:11:42.936171] [65] RADIO_STATUS
[23:11:43.061184] [36] HEARTBEAT
[23:11:43.068224] [37] SYS_STATUS
[23:11:43.188195] [38] BATTERY_STATUS
[23:11:43.852319] [66] RADIO
[23:11:43.855236] [66] RADIO_STATUS
[23:11:43.984510] [41] VFR_HUD
[23:11:44.093428] [42] HEARTBEAT
[23:11:44.663363] [43] VFR_HUD
[23:11:44.772362] [67] RADIO
[23:11:44.775394] [67] RADIO_STATUS
[23:11:45.256470] [44] HEARTBEAT
[23:11:45.264426] [45] ATTITUDE_TARGET
[23:11:45.472430] [46] VFR_HUD
[23:11:45.817486] [68] RADIO
[23:11:45.821015] [68] RADIO_STATUS
[23:11:46.038610] [47] HEARTBEAT
[23:11:46.272517] [48] VFR_HUD
[23:11:46.840620] [69] RADIO
[23:11:46.843603] [69] RADIO_STATUS
[23:11:47.088664] [49] HEARTBEAT
[23:11:47.095746] [50] SYS_STATUS
[23:11:47.217619] [51] BATTERY_STATUS
[23:11:47.219542] [52] EXTENDED_SYS_STATE
[23:11:47.226595] [53] ATTITUDE_TARGET
[23:11:47.231601] [54] VFR_HUD
[23:11:47.235578] [55] SYSTEM_TIME
[23:11:47.990649] [70] RADIO
[23:11:47.993733] [70] RADIO_STATUS
[23:11:48.106691] [57] HEARTBEAT
[23:11:48.695763] [58] VFR_HUD
[23:11:48.811738] [71] RADIO
[23:11:48.814815] [71] RADIO_STATUS
[23:11:49.490804] [61] VFR_HUD
[23:11:49.829887] [72] RADIO
[23:11:49.832772] [72] RADIO_STATUS
[23:11:50.065863] [62] HEARTBEAT
[23:11:50.409890] [63] VFR_HUD
[23:11:50.869860] [73] RADIO
[23:11:50.871844] [73] RADIO_STATUS
[23:11:51.107928] [64] HEARTBEAT
[23:11:51.113866] [65] SYS_STATUS
[23:11:51.228951] [66] BATTERY_STATUS
[23:11:51.575912] [67] ATTITUDE_TARGET
[23:11:51.580928] [68] VFR_HUD
[23:11:51.899045] [74] RADIO
[23:11:51.902031] [74] RADIO_STATUS
[23:11:51.938012] [69] VFR_HUD
[23:11:52.135044] [70] HEARTBEAT
[23:11:52.710067] [71] VFR_HUD
[23:11:52.819023] [75] RADIO
[23:11:52.822007] [75] RADIO_STATUS
[23:11:53.069093] [72] HEARTBEAT
[23:11:53.076087] [73] ATTITUDE_TARGET
[23:11:53.519111] [74] VFR_HUD
[23:11:53.858131] [76] RADIO
[23:11:53.861103] [76] RADIO_STATUS
[23:11:54.084208] [75] HEARTBEAT
[23:11:54.319235] [76] VFR_HUD
[23:11:54.887258] [77] RADIO
[23:11:54.890246] [77] RADIO_STATUS
[23:11:55.135285] [77] HEARTBEAT
[23:11:55.142274] [78] SYS_STATUS
[23:11:55.261401] [79] BATTERY_STATUS
[23:11:55.268330] [80] ATTITUDE_TARGET
[23:11:55.298280] [81] VFR_HUD
[23:11:56.037371] [78] RADIO
[23:11:56.039357] [78] RADIO_STATUS
[23:11:56.737446] [84] VFR_HUD
[23:11:56.846649] [79] RADIO
[23:11:56.849494] [79] RADIO_STATUS
[23:11:57.537688] [87] VFR_HUD
[23:11:57.876527] [80] RADIO
[23:11:57.878512] [80] RADIO_STATUS
[23:11:58.113090] [88] HEARTBEAT
[23:11:58.915659] [81] RADIO
[23:11:58.918626] [81] RADIO_STATUS
[23:11:59.049749] [90] HEARTBEAT
[23:11:59.056731] [91] SYS_STATUS
[23:11:59.095733] [92] BATTERY_STATUS
[23:11:59.103715] [93] ATTITUDE_TARGET
[23:11:59.108667] [94] VFR_HUD
[23:11:59.845877] [82] RADIO
[23:11:59.846721] [82] RADIO_STATUS
[23:12:00.071820] [95] VFR_HUD
[23:12:00.074795] [96] HEARTBEAT
[23:12:00.754860] [97] VFR_HUD
[23:12:00.864845] [83] RADIO
[23:12:00.867827] [83] RADIO_STATUS
[23:12:01.119969] [98] HEARTBEAT
[23:12:01.127926] [99] ATTITUDE_TARGET
[23:12:01.444936] [100] VFR_HUD
[23:12:01.904026] [84] RADIO
[23:12:01.906993] [84] RADIO_STATUS
[23:12:02.130095] [101] HEARTBEAT
[23:12:02.255078] [102] VFR_HUD
[23:12:02.934123] [85] RADIO
[23:12:02.937091] [85] RADIO_STATUS
[23:12:03.062156] [103] HEARTBEAT
[23:12:03.069138] [104] SYS_STATUS
[23:12:03.188125] [105] BATTERY_STATUS
[23:12:03.301145] [106] ATTITUDE_TARGET
[23:12:03.306095] [107] VFR_HUD
[23:12:03.853152] [86] RADIO
[23:12:03.856142] [86] RADIO_STATUS
[23:12:04.898360] [87] RADIO
[23:12:04.901331] [87] RADIO_STATUS
[23:12:05.473395] [113] VFR_HUD
[23:12:05.922417] [88] RADIO
[23:12:05.925431] [88] RADIO_STATUS
[23:12:06.038487] [114] HEARTBEAT
[23:12:07.071567] [89] RADIO
[23:12:07.074582] [89] RADIO_STATUS
[23:12:07.134568] [116] HEARTBEAT
[23:12:07.141592] [117] SYS_STATUS
[23:12:07.149557] [118] BATTERY_STATUS
[23:12:07.151484] [119] EXTENDED_SYS_STATE
[23:12:07.167598] [120] ATTITUDE_TARGET
[23:12:07.172553] [121] VFR_HUD
[23:12:07.176639] [122] SYSTEM_TIME
[23:12:07.882663] [123] VFR_HUD
[23:12:07.914616] [90] RADIO
[23:12:07.917576] [90] RADIO_STATUS
[23:12:08.801758] [125] VFR_HUD
[23:12:08.910729] [91] RADIO
[23:12:08.913672] [91] RADIO_STATUS
[23:12:09.031818] [126] HEARTBEAT
[23:12:09.054752] [127] ATTITUDE_TARGET
[23:12:09.490808] [128] VFR_HUD
[23:12:09.955858] [92] RADIO
[23:12:09.957839] [92] RADIO_STATUS
[23:12:10.065914] [129] HEARTBEAT
[23:12:10.305880] [130] VFR_HUD
[23:12:10.980020] [93] RADIO
[23:12:10.982979] [93] RADIO_STATUS
[23:12:11.108008] [131] HEARTBEAT
[23:12:11.115023] [132] SYS_STATUS
[23:12:11.234058] [133] BATTERY_STATUS
[23:12:11.347035] [134] ATTITUDE_TARGET
[23:12:11.352085] [135] VFR_HUD
[23:12:11.899203] [94] RADIO
[23:12:11.902120] [94] RADIO_STATUS
[23:12:12.709252] [138] VFR_HUD
[23:12:12.944206] [95] RADIO
[23:12:12.947168] [95] RADIO_STATUS
[23:12:13.068340] [139] HEARTBEAT
[23:12:13.076348] [140] ATTITUDE_TARGET
[23:12:13.519272] [141] VFR_HUD
[23:12:13.968278] [96] RADIO
[23:12:13.971271] [96] RADIO_STATUS
[23:12:14.084284] [142] HEARTBEAT
[23:12:14.904407] [97] RADIO
[23:12:14.907294] [97] RADIO_STATUS
[23:12:15.135434] [144] HEARTBEAT
[23:12:15.142473] [145] SYS_STATUS
[23:12:15.261427] [146] BATTERY_STATUS
[23:12:15.269402] [147] ATTITUDE_TARGET
[23:12:15.299391] [148] VFR_HUD
[23:12:15.928607] [149] VFR_HUD
[23:12:15.955446] [98] RADIO
[23:12:15.958401] [98] RADIO_STATUS
[23:12:16.043482] [150] HEARTBEAT
[23:12:16.957554] [99] RADIO
[23:12:16.959489] [99] RADIO_STATUS
[23:12:17.086645] [152] HEARTBEAT
[23:12:17.094861] [153] ATTITUDE_TARGET
[23:12:17.537653] [154] VFR_HUD
[23:12:17.996688] [100] RADIO
[23:12:17.999578] [100] RADIO_STATUS
[23:12:18.112654] [155] HEARTBEAT
[23:12:18.352729] [156] VFR_HUD
[23:12:19.025802] [101] RADIO
[23:12:19.028703] [101] RADIO_STATUS
[23:12:19.113013] [160] ATTITUDE_TARGET
[23:12:19.117969] [161] VFR_HUD
[23:12:19.836935] [162] VFR_HUD
[23:12:19.945838] [102] RADIO
[23:12:19.948845] [102] RADIO_STATUS
[23:12:20.645988] [164] VFR_HUD
[23:12:20.984891] [103] RADIO
[23:12:20.987884] [103] RADIO_STATUS
[23:12:21.115026] [165] HEARTBEAT
[23:12:21.122951] [166] ATTITUDE_TARGET
[23:12:21.446032] [167] VFR_HUD
[23:12:22.015029] [104] RADIO
[23:12:22.018000] [104] RADIO_STATUS
[23:12:22.049079] [168] HEARTBEAT
[23:12:22.255180] [169] VFR_HUD
[23:12:22.934133] [105] RADIO
[23:12:22.937065] [105] RADIO_STATUS
[23:12:23.184145] [172] BATTERY_STATUS
[23:12:23.302158] [173] ATTITUDE_TARGET
[23:12:23.306116] [174] VFR_HUD
[23:12:23.865176] [175] VFR_HUD
[23:12:23.974175] [106] RADIO
[23:12:23.977128] [106] RADIO_STATUS
[23:12:24.095265] [176] HEARTBEAT
[23:12:25.004369] [107] RADIO
[23:12:25.006281] [107] RADIO_STATUS
[23:12:25.038324] [178] HEARTBEAT
[23:12:25.060358] [179] ATTITUDE_TARGET
[23:12:25.479409] [180] VFR_HUD
[23:12:26.039444] [181] HEARTBEAT
[23:12:26.153449] [108] RADIO
[23:12:26.156387] [108] RADIO_STATUS
[23:12:26.274486] [182] VFR_HUD
[23:12:27.072559] [109] RADIO
[23:12:27.075533] [109] RADIO_STATUS
[23:12:27.215622] [187] ATTITUDE_TARGET
[23:12:27.220558] [188] VFR_HUD
[23:12:27.224532] [189] SYSTEM_TIME
[23:12:27.882641] [190] VFR_HUD
[23:12:27.992614] [110] RADIO
[23:12:27.995932] [110] RADIO_STATUS
[23:12:28.026696] [191] HEARTBEAT
[23:12:28.697714] [192] VFR_HUD
[23:12:29.027839] [193] HEARTBEAT
[23:12:29.141793] [111] RADIO
[23:12:29.144766] [111] RADIO_STATUS
[23:12:29.188814] [194] ATTITUDE_TARGET
[23:12:29.492838] [195] VFR_HUD
[23:12:30.064866] [112] RADIO
[23:12:30.067862] [112] RADIO_STATUS
[23:12:30.100902] [196] HEARTBEAT
[23:12:30.301902] [197] VFR_HUD
[23:12:31.210928] [113] RADIO
[23:12:31.214056] [113] RADIO_STATUS
[23:12:31.280116] [200] BATTERY_STATUS
[23:12:31.287993] [201] ATTITUDE_TARGET
[23:12:31.293980] [202] VFR_HUD
[23:12:32.026040] [114] RADIO
[23:12:32.028962] [114] RADIO_STATUS
[23:12:32.152014] [203] VFR_HUD
[23:12:32.155058] [204] HEARTBEAT
[23:12:33.050076] [115] RADIO
[23:12:33.053074] [115] RADIO_STATUS
[23:12:33.180178] [206] HEARTBEAT
[23:12:33.188130] [207] ATTITUDE_TARGET
[23:12:33.520364] [208] VFR_HUD
[23:12:34.086239] [209] HEARTBEAT
[23:12:34.117209] [116] RADIO
[23:12:34.120163] [116] RADIO_STATUS
[23:12:34.320210] [210] VFR_HUD
[23:12:35.125825] [117] RADIO
[23:12:35.125952] [117] RADIO_STATUS
[23:12:35.247318] [211] HEARTBEAT
[23:12:35.254340] [212] SYS_STATUS
[23:12:35.374386] [213] BATTERY_STATUS
[23:12:35.486365] [214] ATTITUDE_TARGET
[23:12:35.491353] [215] VFR_HUD
[23:12:35.929457] [216] VFR_HUD
[23:12:36.038413] [118] RADIO
[23:12:36.041358] [118] RADIO_STATUS
[23:12:36.744487] [218] VFR_HUD
[23:12:37.087554] [219] HEARTBEAT
[23:12:37.095546] [220] ATTITUDE_TARGET
[23:12:37.105535] [119] RADIO
[23:12:37.108539] [119] RADIO_STATUS
[23:12:37.538571] [221] VFR_HUD
[23:12:38.107602] [120] RADIO
[23:12:38.110731] [120] RADIO_STATUS
[23:12:38.223637] [222] HEARTBEAT
[23:12:38.246589] [223] VFR_HUD
[23:12:39.046176] [224] HEARTBEAT
[23:12:39.051737] [225] SYS_STATUS
[23:12:39.170830] [226] BATTERY_STATUS
[23:12:39.178783] [227] ATTITUDE_TARGET
[23:12:39.255719] [121] RADIO
[23:12:39.258666] [121] RADIO_STATUS
[23:12:39.836791] [229] VFR_HUD
[23:12:40.062080] [230] HEARTBEAT
[23:12:40.094012] [122] RADIO
[23:12:40.096789] [122] RADIO_STATUS
[23:12:40.645871] [231] VFR_HUD
[23:12:41.095049] [123] RADIO
[23:12:41.097989] [123] RADIO_STATUS
[23:12:41.225788] [232] HEARTBEAT
[23:12:41.233050] [233] ATTITUDE_TARGET
[23:12:42.131171] [235] HEARTBEAT
[23:12:42.165806] [124] RADIO
[23:12:42.165936] [124] RADIO_STATUS
[23:12:42.255077] [236] VFR_HUD
[23:12:43.164196] [125] RADIO
[23:12:43.167494] [125] RADIO_STATUS
[23:12:43.255250] [240] ATTITUDE_TARGET
[23:12:43.260170] [241] VFR_HUD
[23:12:43.869284] [242] VFR_HUD
[23:12:44.083311] [126] RADIO
[23:12:44.086397] [126] RADIO_STATUS
[23:12:44.664326] [244] VFR_HUD
[23:12:45.133416] [245] HEARTBEAT
[23:12:45.141349] [246] ATTITUDE_TARGET
[23:12:45.151522] [127] RADIO
[23:12:45.154318] [127] RADIO_STATUS
[23:12:45.583377] [247] VFR_HUD
[23:12:46.152434] [128] RADIO
[23:12:46.155430] [128] RADIO_STATUS
[23:12:46.273661] [249] VFR_HUD
[23:12:47.072584] [129] RADIO
[23:12:47.075517] [129] RADIO_STATUS
[23:12:47.135581] [250] HEARTBEAT
[23:12:47.142551] [251] SYS_STATUS
[23:12:47.150634] [252] BATTERY_STATUS
[23:12:47.151517] [253] EXTENDED_SYS_STATE
[23:12:47.168805] [254] ATTITUDE_TARGET
[23:12:47.173572] [255] VFR_HUD
[23:12:47.176535] [0] SYSTEM_TIME
[23:12:47.882630] [1] VFR_HUD
[23:12:48.108709] [2] HEARTBEAT
[23:12:48.221636] [130] RADIO
[23:12:48.224662] [130] RADIO_STATUS
[23:12:48.692695] [3] VFR_HUD
[23:12:49.027782] [4] HEARTBEAT
[23:12:49.141781] [131] RADIO
[23:12:49.144892] [131] RADIO_STATUS
[23:12:49.188800] [5] ATTITUDE_TARGET
[23:12:49.492837] [6] VFR_HUD
[23:12:50.181012] [132] RADIO
[23:12:50.183884] [132] RADIO_STATUS
[23:12:50.301920] [8] VFR_HUD
[23:12:51.210048] [133] RADIO
[23:12:51.213014] [133] RADIO_STATUS
[23:12:52.130001] [134] RADIO
[23:12:52.133067] [134] RADIO_STATUS
[23:12:52.174070] [14] VFR_HUD
[23:12:52.177063] [15] HEARTBEAT
[23:12:52.712442] [16] VFR_HUD
[23:12:53.075168] [17] HEARTBEAT
[23:12:53.083106] [18] ATTITUDE_TARGET
[23:12:53.170304] [135] RADIO
[23:12:53.172074] [135] RADIO_STATUS
[23:12:53.531201] [19] VFR_HUD
[23:12:54.085287] [20] HEARTBEAT
[23:12:54.199239] [136] RADIO
[23:12:54.202376] [136] RADIO_STATUS
[23:12:54.238280] [21] VFR_HUD
[23:12:55.119346] [137] RADIO
[23:12:55.122417] [137] RADIO_STATUS
[23:12:55.178368] [22] HEARTBEAT
[23:12:55.185329] [23] SYS_STATUS
[23:12:55.193378] [24] BATTERY_STATUS
[23:12:55.205389] [25] ATTITUDE_TARGET
[23:12:55.210351] [26] VFR_HUD
[23:12:55.929441] [27] VFR_HUD
[23:12:56.044464] [28] HEARTBEAT
[23:12:56.158552] [138] RADIO
[23:12:56.161437] [138] RADIO_STATUS
[23:12:56.744468] [29] VFR_HUD
[23:12:57.088577] [30] HEARTBEAT
[23:12:57.096542] [31] ATTITUDE_TARGET
[23:12:57.106527] [139] RADIO
[23:12:57.109526] [139] RADIO_STATUS
[23:12:57.538558] [32] VFR_HUD
[23:12:58.107645] [140] RADIO
[23:12:58.110712] [140] RADIO_STATUS
[23:12:58.223641] [33] HEARTBEAT
[23:12:58.246621] [34] VFR_HUD
[23:12:59.033709] [35] HEARTBEAT
[23:12:59.053664] [36] SYS_STATUS
[23:12:59.096692] [37] BATTERY_STATUS
[23:12:59.104681] [38] ATTITUDE_TARGET
[23:12:59.109667] [39] VFR_HUD
[23:12:59.258746] [141] RADIO
[23:12:59.261852] [141] RADIO_STATUS
[23:12:59.839707] [40] VFR_HUD
[23:13:00.063789] [41] HEARTBEAT
[23:13:00.177770] [142] RADIO
[23:13:00.180702] [142] RADIO_STATUS
[23:13:00.648770] [42] VFR_HUD
[23:13:01.117847] [43] HEARTBEAT
[23:13:01.125814] [44] ATTITUDE_TARGET
[23:13:01.245806] [143] RADIO
[23:13:01.248780] [143] RADIO_STATUS
[23:13:02.142930] [46] HEARTBEAT
[23:13:02.246908] [144] RADIO
[23:13:02.249823] [144] RADIO_STATUS
[23:13:02.285893] [47] VFR_HUD
[23:13:03.065075] [48] HEARTBEAT
[23:13:03.072092] [49] SYS_STATUS
[23:13:03.167048] [145] RADIO
[23:13:03.170078] [145] RADIO_STATUS
[23:13:03.208066] [50] BATTERY_STATUS
[23:13:03.235083] [51] ATTITUDE_TARGET
[23:13:03.239093] [52] VFR_HUD
[23:13:03.873059] [53] VFR_HUD
[23:13:04.092087] [54] HEARTBEAT
[23:13:04.211078] [146] RADIO
[23:13:04.214060] [146] RADIO_STATUS
[23:13:04.678138] [55] VFR_HUD
[23:13:05.136353] [56] HEARTBEAT
[23:13:05.144165] [57] ATTITUDE_TARGET
[23:13:05.154141] [147] RADIO
[23:13:05.157252] [147] RADIO_STATUS
[23:13:05.482195] [58] VFR_HUD
[23:13:06.156266] [148] RADIO
[23:13:06.158397] [148] RADIO_STATUS
[23:13:06.276330] [60] VFR_HUD
[23:13:07.093658] [61] HEARTBEAT
[23:13:07.100416] [62] SYS_STATUS
[23:13:07.305423] [149] RADIO
[23:13:07.308391] [149] RADIO_STATUS
[23:13:07.897555] [68] VFR_HUD
[23:13:08.112519] [69] HEARTBEAT
[23:13:08.224530] [150] RADIO
[23:13:08.227493] [150] RADIO_STATUS
[23:13:08.694552] [70] VFR_HUD
[23:13:09.163645] [71] HEARTBEAT
[23:13:09.171610] [72] ATTITUDE_TARGET
[23:13:09.291666] [151] RADIO
[23:13:09.294576] [151] RADIO_STATUS
[23:13:10.074845] [74] HEARTBEAT
[23:13:10.293900] [152] RADIO
[23:13:10.295869] [152] RADIO_STATUS
[23:13:10.413833] [75] VFR_HUD
[23:13:11.111011] [76] HEARTBEAT
[23:13:11.117869] [77] SYS_STATUS
[23:13:11.212842] [153] RADIO
[23:13:11.215822] [153] RADIO_STATUS
[23:13:11.253890] [78] BATTERY_STATUS
[23:13:11.280904] [79] ATTITUDE_TARGET
[23:13:11.284818] [80] VFR_HUD
[23:13:12.144017] [82] HEARTBEAT
[23:13:12.257931] [154] RADIO
[23:13:12.260883] [154] RADIO_STATUS
[23:13:12.713122] [83] VFR_HUD
[23:13:13.282028] [155] RADIO
[23:13:13.285017] [155] RADIO_STATUS
[23:13:13.528111] [86] VFR_HUD
[23:13:14.201073] [156] RADIO
[23:13:14.204035] [156] RADIO_STATUS
[23:13:15.143326] [89] HEARTBEAT
[23:13:15.150167] [90] SYS_STATUS
[23:13:15.190154] [91] BATTERY_STATUS
[23:13:15.198253] [92] ATTITUDE_TARGET
[23:13:15.202143] [93] VFR_HUD
[23:13:15.352212] [157] RADIO
[23:13:15.355179] [157] RADIO_STATUS
[23:13:16.063220] [94] VFR_HUD
[23:13:16.066229] [95] HEARTBEAT
[23:13:16.271217] [158] RADIO
[23:13:16.274254] [158] RADIO_STATUS
[23:13:16.747370] [96] VFR_HUD
[23:13:17.215366] [97] HEARTBEAT
[23:13:17.223396] [98] ATTITUDE_TARGET
[23:13:17.311371] [159] RADIO
[23:13:17.313336] [159] RADIO_STATUS
[23:13:18.122497] [100] HEARTBEAT
[23:13:18.230428] [160] RADIO
[23:13:18.233675] [160] RADIO_STATUS
[23:13:18.351501] [101] VFR_HUD
[23:13:19.036566] [102] HEARTBEAT
[23:13:19.056525] [103] SYS_STATUS
[23:13:19.100506] [104] BATTERY_STATUS
[23:13:19.107471] [105] ATTITUDE_TARGET
[23:13:19.112495] [106] VFR_HUD
[23:13:19.260532] [161] RADIO
[23:13:19.263506] [161] RADIO_STATUS
[23:13:20.066767] [108] HEARTBEAT
[23:13:20.299729] [162] RADIO
[23:13:20.302658] [162] RADIO_STATUS
[23:13:20.655781] [109] VFR_HUD
[23:13:21.229500] [110] HEARTBEAT
[23:13:21.236792] [111] ATTITUDE_TARGET
[23:13:21.329810] [163] RADIO
[23:13:21.332698] [163] RADIO_STATUS
[23:13:21.450793] [112] VFR_HUD
[23:13:22.026063] [113] HEARTBEAT
[23:13:22.248825] [164] RADIO
[23:13:22.251858] [164] RADIO_STATUS
[23:13:23.067021] [115] HEARTBEAT
[23:13:23.073937] [116] SYS_STATUS
[23:13:23.188988] [117] BATTERY_STATUS
[23:13:23.398944] [165] RADIO
[23:13:23.401971] [165] RADIO_STATUS
[23:13:23.874073] [120] VFR_HUD
[23:13:24.095047] [121] HEARTBEAT
[23:13:24.318095] [166] RADIO
[23:13:24.321033] [166] RADIO_STATUS
[23:13:24.669102] [122] VFR_HUD
[23:13:25.138157] [123] HEARTBEAT
[23:13:25.146186] [124] ATTITUDE_TARGET
[23:13:25.358152] [167] RADIO
[23:13:25.361105] [167] RADIO_STATUS
[23:13:25.478229] [125] VFR_HUD
[23:13:26.044418] [126] HEARTBEAT
[23:13:26.278331] [127] VFR_HUD
[23:13:26.387286] [168] RADIO
[23:13:26.390316] [168] RADIO_STATUS
[23:13:27.095373] [128] HEARTBEAT
[23:13:27.102362] [129] SYS_STATUS
[23:13:27.223394] [130] BATTERY_STATUS
[23:13:27.225312] [131] EXTENDED_SYS_STATE
[23:13:27.233603] [132] ATTITUDE_TARGET
[23:13:27.237386] [133] VFR_HUD
[23:13:27.241353] [134] SYSTEM_TIME
[23:13:27.269423] [169] RADIO
[23:13:27.272317] [169] RADIO_STATUS
[23:13:28.112484] [136] HEARTBEAT
[23:13:28.346539] [170] RADIO
[23:13:28.349832] [170] RADIO_STATUS
[23:13:28.696533] [137] VFR_HUD
[23:13:29.375604] [171] RADIO
[23:13:29.378578] [171] RADIO_STATUS
[23:13:29.496605] [140] VFR_HUD
[23:13:30.071902] [141] HEARTBEAT
[23:13:30.295743] [172] RADIO
[23:13:30.297699] [172] RADIO_STATUS
[23:13:30.415825] [142] VFR_HUD
[23:13:31.112835] [143] HEARTBEAT
[23:13:31.119796] [144] SYS_STATUS
[23:13:31.234811] [145] BATTERY_STATUS
[23:13:31.444797] [173] RADIO
[23:13:31.447787] [173] RADIO_STATUS
[23:13:31.920927] [148] VFR_HUD
[23:13:32.364942] [174] RADIO
[23:13:32.366917] [174] RADIO_STATUS
[23:13:32.715708] [150] VFR_HUD
[23:13:33.079022] [151] HEARTBEAT
[23:13:33.087066] [152] ATTITUDE_TARGET
[23:13:33.409118] [175] RADIO
[23:13:33.412028] [175] RADIO_STATUS
[23:13:33.530046] [153] VFR_HUD
[23:13:34.090123] [154] HEARTBEAT
[23:13:34.434080] [176] RADIO
[23:13:34.436027] [176] RADIO_STATUS
[23:13:35.147233] [156] HEARTBEAT
[23:13:35.153153] [157] SYS_STATUS
[23:13:35.193213] [158] BATTERY_STATUS
[23:13:35.201828] [159] ATTITUDE_TARGET
[23:13:35.206109] [160] VFR_HUD
[23:13:35.353163] [177] RADIO
[23:13:35.356052] [177] RADIO_STATUS
[23:13:36.168422] [161] VFR_HUD
[23:13:36.171219] [162] HEARTBEAT
[23:13:36.398245] [178] RADIO
[23:13:36.401403] [178] RADIO_STATUS
[23:13:36.743324] [163] VFR_HUD
[23:13:37.317358] [179] RADIO
[23:13:37.320321] [179] RADIO_STATUS
[23:13:37.432393] [166] VFR_HUD
[23:13:38.123455] [167] HEARTBEAT
[23:13:38.341471] [180] RADIO
[23:13:38.344465] [180] RADIO_STATUS
[23:13:39.061587] [170] SYS_STATUS
[23:13:39.101709] [171] BATTERY_STATUS
[23:13:39.108580] [172] ATTITUDE_TARGET
[23:13:39.113621] [173] VFR_HUD
[23:13:39.491609] [181] RADIO
[23:13:39.494768] [181] RADIO_STATUS
[23:13:40.077659] [174] VFR_HUD
[23:13:40.080626] [175] HEARTBEAT
[23:13:40.413793] [182] RADIO
[23:13:40.413938] [182] RADIO_STATUS
[23:13:40.760699] [176] VFR_HUD
[23:13:41.124699] [177] HEARTBEAT
[23:13:41.132731] [178] ATTITUDE_TARGET
[23:13:41.329760] [183] RADIO
[23:13:41.332626] [183] RADIO_STATUS
[23:13:41.450701] [179] VFR_HUD
[23:13:42.025845] [180] HEARTBEAT
[23:13:42.264851] [181] VFR_HUD
[23:13:42.478843] [184] RADIO
[23:13:42.481830] [184] RADIO_STATUS
[23:13:43.066899] [182] HEARTBEAT
[23:13:43.073968] [183] SYS_STATUS
[23:13:43.193979] [184] BATTERY_STATUS
[23:13:43.305937] [185] ATTITUDE_TARGET
[23:13:43.311082] [186] VFR_HUD
[23:13:43.397910] [185] RADIO
[23:13:43.400881] [185] RADIO_STATUS
[23:13:43.867043] [187] VFR_HUD
[23:13:44.436167] [186] RADIO
[23:13:44.439099] [186] RADIO_STATUS
[23:13:44.679217] [189] VFR_HUD
[23:13:45.355187] [187] RADIO
[23:13:45.358178] [187] RADIO_STATUS
[23:13:45.476190] [192] VFR_HUD
[23:13:46.041244] [193] HEARTBEAT
[23:13:46.384273] [188] RADIO
[23:13:46.387393] [188] RADIO_STATUS
[23:13:47.092421] [195] HEARTBEAT
[23:13:47.099434] [196] SYS_STATUS
[23:13:47.221544] [197] BATTERY_STATUS
[23:13:47.223457] [198] EXTENDED_SYS_STATE
[23:13:47.230560] [199] ATTITUDE_TARGET
[23:13:47.235408] [200] VFR_HUD
[23:13:47.239439] [201] SYSTEM_TIME
[23:13:47.534442] [189] RADIO
[23:13:47.537529] [189] RADIO_STATUS
[23:13:47.884501] [202] VFR_HUD
[23:13:48.110752] [203] HEARTBEAT
[23:13:48.453565] [190] RADIO
[23:13:48.456491] [190] RADIO_STATUS
[23:13:49.029690] [205] HEARTBEAT
[23:13:49.052664] [206] ATTITUDE_TARGET
[23:13:49.373786] [191] RADIO
[23:13:49.379785] [191] RADIO_STATUS
[23:13:49.493697] [207] VFR_HUD
[23:13:50.069815] [208] HEARTBEAT
[23:13:50.308837] [209] VFR_HUD
[23:13:50.521795] [192] RADIO
[23:13:50.524747] [192] RADIO_STATUS
[23:13:51.109886] [210] HEARTBEAT
[23:13:51.116873] [211] SYS_STATUS
[23:13:51.230906] [212] BATTERY_STATUS
[23:13:51.348903] [213] ATTITUDE_TARGET
[23:13:51.353827] [214] VFR_HUD
[23:13:51.441891] [193] RADIO
[23:13:51.445053] [193] RADIO_STATUS
[23:13:51.916914] [215] VFR_HUD
[23:13:52.480925] [194] RADIO
[23:13:52.483931] [194] RADIO_STATUS
[23:13:52.711997] [217] VFR_HUD
[23:13:53.069990] [218] HEARTBEAT
[23:13:53.077969] [219] ATTITUDE_TARGET
[23:13:53.400119] [195] RADIO
[23:13:53.403012] [195] RADIO_STATUS
[23:13:53.526100] [220] VFR_HUD
[23:13:54.086143] [221] HEARTBEAT
[23:13:54.429100] [196] RADIO
[23:13:54.432049] [196] RADIO_STATUS
[23:13:55.137265] [223] HEARTBEAT
[23:13:55.144273] [224] SYS_STATUS
[23:13:55.262203] [225] BATTERY_STATUS
[23:13:55.270254] [226] ATTITUDE_TARGET
[23:13:55.301750] [227] VFR_HUD
[23:13:55.579233] [197] RADIO
[23:13:55.582190] [197] RADIO_STATUS
[23:13:55.929274] [228] VFR_HUD
[23:13:56.050305] [229] HEARTBEAT
[23:13:56.393332] [198] RADIO
[23:13:56.396263] [198] RADIO_STATUS
[23:13:56.739378] [230] VFR_HUD
[23:13:57.088400] [231] HEARTBEAT
[23:13:57.096398] [232] ATTITUDE_TARGET
[23:13:57.418448] [199] RADIO
[23:13:57.421375] [199] RADIO_STATUS
[23:13:57.456408] [233] VFR_HUD
[23:13:58.119510] [234] HEARTBEAT
[23:13:58.348591] [235] VFR_HUD
[23:13:58.462523] [200] RADIO
[23:13:58.465472] [200] RADIO_STATUS
[23:13:59.487676] [201] RADIO
[23:13:59.490617] [201] RADIO_STATUS
[23:13:59.556719] [238] BATTERY_STATUS
[23:13:59.563679] [239] ATTITUDE_TARGET
[23:13:59.568652] [240] VFR_HUD
[23:13:59.839749] [241] VFR_HUD
[23:14:00.535583] [202] RADIO
[23:14:00.536689] [202] RADIO_STATUS
[23:14:00.654783] [243] VFR_HUD
[23:14:01.122848] [244] HEARTBEAT
[23:14:01.130840] [245] ATTITUDE_TARGET
[23:14:01.447904] [246] VFR_HUD
[23:14:01.480848] [203] RADIO
[23:14:01.483813] [203] RADIO_STATUS
[23:14:02.133949] [247] HEARTBEAT
[23:14:02.257943] [248] VFR_HUD
[23:14:02.476960] [204] RADIO
[23:14:02.479920] [204] RADIO_STATUS
[23:14:03.065128] [249] HEARTBEAT
[23:14:03.072083] [250] SYS_STATUS
[23:14:03.191065] [251] BATTERY_STATUS
[23:14:03.304064] [252] ATTITUDE_TARGET
[23:14:03.309047] [253] VFR_HUD
[23:14:03.626100] [205] RADIO
[23:14:03.629210] [205] RADIO_STATUS
[23:14:03.867079] [254] VFR_HUD
[23:14:04.098133] [255] HEARTBEAT
[23:14:04.441193] [206] RADIO
[23:14:04.444148] [206] RADIO_STATUS
[23:14:05.136257] [1] HEARTBEAT
[23:14:05.144216] [2] ATTITUDE_TARGET
[23:14:05.466319] [207] RADIO
[23:14:05.469210] [207] RADIO_STATUS
[23:14:05.586283] [3] VFR_HUD
[23:14:06.042330] [4] HEARTBEAT
[23:14:06.276292] [5] VFR_HUD
[23:14:06.615347] [208] RADIO
[23:14:06.618348] [208] RADIO_STATUS
[23:14:07.221504] [8] BATTERY_STATUS
[23:14:07.223342] [9] EXTENDED_SYS_STATE
[23:14:07.231419] [10] ATTITUDE_TARGET
[23:14:07.236580] [11] VFR_HUD
[23:14:07.239388] [12] SYSTEM_TIME
[23:14:07.535425] [209] RADIO
[23:14:07.538508] [209] RADIO_STATUS
[23:14:07.885768] [13] VFR_HUD
[23:14:08.454530] [210] RADIO
[23:14:08.457534] [210] RADIO_STATUS
[23:14:08.700758] [15] VFR_HUD
[23:14:09.030692] [16] HEARTBEAT
[23:14:09.052632] [17] ATTITUDE_TARGET
[23:14:09.494624] [18] VFR_HUD
[23:14:09.521618] [211] RADIO
[23:14:09.524574] [211] RADIO_STATUS
[23:14:10.069768] [19] HEARTBEAT
[23:14:10.309809] [20] VFR_HUD
[23:14:10.523721] [212] RADIO
[23:14:10.526711] [212] RADIO_STATUS
[23:14:11.111775] [21] HEARTBEAT
[23:14:11.118812] [22] SYS_STATUS
[23:14:11.237740] [23] BATTERY_STATUS
[23:14:11.349782] [24] ATTITUDE_TARGET
[23:14:11.354748] [25] VFR_HUD
[23:14:11.672850] [213] RADIO
[23:14:11.675753] [213] RADIO_STATUS
[23:14:11.918863] [26] VFR_HUD
[23:14:12.029965] [27] HEARTBEAT
[23:14:12.482253] [214] RADIO
[23:14:12.484869] [214] RADIO_STATUS
[23:14:13.072046] [29] HEARTBEAT
[23:14:13.079970] [30] ATTITUDE_TARGET
[23:14:13.512117] [215] RADIO
[23:14:13.514979] [215] RADIO_STATUS
[23:14:13.632001] [31] VFR_HUD
[23:14:14.088092] [32] HEARTBEAT
[23:14:14.322075] [33] VFR_HUD
[23:14:14.661123] [216] RADIO
[23:14:14.664056] [216] RADIO_STATUS
[23:14:15.264196] [36] BATTERY_STATUS
[23:14:15.272214] [37] ATTITUDE_TARGET
[23:14:15.302173] [38] VFR_HUD
[23:14:15.581282] [217] RADIO
[23:14:15.584162] [217] RADIO_STATUS
[23:14:15.931305] [39] VFR_HUD
[23:14:16.047269] [40] HEARTBEAT
[23:14:16.500264] [218] RADIO
[23:14:16.503287] [218] RADIO_STATUS
[23:14:16.741332] [41] VFR_HUD
[23:14:17.090365] [42] HEARTBEAT
[23:14:17.098363] [43] ATTITUDE_TARGET
[23:14:17.540396] [44] VFR_HUD
[23:14:17.567379] [219] RADIO
[23:14:17.570372] [219] RADIO_STATUS
[23:14:18.116464] [45] HEARTBEAT
[23:14:18.230472] [46] VFR_HUD
[23:14:18.569501] [220] RADIO
[23:14:18.572464] [220] RADIO_STATUS
[23:14:19.053630] [47] HEARTBEAT
[23:14:19.059532] [48] SYS_STATUS
[23:14:19.099544] [49] BATTERY_STATUS
[23:14:19.107529] [50] ATTITUDE_TARGET
[23:14:19.111499] [51] VFR_HUD
[23:14:19.720628] [221] RADIO
[23:14:19.723575] [221] RADIO_STATUS
[23:14:20.076667] [52] VFR_HUD
[23:14:20.079657] [53] HEARTBEAT
[23:14:20.531003] [222] RADIO
[23:14:20.533768] [222] RADIO_STATUS
[23:14:20.650710] [54] VFR_HUD
[23:14:21.124833] [55] HEARTBEAT
[23:14:21.132798] [56] ATTITUDE_TARGET
[23:14:21.450804] [57] VFR_HUD
[23:14:21.559827] [223] RADIO
[23:14:21.562778] [223] RADIO_STATUS
[23:14:22.039953] [58] HEARTBEAT
[23:14:22.259908] [59] VFR_HUD
[23:14:22.598904] [224] RADIO
[23:14:22.601835] [224] RADIO_STATUS
[23:14:23.305990] [63] ATTITUDE_TARGET
[23:14:23.310930] [64] VFR_HUD
[23:14:23.524106] [225] RADIO
[23:14:23.527106] [225] RADIO_STATUS
[23:14:23.869050] [65] VFR_HUD
[23:14:24.099123] [66] HEARTBEAT
[23:14:24.548068] [226] RADIO
[23:14:24.551046] [226] RADIO_STATUS
[23:14:24.668106] [67] VFR_HUD
[23:14:25.137270] [68] HEARTBEAT
[23:14:25.145241] [69] ATTITUDE_TARGET
[23:14:25.592241] [227] RADIO
[23:14:25.595203] [227] RADIO_STATUS
[23:14:26.053362] [71] HEARTBEAT
[23:14:26.277271] [72] VFR_HUD
[23:14:26.616398] [228] RADIO
[23:14:26.619343] [228] RADIO_STATUS
[23:14:27.100469] [73] HEARTBEAT
[23:14:27.106409] [74] SYS_STATUS
[23:14:27.141392] [75] BATTERY_STATUS
[23:14:27.142326] [76] EXTENDED_SYS_STATE
[23:14:27.150401] [77] ATTITUDE_TARGET
[23:14:27.155385] [78] VFR_HUD
[23:14:27.159374] [79] SYSTEM_TIME
[23:14:27.766423] [229] RADIO
[23:14:27.769422] [229] RADIO_STATUS
[23:14:27.887477] [80] VFR_HUD
[23:14:28.112652] [81] HEARTBEAT
[23:14:28.581522] [230] RADIO
[23:14:28.585857] [230] RADIO_STATUS
[23:14:28.701499] [82] VFR_HUD
[23:14:29.032546] [83] HEARTBEAT
[23:14:29.054590] [84] ATTITUDE_TARGET
[23:14:29.496620] [85] VFR_HUD
[23:14:29.604606] [231] RADIO
[23:14:29.607599] [231] RADIO_STATUS
[23:14:30.310799] [87] VFR_HUD
[23:14:30.650047] [232] RADIO
[23:14:30.652713] [232] RADIO_STATUS
[23:14:31.351787] [91] ATTITUDE_TARGET
[23:14:31.355719] [92] VFR_HUD
[23:14:31.568749] [233] RADIO
[23:14:31.571686] [233] RADIO_STATUS
[23:14:31.914823] [93] VFR_HUD
[23:14:32.139833] [94] HEARTBEAT
[23:14:32.593905] [234] RADIO
[23:14:32.596830] [234] RADIO_STATUS
[23:14:32.714861] [95] VFR_HUD
[23:14:33.072961] [96] HEARTBEAT
[23:14:33.080891] [97] ATTITUDE_TARGET
[23:14:33.638015] [235] RADIO
[23:14:33.641118] [235] RADIO_STATUS
[23:14:34.099070] [99] HEARTBEAT
[23:14:34.324077] [100] VFR_HUD
[23:14:34.663064] [236] RADIO
[23:14:34.666116] [236] RADIO_STATUS
[23:14:35.141089] [101] HEARTBEAT
[23:14:35.147053] [102] SYS_STATUS
[23:14:35.266100] [103] BATTERY_STATUS
[23:14:35.274068] [104] ATTITUDE_TARGET
[23:14:35.813057] [237] RADIO
[23:14:35.815078] [237] RADIO_STATUS
[23:14:35.862168] [106] VFR_HUD
[23:14:36.048213] [107] HEARTBEAT
[23:14:36.622246] [238] RADIO
[23:14:36.625220] [238] RADIO_STATUS
[23:14:36.743241] [108] VFR_HUD
[23:14:37.092299] [109] HEARTBEAT
[23:14:37.099368] [110] ATTITUDE_TARGET
[23:14:37.437786] [111] VFR_HUD
[23:14:37.651278] [239] RADIO
[23:14:37.654202] [239] RADIO_STATUS
[23:14:38.231389] [113] VFR_HUD
[23:14:38.695438] [240] RADIO
[23:14:38.698362] [240] RADIO_STATUS
[23:14:39.049543] [114] HEARTBEAT
[23:14:39.055636] [115] SYS_STATUS
[23:14:39.720638] [241] RADIO
[23:14:39.723618] [241] RADIO_STATUS
[23:14:40.066587] [120] HEARTBEAT
[23:14:40.639744] [242] RADIO
[23:14:40.642642] [242] RADIO_STATUS
[23:14:40.760678] [121] VFR_HUD
[23:14:41.119759] [122] HEARTBEAT
[23:14:41.127838] [123] ATTITUDE_TARGET
[23:14:41.679744] [243] RADIO
[23:14:41.682702] [243] RADIO_STATUS
[23:14:42.033310] [125] HEARTBEAT
[23:14:42.259775] [126] VFR_HUD
[23:14:42.709046] [244] RADIO
