[23:43:57.959338] [91] HEARTBEAT
[23:43:58.193356] [92] VFR_HUD
[23:43:58.220346] [35] RADIO
[23:43:58.223393] [35] RADIO_STATUS
[23:43:59.010590] [93] HEARTBEAT
[23:43:59.017513] [94] SYS_STATUS
[23:43:59.136421] [95] BATTERY_STATUS
[23:43:59.143491] [96] ATTITUDE_TARGET
[23:43:59.174454] [97] VFR_HUD
[23:43:59.196554] [36] RADIO
[23:43:59.199437] [36] RADIO_STATUS
[23:43:59.803508] [98] VFR_HUD
[23:44:00.028781] [99] HEARTBEAT
[23:44:00.142547] [37] RADIO
[23:44:00.145598] [37] RADIO_STATUS
[23:44:00.613076] [100] VFR_HUD
[23:44:00.948629] [101] HEARTBEAT
[23:44:00.970768] [102] ATTITUDE_TARGET
[23:44:01.182634] [38] RADIO
[23:44:01.185639] [38] RADIO_STATUS
[23:44:01.412849] [103] VFR_HUD
[23:44:01.988761] [104] HEARTBEAT
[23:44:02.211925] [39] RADIO
[23:44:02.214780] [39] RADIO_STATUS
[23:44:02.250799] [105] VFR_HUD
[23:44:03.029870] [106] HEARTBEAT
[23:44:03.036823] [107] SYS_STATUS
[23:44:03.151866] [108] BATTERY_STATUS
[23:44:03.269137] [109] ATTITUDE_TARGET
[23:44:03.274057] [110] VFR_HUD
[23:44:03.279955] [40] RADIO
[23:44:03.282826] [40] RADIO_STATUS
[23:44:03.836970] [111] VFR_HUD
[23:44:03.948950] [112] HEARTBEAT
[23:44:04.172057] [41] RADIO
[23:44:04.173969] [41] RADIO_STATUS
[23:44:04.632045] [113] VFR_HUD
[23:44:04.996152] [114] HEARTBEAT
[23:44:05.004148] [115] ATTITUDE_TARGET
[23:44:05.201173] [42] RADIO
[23:44:05.204021] [42] RADIO_STATUS
[23:44:05.447103] [116] VFR_HUD
[23:44:06.007181] [117] HEARTBEAT
[23:44:06.242158] [118] VFR_HUD
[23:44:06.269168] [43] RADIO
[23:44:06.272095] [43] RADIO_STATUS
[23:44:07.059240] [119] HEARTBEAT
[23:44:07.066219] [120] SYS_STATUS
[23:44:07.187254] [121] BATTERY_STATUS
[23:44:07.189244] [122] EXTENDED_SYS_STATE
[23:44:07.197341] [123] ATTITUDE_TARGET
[23:44:07.202308] [124] VFR_HUD
[23:44:07.205204] [125] SYSTEM_TIME
[23:44:07.233355] [44] RADIO
[23:44:07.236169] [44] RADIO_STATUS
[23:44:07.851359] [126] VFR_HUD
[23:44:07.972341] [127] HEARTBEAT
[23:44:08.190396] [45] RADIO
[23:44:08.193305] [45] RADIO_STATUS
[23:44:08.661420] [128] VFR_HUD
[23:44:09.010565] [129] HEARTBEAT
[23:44:09.018498] [130] ATTITUDE_TARGET
[23:44:09.235466] [46] RADIO
[23:44:09.238418] [46] RADIO_STATUS
[23:44:09.351451] [131] VFR_HUD
[23:44:10.041638] [132] HEARTBEAT
[23:44:10.151640] [133] VFR_HUD
[23:44:10.260603] [47] RADIO
[23:44:10.263608] [47] RADIO_STATUS
[23:44:10.973778] [134] HEARTBEAT
[23:44:10.980647] [135] SYS_STATUS
[23:44:11.020624] [136] BATTERY_STATUS
[23:44:11.027700] [137] ATTITUDE_TARGET
[23:44:11.032620] [138] VFR_HUD
[23:44:11.305678] [48] RADIO
[23:44:11.308578] [48] RADIO_STATUS
[23:44:11.996781] [139] VFR_HUD
[23:44:11.999769] [140] HEARTBEAT
[23:44:12.226015] [49] RADIO
[23:44:12.229093] [49] RADIO_STATUS
[23:44:12.575844] [141] VFR_HUD
[23:44:13.044786] [142] HEARTBEAT
[23:44:13.052736] [143] ATTITUDE_TARGET
[23:44:13.249903] [50] RADIO
[23:44:13.252688] [50] RADIO_STATUS
[23:44:13.370881] [144] VFR_HUD
[23:44:13.945984] [145] HEARTBEAT
[23:44:14.185922] [146] VFR_HUD
[23:44:14.306845] [51] RADIO
[23:44:14.309861] [51] RADIO_STATUS
[23:44:14.987961] [147] HEARTBEAT
[23:44:14.995083] [148] SYS_STATUS
[23:44:15.114915] [149] BATTERY_STATUS
[23:44:15.226981] [150] ATTITUDE_TARGET
[23:44:15.231933] [151] VFR_HUD
[23:44:15.265896] [52] RADIO
[23:44:15.268869] [52] RADIO_STATUS
[23:44:15.802001] [152] VFR_HUD
[23:44:16.020049] [153] HEARTBEAT
[23:44:16.239041] [53] RADIO
[23:44:16.241991] [53] RADIO_STATUS
[23:44:16.589079] [154] VFR_HUD
[23:44:17.183097] [155] HEARTBEAT
[23:44:17.190078] [156] ATTITUDE_TARGET
[23:44:17.283106] [54] RADIO
[23:44:17.286050] [54] RADIO_STATUS
[23:44:17.399143] [157] VFR_HUD
[23:44:17.964223] [158] HEARTBEAT
[23:44:18.308229] [55] RADIO
[23:44:18.311218] [55] RADIO_STATUS
[23:44:19.016899] [160] HEARTBEAT
[23:44:19.022284] [161] SYS_STATUS
[23:44:19.141261] [162] BATTERY_STATUS
[23:44:19.149250] [163] ATTITUDE_TARGET
[23:44:19.179496] [164] VFR_HUD
[23:44:19.227486] [56] RADIO
[23:44:19.230280] [56] RADIO_STATUS
[23:44:19.808350] [165] VFR_HUD
[23:44:20.033445] [166] HEARTBEAT
[23:44:20.270788] [57] RADIO
[23:44:20.270942] [57] RADIO_STATUS
[23:44:20.622427] [167] VFR_HUD
[23:44:20.953464] [168] HEARTBEAT
[23:44:20.975439] [169] ATTITUDE_TARGET
[23:44:21.296511] [58] RADIO
[23:44:21.299505] [58] RADIO_STATUS
[23:44:21.417526] [170] VFR_HUD
[23:44:21.992636] [171] HEARTBEAT
[23:44:22.232651] [172] VFR_HUD
[23:44:22.347642] [59] RADIO
[23:44:22.350546] [59] RADIO_STATUS
[23:44:23.033826] [173] HEARTBEAT
[23:44:23.040751] [174] SYS_STATUS
[23:44:23.155767] [175] BATTERY_STATUS
[23:44:23.273797] [176] ATTITUDE_TARGET
[23:44:23.277733] [177] VFR_HUD
[23:44:23.283840] [60] RADIO
[23:44:23.286894] [60] RADIO_STATUS
[23:44:24.285931] [61] RADIO
[23:44:24.288823] [61] RADIO_STATUS
[23:44:24.636892] [180] VFR_HUD
[23:44:25.324940] [62] RADIO
[23:44:25.327957] [62] RADIO_STATUS
[23:44:25.446030] [183] VFR_HUD
[23:44:26.012884] [184] HEARTBEAT
[23:44:26.355075] [63] RADIO
[23:44:26.358091] [63] RADIO_STATUS
[23:44:27.063199] [186] HEARTBEAT
[23:44:27.070121] [187] SYS_STATUS
[23:44:27.192144] [188] BATTERY_STATUS
[23:44:27.193078] [189] EXTENDED_SYS_STATE
[23:44:27.201145] [190] ATTITUDE_TARGET
[23:44:27.206157] [191] VFR_HUD
[23:44:27.210122] [192] SYSTEM_TIME
[23:44:27.275133] [64] RADIO
[23:44:27.278147] [64] RADIO_STATUS
[23:44:27.816659] JAMMING_START
[23:44:27.856218] [193] VFR_HUD
[23:44:27.976270] [194] HEARTBEAT
[23:44:28.315298] [65] RADIO
[23:44:28.318206] [65] RADIO_STATUS
[23:44:28.666288] [195] VFR_HUD
[23:44:29.015371] [196] HEARTBEAT
[23:44:29.023348] [197] ATTITUDE_TARGET
[23:44:29.345348] [66] RADIO
[23:44:29.348358] [66] RADIO_STATUS
[23:44:29.395420] [198] VFR_HUD
[23:44:30.041443] [199] HEARTBEAT
[23:44:30.156390] [200] VFR_HUD
[23:44:30.385433] [67] RADIO
[23:44:30.388400] [67] RADIO_STATUS
[23:44:30.978561] [201] HEARTBEAT
[23:44:30.985519] [202] SYS_STATUS
[23:44:31.024574] [203] BATTERY_STATUS
[23:44:31.032546] [204] ATTITUDE_TARGET
[23:44:31.037507] [205] VFR_HUD
[23:44:31.305555] [68] RADIO
[23:44:31.308523] [68] RADIO_STATUS
[23:44:32.121597] [206] VFR_HUD
[23:44:32.123586] [207] HEARTBEAT
[23:44:32.335658] [69] RADIO
[23:44:32.337626] [69] RADIO_STATUS
[23:44:32.575753] [208] VFR_HUD
[23:44:33.375750] [211] VFR_HUD
[23:44:33.402975] [70] RADIO
[23:44:33.405823] [70] RADIO_STATUS
[23:44:33.956762] [212] HEARTBEAT
[23:44:34.404839] [71] RADIO
[23:44:34.407888] [71] RADIO_STATUS
[23:44:34.993022] [214] HEARTBEAT
[23:44:34.999937] [215] SYS_STATUS
[23:44:35.119889] [216] BATTERY_STATUS
[23:44:35.231958] [217] ATTITUDE_TARGET
[23:44:35.236874] [218] VFR_HUD
[23:44:35.324923] [72] RADIO
[23:44:35.327916] [72] RADIO_STATUS
[23:44:35.795987] [219] VFR_HUD
[23:44:36.027013] [220] HEARTBEAT
[23:44:36.370033] [73] RADIO
[23:44:36.372992] [73] RADIO_STATUS
[23:44:36.941229] [222] HEARTBEAT
[23:44:36.964182] [223] ATTITUDE_TARGET
[23:44:37.395172] [74] RADIO
[23:44:37.398115] [74] RADIO_STATUS
[23:44:37.516262] [224] VFR_HUD
[23:44:37.971186] [225] HEARTBEAT
[23:44:38.205309] [226] VFR_HUD
[23:44:38.435365] [75] RADIO
[23:44:38.438171] [75] RADIO_STATUS
[23:44:39.028473] [227] HEARTBEAT
[23:44:39.035303] [228] SYS_STATUS
[23:44:39.074384] [229] BATTERY_STATUS
[23:44:39.082399] [230] ATTITUDE_TARGET
[23:44:39.087338] [231] VFR_HUD
[23:44:39.360379] [76] RADIO
[23:44:39.363324] [76] RADIO_STATUS
[23:44:40.175389] [232] VFR_HUD
[23:44:40.178417] [233] HEARTBEAT
[23:44:40.384421] [77] RADIO
[23:44:40.387421] [77] RADIO_STATUS
[23:44:40.630427] [234] VFR_HUD
[23:44:40.974490] [235] HEARTBEAT
[23:44:40.981445] [236] ATTITUDE_TARGET
[23:44:41.424529] [237] VFR_HUD
[23:44:41.457648] [78] RADIO
[23:44:41.460504] [78] RADIO_STATUS
[23:44:42.000557] [238] HEARTBEAT
[23:44:42.454577] [79] RADIO
[23:44:42.457553] [79] RADIO_STATUS
[23:44:43.042690] [240] HEARTBEAT
[23:44:43.048705] [241] SYS_STATUS
[23:44:43.168780] [242] BATTERY_STATUS
[23:44:43.280664] [243] ATTITUDE_TARGET
[23:44:43.285605] [244] VFR_HUD
[23:44:43.373622] [80] RADIO
[23:44:43.376578] [80] RADIO_STATUS
[23:44:43.843701] [245] VFR_HUD
[23:44:43.949726] [246] HEARTBEAT
[23:44:44.418725] [81] RADIO
[23:44:44.421734] [81] RADIO_STATUS
[23:44:45.002820] [248] HEARTBEAT
[23:44:45.010875] [249] ATTITUDE_TARGET
[23:44:45.442825] [82] RADIO
[23:44:45.445864] [82] RADIO_STATUS
[23:44:45.563846] [250] VFR_HUD
[23:44:46.019903] [251] HEARTBEAT
[23:44:46.253860] [252] VFR_HUD
[23:44:46.362907] [83] RADIO
[23:44:46.365853] [83] RADIO_STATUS
[23:44:47.408057] [84] RADIO
[23:44:47.410994] [84] RADIO_STATUS
[23:44:47.759079] [4] VFR_HUD
[23:44:48.433120] [85] RADIO
[23:44:48.436043] [85] RADIO_STATUS
[23:44:48.553135] [6] VFR_HUD
[23:44:49.023252] [7] HEARTBEAT
[23:44:49.030146] [8] ATTITUDE_TARGET
[23:44:49.369204] [9] VFR_HUD
[23:44:49.489220] [86] RADIO
[23:44:49.492207] [86] RADIO_STATUS
[23:44:50.048276] [10] HEARTBEAT
[23:44:50.163382] [11] VFR_HUD
[23:44:50.502340] [87] RADIO
[23:44:50.505280] [87] RADIO_STATUS
[23:44:50.985400] [12] HEARTBEAT
[23:44:50.992487] [13] SYS_STATUS
[23:44:51.032358] [14] BATTERY_STATUS
[23:44:51.040387] [15] ATTITUDE_TARGET
[23:44:51.044410] [16] VFR_HUD
[23:44:51.422412] [88] RADIO
[23:44:51.425855] [88] RADIO_STATUS
[23:44:51.773608] [17] VFR_HUD
[23:44:51.998476] [18] HEARTBEAT
[23:44:52.462441] [89] RADIO
[23:44:52.465428] [89] RADIO_STATUS
[23:44:53.052554] [20] HEARTBEAT
[23:44:53.059482] [21] ATTITUDE_TARGET
[23:44:53.383485] [22] VFR_HUD
[23:44:53.409495] [90] RADIO
[23:44:53.412440] [90] RADIO_STATUS
[23:44:53.963609] [23] HEARTBEAT
[23:44:54.192560] [24] VFR_HUD
[23:44:54.411603] [91] RADIO
[23:44:54.414562] [91] RADIO_STATUS
[23:44:55.121806] [27] BATTERY_STATUS
[23:44:55.238776] [28] ATTITUDE_TARGET
[23:44:55.243722] [29] VFR_HUD
[23:44:55.451749] [92] RADIO
[23:44:55.454761] [92] RADIO_STATUS
[23:44:55.802803] [30] VFR_HUD
[23:44:56.481844] [93] RADIO
[23:44:56.484772] [93] RADIO_STATUS
[23:44:56.602849] [32] VFR_HUD
[23:44:56.966977] [33] HEARTBEAT
[23:44:56.974961] [34] ATTITUDE_TARGET
[23:44:57.417953] [35] VFR_HUD
[23:44:57.532956] [94] RADIO
[23:44:57.535924] [94] RADIO_STATUS
[23:44:57.977991] [36] HEARTBEAT
[23:44:58.212226] [37] VFR_HUD
[23:44:58.551977] [95] RADIO
[23:44:58.555069] [95] RADIO_STATUS
[23:44:59.035054] [38] HEARTBEAT
[23:44:59.042052] [39] SYS_STATUS
[23:44:59.081000] [40] BATTERY_STATUS
[23:44:59.089030] [41] ATTITUDE_TARGET
[23:44:59.094013] [42] VFR_HUD
[23:44:59.471043] [96] RADIO
[23:44:59.474045] [96] RADIO_STATUS
[23:44:59.822092] [43] VFR_HUD
[23:45:00.048120] [44] HEARTBEAT
[23:45:00.512743] [97] RADIO
[23:45:00.514065] [97] RADIO_STATUS
[23:45:00.982226] [46] HEARTBEAT
[23:45:00.989181] [47] ATTITUDE_TARGET
[23:45:01.432253] [48] VFR_HUD
[23:45:01.464211] [98] RADIO
[23:45:01.467199] [98] RADIO_STATUS
[23:45:02.012538] [49] HEARTBEAT
[23:45:02.242384] [50] VFR_HUD
[23:45:02.461383] [99] RADIO
[23:45:02.464349] [99] RADIO_STATUS
[23:45:03.176469] [53] BATTERY_STATUS
[23:45:03.289878] [54] ATTITUDE_TARGET
[23:45:03.293419] [55] VFR_HUD
[23:45:03.501458] [100] RADIO
[23:45:03.504856] [100] RADIO_STATUS
[23:45:03.851524] [56] VFR_HUD
[23:45:03.957545] [57] HEARTBEAT
[23:45:04.530550] [101] RADIO
[23:45:04.533506] [101] RADIO_STATUS
[23:45:04.572950] [58] VFR_HUD
[23:45:05.010705] [59] HEARTBEAT
[23:45:05.018681] [60] ATTITUDE_TARGET
[23:45:05.461654] [61] VFR_HUD
[23:45:05.570709] [102] RADIO
[23:45:05.573636] [102] RADIO_STATUS
[23:45:06.029790] [62] HEARTBEAT
[23:45:06.156775] [63] VFR_HUD
[23:45:06.600729] [103] RADIO
[23:45:06.603722] [103] RADIO_STATUS
[23:45:06.958823] [64] HEARTBEAT
[23:45:06.965747] [65] SYS_STATUS
[23:45:07.083983] [66] BATTERY_STATUS
[23:45:07.084796] [67] EXTENDED_SYS_STATE
[23:45:07.204822] [68] ATTITUDE_TARGET
[23:45:07.209787] [69] VFR_HUD
[23:45:07.212846] [70] SYSTEM_TIME
[23:45:07.520888] [104] RADIO
[23:45:07.523822] [104] RADIO_STATUS
[23:45:07.766853] [71] VFR_HUD
[23:45:07.986873] [72] HEARTBEAT
[23:45:08.561937] [73] VFR_HUD
[23:45:08.593984] [105] RADIO
[23:45:08.596911] [105] RADIO_STATUS
[23:45:09.030966] [74] HEARTBEAT
[23:45:09.038967] [75] ATTITUDE_TARGET
[23:45:09.377005] [76] VFR_HUD
[23:45:09.497164] [106] RADIO
[23:45:09.499974] [106] RADIO_STATUS
[23:45:10.171166] [78] VFR_HUD
[23:45:10.511057] [107] RADIO
[23:45:10.514057] [107] RADIO_STATUS
[23:45:11.555161] [108] RADIO
[23:45:11.558172] [108] RADIO_STATUS
[23:45:11.781241] [84] VFR_HUD
[23:45:12.006210] [85] HEARTBEAT
[23:45:12.580253] [109] RADIO
[23:45:12.583317] [109] RADIO_STATUS
[23:45:12.700277] [86] VFR_HUD
[23:45:13.060303] [87] HEARTBEAT
[23:45:13.067284] [88] ATTITUDE_TARGET
[23:45:13.500370] [110] RADIO
[23:45:13.503265] [110] RADIO_STATUS
[23:45:13.971408] [90] HEARTBEAT
[23:45:14.200371] [91] VFR_HUD
[23:45:14.650390] [111] RADIO
[23:45:14.653371] [111] RADIO_STATUS
[23:45:15.008494] [92] HEARTBEAT
[23:45:15.015447] [93] SYS_STATUS
[23:45:15.129501] [94] BATTERY_STATUS
[23:45:15.247432] [95] ATTITUDE_TARGET
[23:45:15.252381] [96] VFR_HUD
[23:45:15.569441] [112] RADIO
[23:45:15.572422] [112] RADIO_STATUS
[23:45:15.810711] [97] VFR_HUD
[23:45:16.041571] [98] HEARTBEAT
[23:45:16.494764] [113] RADIO
[23:45:16.497585] [113] RADIO_STATUS
[23:45:16.610651] [99] VFR_HUD
[23:45:16.974630] [100] HEARTBEAT
[23:45:16.982573] [101] ATTITUDE_TARGET
[23:45:17.425681] [102] VFR_HUD
[23:45:17.540644] [114] RADIO
[23:45:17.543671] [114] RADIO_STATUS
[23:45:18.219968] [104] VFR_HUD
[23:45:18.559769] [115] RADIO
[23:45:18.562742] [115] RADIO_STATUS
[23:45:19.599888] [116] RADIO
[23:45:19.601897] [116] RADIO_STATUS
[23:45:19.961039] [110] VFR_HUD
[23:45:19.963965] [111] HEARTBEAT
[23:45:20.519029] [117] RADIO
[23:45:20.522047] [117] RADIO_STATUS
[23:45:20.645025] [112] VFR_HUD
[23:45:20.989088] [113] HEARTBEAT
[23:45:20.997052] [114] ATTITUDE_TARGET
[23:45:21.549089] [118] RADIO
[23:45:21.552080] [118] RADIO_STATUS
[23:45:22.020223] [116] HEARTBEAT
[23:45:22.249264] [117] VFR_HUD
[23:45:22.699294] [119] RADIO
[23:45:22.702190] [119] RADIO_STATUS
[23:45:23.057897] [118] HEARTBEAT
[23:45:23.064305] [119] SYS_STATUS
[23:45:23.184313] [120] BATTERY_STATUS
[23:45:23.296320] [121] ATTITUDE_TARGET
[23:45:23.301250] [122] VFR_HUD
[23:45:23.619363] [120] RADIO
[23:45:23.622300] [120] RADIO_STATUS
[23:45:23.859376] [123] VFR_HUD
[23:45:23.964420] [124] HEARTBEAT
[23:45:24.543422] [121] RADIO
[23:45:24.546399] [121] RADIO_STATUS
[23:45:24.576471] [125] VFR_HUD
[23:45:25.018571] [126] HEARTBEAT
[23:45:25.026590] [127] ATTITUDE_TARGET
[23:45:25.349463] [128] VFR_HUD
[23:45:25.578520] [122] RADIO
[23:45:25.581462] [122] RADIO_STATUS
[23:45:26.164540] [130] VFR_HUD
[23:45:26.608646] [123] RADIO
[23:45:26.611586] [123] RADIO_STATUS
[23:45:26.966595] [131] HEARTBEAT
[23:45:26.973568] [132] SYS_STATUS
[23:45:27.648653] [124] RADIO
[23:45:27.651659] [124] RADIO_STATUS
[23:45:27.774740] [138] VFR_HUD
[23:45:27.994709] [139] HEARTBEAT
[23:45:28.568752] [140] VFR_HUD
[23:45:28.595771] [125] RADIO
[23:45:28.599237] [125] RADIO_STATUS
[23:45:29.038923] [141] HEARTBEAT
[23:45:29.046899] [142] ATTITUDE_TARGET
[23:45:29.597814] [126] RADIO
[23:45:29.600779] [126] RADIO_STATUS
[23:45:29.944885] [144] HEARTBEAT
[23:45:30.179065] [145] VFR_HUD
[23:45:30.747942] [127] RADIO
[23:45:30.750847] [127] RADIO_STATUS
[23:45:30.995959] [146] HEARTBEAT
[23:45:31.002907] [147] SYS_STATUS
[23:45:31.122068] [148] BATTERY_STATUS
[23:45:31.128925] [149] ATTITUDE_TARGET
[23:45:31.159974] [150] VFR_HUD
[23:45:31.563018] [128] RADIO
[23:45:31.566015] [128] RADIO_STATUS
[23:45:32.014168] [152] HEARTBEAT
[23:45:32.588064] [129] RADIO
[23:45:32.590029] [129] RADIO_STATUS
[23:45:32.709470] [153] VFR_HUD
[23:45:33.067258] [154] HEARTBEAT
[23:45:33.075133] [155] ATTITUDE_TARGET
[23:45:33.398146] [156] VFR_HUD
[23:45:33.633229] [130] RADIO
[23:45:33.635127] [130] RADIO_STATUS
[23:45:34.208261] [158] VFR_HUD
[23:45:34.657403] [131] RADIO
[23:45:34.660250] [131] RADIO_STATUS
[23:45:35.015440] [159] HEARTBEAT
[23:45:35.022457] [160] SYS_STATUS
[23:45:35.483436] [162] ATTITUDE_TARGET
[23:45:35.488356] [163] VFR_HUD
[23:45:35.697452] [132] RADIO
[23:45:35.700466] [132] RADIO_STATUS
[23:45:35.823434] [164] VFR_HUD
[23:45:36.043489] [165] HEARTBEAT
[23:45:36.617554] [166] VFR_HUD
[23:45:36.650518] [133] RADIO
[23:45:36.653469] [133] RADIO_STATUS
[23:45:36.982603] [167] HEARTBEAT
[23:45:36.990647] [168] ATTITUDE_TARGET
[23:45:37.647602] [134] RADIO
[23:45:37.650572] [134] RADIO_STATUS
[23:45:37.993940] [170] HEARTBEAT
[23:45:38.227669] [171] VFR_HUD
[23:45:38.796799] [135] RADIO
[23:45:38.799728] [135] RADIO_STATUS
[23:45:39.044889] [172] HEARTBEAT
[23:45:39.051789] [173] SYS_STATUS
[23:45:39.170806] [174] BATTERY_STATUS
[23:45:39.178810] [175] ATTITUDE_TARGET
[23:45:39.208885] [176] VFR_HUD
[23:45:39.612058] [136] RADIO
[23:45:39.614806] [136] RADIO_STATUS
[23:45:39.958895] [178] HEARTBEAT
[23:45:40.636967] [137] RADIO
[23:45:40.639872] [137] RADIO_STATUS
[23:45:40.757933] [179] VFR_HUD
[23:45:41.115956] [180] HEARTBEAT
[23:45:41.123967] [181] ATTITUDE_TARGET
[23:45:41.448069] [182] VFR_HUD
[23:45:41.682078] [138] RADIO
[23:45:41.685047] [138] RADIO_STATUS
[23:45:42.257142] [184] VFR_HUD
[23:45:42.707146] [139] RADIO
[23:45:42.710117] [139] RADIO_STATUS
[23:45:42.960183] [185] HEARTBEAT
[23:45:42.967171] [186] SYS_STATUS
[23:45:43.006137] [187] BATTERY_STATUS
[23:45:43.014169] [188] ATTITUDE_TARGET
[23:45:43.019161] [189] VFR_HUD
[23:45:43.627212] [140] RADIO
[23:45:43.629318] [140] RADIO_STATUS
[23:45:43.752244] [190] VFR_HUD
[23:45:43.973298] [191] HEARTBEAT
[23:45:44.562295] [192] VFR_HUD
[23:45:44.678252] [141] RADIO
[23:45:44.681251] [141] RADIO_STATUS
[23:45:45.031361] [193] HEARTBEAT
[23:45:45.039351] [194] ATTITUDE_TARGET
[23:45:45.356432] [195] VFR_HUD
[23:45:45.696542] [142] RADIO
[23:45:45.699426] [142] RADIO_STATUS
[23:45:46.042539] [196] HEARTBEAT
[23:45:46.171567] [197] VFR_HUD
[23:45:46.845575] [143] RADIO
[23:45:46.848517] [143] RADIO_STATUS
[23:45:46.974584] [198] HEARTBEAT
[23:45:46.980595] [199] SYS_STATUS
[23:45:47.103581] [200] BATTERY_STATUS
[23:45:47.105492] [201] EXTENDED_SYS_STATE
[23:45:47.137616] [202] ATTITUDE_TARGET
[23:45:47.142561] [203] VFR_HUD
[23:45:47.145637] [204] SYSTEM_TIME
[23:45:47.655636] [144] RADIO
[23:45:47.658605] [144] RADIO_STATUS
[23:45:48.001739] [206] HEARTBEAT
[23:45:48.575785] [207] VFR_HUD
[23:45:48.685781] [145] RADIO
[23:45:48.688720] [145] RADIO_STATUS
[23:45:49.169845] [208] HEARTBEAT
[23:45:49.177834] [209] ATTITUDE_TARGET
[23:45:49.385816] [210] VFR_HUD
[23:45:49.725832] [146] RADIO
[23:45:49.727767] [146] RADIO_STATUS
[23:45:49.951832] [211] HEARTBEAT
[23:45:50.754923] [147] RADIO
[23:45:50.757943] [147] RADIO_STATUS
[23:45:51.003027] [213] HEARTBEAT
[23:45:51.010026] [214] SYS_STATUS
[23:45:51.128979] [215] BATTERY_STATUS
[23:45:51.137002] [216] ATTITUDE_TARGET
[23:45:51.167018] [217] VFR_HUD
[23:45:51.675077] [148] RADIO
[23:45:51.678275] [148] RADIO_STATUS
[23:45:51.796102] [218] VFR_HUD
[23:45:52.021159] [219] HEARTBEAT
[23:45:52.606148] [220] VFR_HUD
[23:45:52.715150] [149] RADIO
[23:45:52.718189] [149] RADIO_STATUS
[23:45:52.941945] [221] HEARTBEAT
[23:45:52.964219] [222] ATTITUDE_TARGET
[23:45:53.405272] [223] VFR_HUD
[23:45:53.745602] [150] RADIO
[23:45:53.748395] [150] RADIO_STATUS
[23:45:53.981305] [224] HEARTBEAT
[23:45:54.220293] [225] VFR_HUD
[23:45:54.664354] [151] RADIO
[23:45:54.667322] [151] RADIO_STATUS
[23:45:55.023415] [226] HEARTBEAT
[23:45:55.029392] [227] SYS_STATUS
[23:45:55.144431] [228] BATTERY_STATUS
[23:45:55.262450] [229] ATTITUDE_TARGET
[23:45:55.267435] [230] VFR_HUD
[23:45:55.704538] [152] RADIO
[23:45:55.707417] [152] RADIO_STATUS
[23:45:55.830428] [231] VFR_HUD
[23:45:56.624551] [233] VFR_HUD
[23:45:56.733542] [153] RADIO
[23:45:56.736691] [153] RADIO_STATUS
[23:45:57.439665] [236] VFR_HUD
[23:45:57.773683] [154] RADIO
[23:45:57.776628] [154] RADIO_STATUS
[23:45:57.999829] [237] HEARTBEAT
[23:45:58.698800] [155] RADIO
[23:45:58.701792] [155] RADIO_STATUS
[23:45:59.051832] [239] HEARTBEAT
[23:45:59.058827] [240] SYS_STATUS
[23:45:59.176921] [241] BATTERY_STATUS
[23:45:59.184900] [242] ATTITUDE_TARGET
[23:45:59.215962] [243] VFR_HUD
[23:45:59.723947] [156] RADIO
[23:45:59.726905] [156] RADIO_STATUS
[23:45:59.844926] [244] VFR_HUD
[23:45:59.964968] [245] HEARTBEAT
[23:46:00.654982] [246] VFR_HUD
[23:46:00.768966] [157] RADIO
[23:46:00.771945] [157] RADIO_STATUS
[23:46:01.004040] [247] HEARTBEAT
[23:46:01.011139] [248] ATTITUDE_TARGET
[23:46:01.349071] [249] VFR_HUD
[23:46:01.793105] [158] RADIO
[23:46:01.796165] [158] RADIO_STATUS
[23:46:02.030177] [250] HEARTBEAT
[23:46:02.144104] [251] VFR_HUD
[23:46:02.713351] [159] RADIO
[23:46:02.716117] [159] RADIO_STATUS
[23:46:02.967259] [252] HEARTBEAT
[23:46:02.974191] [253] SYS_STATUS
[23:46:03.013254] [254] BATTERY_STATUS
[23:46:03.021179] [255] ATTITUDE_TARGET
[23:46:03.026164] [0] VFR_HUD
[23:46:03.758376] [160] RADIO
[23:46:03.761387] [160] RADIO_STATUS
[23:46:04.109309] [1] VFR_HUD
[23:46:04.112944] [2] HEARTBEAT
[23:46:04.569357] [3] VFR_HUD
[23:46:04.783361] [161] RADIO
[23:46:04.786316] [161] RADIO_STATUS
[23:46:05.038409] [4] HEARTBEAT
[23:46:05.046363] [5] ATTITUDE_TARGET
[23:46:05.363377] [6] VFR_HUD
[23:46:05.827459] [162] RADIO
[23:46:05.830447] [162] RADIO_STATUS
[23:46:05.943490] [7] HEARTBEAT
[23:46:06.747579] [163] RADIO
[23:46:06.750575] [163] RADIO_STATUS
[23:46:06.980621] [9] HEARTBEAT
[23:46:06.987711] [10] SYS_STATUS
[23:46:07.110635] [11] BATTERY_STATUS
[23:46:07.111533] [12] EXTENDED_SYS_STATE
[23:46:07.143724] [13] ATTITUDE_TARGET
[23:46:07.148637] [14] VFR_HUD
[23:46:07.156223] [15] SYSTEM_TIME
[23:46:07.771613] [164] RADIO
[23:46:07.774620] [164] RADIO_STATUS
[23:46:07.892667] [16] VFR_HUD
[23:46:08.013657] [17] HEARTBEAT
[23:46:08.816956] [165] RADIO
[23:46:08.819732] [165] RADIO_STATUS
[23:46:09.051982] [19] HEARTBEAT
[23:46:09.059807] [20] ATTITUDE_TARGET
[23:46:09.392793] [21] VFR_HUD
[23:46:09.841913] [166] RADIO
[23:46:09.844800] [166] RADIO_STATUS
[23:46:09.966886] [22] HEARTBEAT
[23:46:10.191914] [23] VFR_HUD
[23:46:10.760929] [167] RADIO
[23:46:10.763860] [167] RADIO_STATUS
[23:46:11.008977] [24] HEARTBEAT
[23:46:11.015962] [25] SYS_STATUS
[23:46:11.135011] [26] BATTERY_STATUS
[23:46:11.142988] [27] ATTITUDE_TARGET
[23:46:11.172971] [28] VFR_HUD
[23:46:11.802122] [29] VFR_HUD
[23:46:11.829028] [168] RADIO
[23:46:11.832181] [168] RADIO_STATUS
[23:46:12.617150] [31] VFR_HUD
[23:46:12.831108] [169] RADIO
[23:46:12.834103] [169] RADIO_STATUS
[23:46:12.961162] [32] HEARTBEAT
[23:46:12.968139] [33] ATTITUDE_TARGET
[23:46:13.411177] [34] VFR_HUD
[23:46:13.871265] [170] RADIO
[23:46:13.873322] [170] RADIO_STATUS
[23:46:13.987266] [35] HEARTBEAT
[23:46:14.790314] [171] RADIO
[23:46:14.793309] [171] RADIO_STATUS
[23:46:15.029421] [37] HEARTBEAT
[23:46:15.035348] [38] SYS_STATUS
[23:46:15.155390] [39] BATTERY_STATUS
[23:46:15.267588] [40] ATTITUDE_TARGET
[23:46:15.272448] [41] VFR_HUD
[23:46:15.820429] [172] RADIO
[23:46:15.823403] [172] RADIO_STATUS
[23:46:15.859434] [42] VFR_HUD
[23:46:15.942467] [43] HEARTBEAT
[23:46:16.860496] [173] RADIO
[23:46:16.863492] [173] RADIO_STATUS
[23:46:16.990576] [45] HEARTBEAT
[23:46:16.998514] [46] ATTITUDE_TARGET
[23:46:17.441747] [47] VFR_HUD
[23:46:17.890626] [174] RADIO
[23:46:17.893602] [174] RADIO_STATUS
[23:46:18.006707] [48] HEARTBEAT
[23:46:18.241770] [49] VFR_HUD
[23:46:18.810792] [175] RADIO
[23:46:18.812820] [175] RADIO_STATUS
[23:46:19.058793] [50] HEARTBEAT
[23:46:19.064797] [51] SYS_STATUS
[23:46:19.183934] [52] BATTERY_STATUS
[23:46:19.191850] [53] ATTITUDE_TARGET
[23:46:19.221751] [54] VFR_HUD
[23:46:19.745834] [55] VFR_HUD
[23:46:19.861820] [176] RADIO
[23:46:19.864904] [176] RADIO_STATUS
[23:46:20.545997] [57] VFR_HUD
[23:46:20.880004] [177] RADIO
[23:46:20.882932] [177] RADIO_STATUS
[23:46:21.009919] [58] HEARTBEAT
[23:46:21.017899] [59] ATTITUDE_TARGET
[23:46:21.355966] [60] VFR_HUD
[23:46:21.803001] [178] RADIO
[23:46:21.805993] [178] RADIO_STATUS
[23:46:22.036160] [61] HEARTBEAT
[23:46:22.151080] [62] VFR_HUD
[23:46:22.840173] [179] RADIO
[23:46:22.843121] [179] RADIO_STATUS
[23:46:22.974139] [63] HEARTBEAT
[23:46:22.980190] [64] SYS_STATUS
[23:46:23.020203] [65] BATTERY_STATUS
[23:46:23.028270] [66] ATTITUDE_TARGET
[23:46:23.032101] [67] VFR_HUD
[23:46:23.870286] [180] RADIO
[23:46:23.873239] [180] RADIO_STATUS
[23:46:23.949278] [68] VFR_HUD
[23:46:23.956591] [69] HEARTBEAT
[23:46:24.910352] [181] RADIO
[23:46:24.913374] [181] RADIO_STATUS
[23:46:25.045409] [71] HEARTBEAT
[23:46:25.053341] [72] ATTITUDE_TARGET
[23:46:25.370390] [73] VFR_HUD
[23:46:25.939420] [182] RADIO
[23:46:25.942347] [182] RADIO_STATUS
[23:46:25.973436] [74] HEARTBEAT
[23:46:26.180408] [75] VFR_HUD
[23:46:26.859445] [183] RADIO
[23:46:26.862422] [183] RADIO_STATUS
[23:46:27.112542] [78] BATTERY_STATUS
[23:46:27.114527] [79] EXTENDED_SYS_STATE
[23:46:27.233481] [80] ATTITUDE_TARGET
[23:46:27.238514] [81] VFR_HUD
[23:46:27.241458] [82] SYSTEM_TIME
[23:46:27.790535] [83] VFR_HUD
[23:46:27.904611] [184] RADIO
[23:46:27.907530] [184] RADIO_STATUS
[23:46:28.590650] [85] VFR_HUD
[23:46:28.929634] [185] RADIO
[23:46:28.932567] [185] RADIO_STATUS
[23:46:28.976657] [86] HEARTBEAT
[23:46:28.984744] [87] ATTITUDE_TARGET
[23:46:29.399678] [88] VFR_HUD
[23:46:29.849834] [186] RADIO
[23:46:29.851864] [186] RADIO_STATUS
[23:46:29.965823] [89] HEARTBEAT
[23:46:30.199895] [90] VFR_HUD
[23:46:30.893929] [187] RADIO
[23:46:30.896962] [187] RADIO_STATUS
[23:46:31.021981] [91] HEARTBEAT
[23:46:31.029067] [92] SYS_STATUS
[23:46:31.068897] [93] BATTERY_STATUS
[23:46:31.076876] [94] ATTITUDE_TARGET
[23:46:31.082170] [95] VFR_HUD
[23:46:31.918941] [188] RADIO
[23:46:31.921840] [188] RADIO_STATUS
[23:46:32.044955] [96] VFR_HUD
[23:46:32.047970] [97] HEARTBEAT
[23:46:32.969124] [99] HEARTBEAT
[23:46:32.976125] [100] ATTITUDE_TARGET
[23:46:32.986014] [189] RADIO
[23:46:32.989000] [189] RADIO_STATUS
[23:46:33.419087] [101] VFR_HUD
[23:46:33.988136] [190] RADIO
[23:46:33.991108] [190] RADIO_STATUS
[23:46:34.022555] [102] HEARTBEAT
[23:46:34.229724] [103] VFR_HUD
[23:46:34.908189] [191] RADIO
[23:46:34.911248] [191] RADIO_STATUS
[23:46:35.163349] [106] BATTERY_STATUS
[23:46:35.276349] [107] ATTITUDE_TARGET
[23:46:35.280225] [108] VFR_HUD
[23:46:35.839342] [109] VFR_HUD
[23:46:35.944379] [110] HEARTBEAT
[23:46:35.976257] [192] RADIO
[23:46:35.979319] [192] RADIO_STATUS
[23:46:36.639341] [111] VFR_HUD
[23:46:36.885491] [193] RADIO
[23:46:36.887382] [193] RADIO_STATUS
[23:46:36.998474] [112] HEARTBEAT
[23:46:37.006505] [113] ATTITUDE_TARGET
[23:46:37.449452] [114] VFR_HUD
[23:46:37.898534] [194] RADIO
[23:46:37.901521] [194] RADIO_STATUS
[23:46:38.014634] [115] HEARTBEAT
[23:46:38.248613] [116] VFR_HUD
[23:46:38.937698] [195] RADIO
[23:46:38.940514] [195] RADIO_STATUS
[23:46:39.066600] [117] HEARTBEAT
[23:46:39.072591] [118] SYS_STATUS
[23:46:39.191563] [119] BATTERY_STATUS
[23:46:39.199583] [120] ATTITUDE_TARGET
[23:46:39.229584] [121] VFR_HUD
[23:46:39.753605] [122] VFR_HUD
[23:46:39.967619] [196] RADIO
[23:46:39.970636] [196] RADIO_STATUS
[23:46:40.083728] [123] HEARTBEAT
[23:46:40.547723] [124] VFR_HUD
[23:46:41.017796] [125] HEARTBEAT
[23:46:41.024866] [126] ATTITUDE_TARGET
[23:46:41.034790] [197] RADIO
[23:46:41.037854] [197] RADIO_STATUS
[23:46:41.362825] [127] VFR_HUD
[23:46:42.037015] [198] RADIO
[23:46:42.039867] [198] RADIO_STATUS
[23:46:42.161902] [128] HEARTBEAT
[23:46:42.166873] [129] VFR_HUD
[23:46:42.956944] [199] RADIO
[23:46:42.959952] [199] RADIO_STATUS
[23:46:43.207016] [132] BATTERY_STATUS
[23:46:43.554083] [133] ATTITUDE_TARGET
[23:46:43.557897] [134] VFR_HUD
[23:46:43.767943] [135] VFR_HUD
[23:46:43.993045] [136] HEARTBEAT
[23:46:44.106990] [200] RADIO
[23:46:44.110037] [200] RADIO_STATUS
[23:46:44.577093] [137] VFR_HUD
[23:46:45.026192] [201] RADIO
[23:46:45.029283] [201] RADIO_STATUS
[23:46:45.156171] [138] HEARTBEAT
[23:46:45.164221] [139] ATTITUDE_TARGET
[23:46:45.946191] [202] RADIO
[23:46:45.949166] [202] RADIO_STATUS
[23:46:45.980238] [141] HEARTBEAT
[23:46:46.187313] [142] VFR_HUD
[23:46:46.994406] [143] HEARTBEAT
[23:46:47.001360] [144] SYS_STATUS
[23:46:47.096359] [203] RADIO
[23:46:47.099371] [203] RADIO_STATUS
[23:46:47.137406] [145] BATTERY_STATUS
[23:46:47.167428] [146] EXTENDED_SYS_STATE
[23:46:47.175455] [147] ATTITUDE_TARGET
[23:46:47.180321] [148] VFR_HUD
[23:46:47.184290] [149] SYSTEM_TIME
[23:46:48.016443] [204] RADIO
[23:46:48.019468] [204] RADIO_STATUS
[23:46:48.060465] [150] VFR_HUD
[23:46:48.063454] [151] HEARTBEAT
[23:46:48.596498] [152] VFR_HUD
[23:46:48.936502] [205] RADIO
[23:46:48.939494] [205] RADIO_STATUS
[23:46:48.983682] [153] HEARTBEAT
[23:46:48.992762] [154] ATTITUDE_TARGET
[23:46:49.411676] [155] VFR_HUD
[23:46:50.085919] [206] RADIO
[23:46:50.088741] [206] RADIO_STATUS
[23:46:50.206712] [157] VFR_HUD
[23:46:51.005879] [207] RADIO
[23:46:51.008880] [207] RADIO_STATUS
[23:46:51.816965] [163] VFR_HUD
[23:46:51.936869] [164] HEARTBEAT
[23:46:52.045941] [208] RADIO
[23:46:52.049592] [208] RADIO_STATUS
[23:46:52.632073] [165] VFR_HUD
[23:46:52.976019] [166] HEARTBEAT
[23:46:52.983982] [167] ATTITUDE_TARGET
[23:46:52.994001] [209] RADIO
[23:46:52.997854] [209] RADIO_STATUS
[23:46:53.996591] [210] RADIO
[23:46:53.999054] [210] RADIO_STATUS
[23:46:54.030147] [169] HEARTBEAT
[23:46:54.236188] [170] VFR_HUD
[23:46:55.044373] [171] HEARTBEAT
[23:46:55.051264] [172] SYS_STATUS
[23:46:55.063172] [211] RADIO
[23:46:55.066154] [211] RADIO_STATUS
[23:46:55.173880] [173] BATTERY_STATUS
[23:46:55.283374] [174] ATTITUDE_TARGET
[23:46:55.288239] [175] VFR_HUD
[23:46:55.846333] [176] VFR_HUD
[23:46:55.952291] [177] HEARTBEAT
[23:46:55.983289] [212] RADIO
[23:46:55.986295] [212] RADIO_STATUS
[23:46:56.646574] [178] VFR_HUD
[23:46:56.985434] [213] RADIO
[23:46:56.988388] [213] RADIO_STATUS
[23:46:57.037597] [179] HEARTBEAT
[23:46:57.042117] [180] ATTITUDE_TARGET
[23:46:57.456426] [181] VFR_HUD
[23:46:58.135621] [214] RADIO
[23:46:58.138484] [214] RADIO_STATUS
[23:46:58.174580] [183] VFR_HUD
[23:46:58.941618] [184] HEARTBEAT
[23:46:58.961651] [185] SYS_STATUS
[23:46:59.009653] [186] BATTERY_STATUS
[23:46:59.017636] [187] ATTITUDE_TARGET
[23:46:59.022567] [188] VFR_HUD
[23:46:59.025562] [215] RADIO
[23:46:59.028645] [215] RADIO_STATUS
[23:46:59.993765] [189] VFR_HUD
[23:46:59.995694] [190] HEARTBEAT
[23:47:00.206780] [216] RADIO
[23:47:00.209809] [216] RADIO_STATUS
[23:47:00.557945] [191] VFR_HUD
[23:47:01.026877] [192] HEARTBEAT
[23:47:01.034931] [193] ATTITUDE_TARGET
[23:47:01.044806] [217] RADIO
[23:47:01.047866] [217] RADIO_STATUS
[23:47:01.932994] [195] HEARTBEAT
[23:47:02.047119] [218] RADIO
[23:47:02.049973] [218] RADIO_STATUS
[23:47:02.167041] [196] VFR_HUD
[23:47:02.985040] [197] HEARTBEAT
[23:47:02.991147] [198] SYS_STATUS
[23:47:03.110161] [199] BATTERY_STATUS
[23:47:03.118199] [200] ATTITUDE_TARGET
[23:47:03.148222] [201] VFR_HUD
[23:47:03.176200] [219] RADIO
[23:47:03.179040] [219] RADIO_STATUS
[23:47:04.003282] [203] HEARTBEAT
[23:47:04.034413] [220] RADIO
[23:47:04.037288] [220] RADIO_STATUS
[23:47:04.587326] [204] VFR_HUD
[23:47:05.036258] [221] RADIO
[23:47:05.039212] [221] RADIO_STATUS
[23:47:05.166300] [205] HEARTBEAT
[23:47:05.174373] [206] ATTITUDE_TARGET
[23:47:05.387348] [207] VFR_HUD
[23:47:05.962457] [208] HEARTBEAT
[23:47:06.186398] [222] RADIO
[23:47:06.189361] [222] RADIO_STATUS
[23:47:06.224395] [209] VFR_HUD
[23:47:07.004508] [210] HEARTBEAT
[23:47:07.013288] [211] SYS_STATUS
[23:47:07.105529] [223] RADIO
[23:47:07.108873] [223] RADIO_STATUS
[23:47:08.025652] [224] RADIO
[23:47:08.028572] [224] RADIO_STATUS
[23:47:08.151702] [217] VFR_HUD
[23:47:08.154926] [218] HEARTBEAT
[23:47:08.606718] [219] VFR_HUD
[23:47:08.970836] [220] HEARTBEAT
[23:47:08.978716] [221] ATTITUDE_TARGET
[23:47:09.065805] [225] RADIO
[23:47:09.068814] [225] RADIO_STATUS
[23:47:09.981898] [223] HEARTBEAT
[23:47:10.095840] [226] RADIO
[23:47:10.098854] [226] RADIO_STATUS
[23:47:10.215933] [224] VFR_HUD
[23:47:11.039089] [225] HEARTBEAT
[23:47:11.046064] [226] SYS_STATUS
[23:47:11.086191] [227] BATTERY_STATUS
[23:47:11.093114] [228] ATTITUDE_TARGET
[23:47:11.097980] [229] VFR_HUD
[23:47:11.135428] [227] RADIO
[23:47:11.137964] [227] RADIO_STATUS
[23:47:11.957057] [230] VFR_HUD
[23:47:11.960019] [231] HEARTBEAT
[23:47:12.070969] [228] RADIO
[23:47:12.074048] [228] RADIO_STATUS
[23:47:12.636075] [232] VFR_HUD
[23:47:13.085137] [229] RADIO
[23:47:13.088064] [229] RADIO_STATUS
[23:47:13.214124] [233] HEARTBEAT
[23:47:13.222184] [234] ATTITUDE_TARGET
[23:47:13.436156] [235] VFR_HUD
[23:47:14.235308] [230] RADIO
[23:47:14.238204] [230] RADIO_STATUS
[23:47:14.356311] [237] VFR_HUD
[23:47:14.936431] [238] HEARTBEAT
[23:47:15.065419] [239] SYS_STATUS
[23:47:15.073848] [240] BATTERY_STATUS
[23:47:15.076351] [231] RADIO
[23:47:15.081796] [231] RADIO_STATUS
[23:47:15.855527] [243] VFR_HUD
[23:47:15.961417] [244] HEARTBEAT
[23:47:16.075433] [232] RADIO
[23:47:16.078437] [232] RADIO_STATUS
[23:47:16.551432] [245] VFR_HUD
[23:47:17.020540] [246] HEARTBEAT
[23:47:17.027530] [247] ATTITUDE_TARGET
[23:47:17.114467] [233] RADIO
[23:47:17.117509] [233] RADIO_STATUS
[23:47:17.345546] [248] VFR_HUD
[23:47:18.031590] [249] HEARTBEAT
[23:47:18.144628] [234] RADIO
[23:47:18.147726] [234] RADIO_STATUS
[23:47:18.183636] [250] VFR_HUD
[23:47:18.963729] [251] HEARTBEAT
[23:47:18.969735] [252] SYS_STATUS
[23:47:19.089740] [253] BATTERY_STATUS
[23:47:19.202751] [254] ATTITUDE_TARGET
[23:47:19.206757] [255] VFR_HUD
[23:47:19.212673] [235] RADIO
[23:47:19.215697] [235] RADIO_STATUS
[23:47:19.776866] [0] VFR_HUD
[23:47:19.989915] [1] HEARTBEAT
[23:47:20.103832] [236] RADIO
[23:47:20.106810] [236] RADIO_STATUS
[23:47:20.564846] [2] VFR_HUD
[23:47:21.134087] [237] RADIO
[23:47:21.137017] [237] RADIO_STATUS
[23:47:21.181020] [3] HEARTBEAT
[23:47:21.188948] [4] ATTITUDE_TARGET
[23:47:21.373998] [5] VFR_HUD
[23:47:21.940016] [6] HEARTBEAT
[23:47:22.284068] [238] RADIO
[23:47:22.287011] [238] RADIO_STATUS
[23:47:22.991323] [8] HEARTBEAT
[23:47:22.998122] [9] SYS_STATUS
[23:47:23.117198] [10] BATTERY_STATUS
[23:47:23.125075] [11] ATTITUDE_TARGET
[23:47:23.156590] [12] VFR_HUD
[23:47:23.182078] [239] RADIO
[23:47:23.185061] [239] RADIO_STATUS
[23:47:23.784234] [13] VFR_HUD
[23:47:24.009266] [14] HEARTBEAT
[23:47:24.123216] [240] RADIO
[23:47:24.126186] [240] RADIO_STATUS
[23:47:24.594413] [15] VFR_HUD
[23:47:25.063343] [16] HEARTBEAT
[23:47:25.070279] [17] ATTITUDE_TARGET
[23:47:25.191854] [241] RADIO
[23:47:25.194458] [241] RADIO_STATUS
[23:47:25.393343] [18] VFR_HUD
[23:47:25.969390] [19] HEARTBEAT
[23:47:26.193661] [242] RADIO
[23:47:26.195529] [242] RADIO_STATUS
[23:47:26.231360] [20] VFR_HUD
[23:47:27.011450] [21] HEARTBEAT
[23:47:27.017441] [22] SYS_STATUS
[23:47:27.135449] [23] BATTERY_STATUS
[23:47:27.137454] [24] EXTENDED_SYS_STATE
[23:47:27.258064] [25] ATTITUDE_TARGET
[23:47:27.261449] [26] VFR_HUD
[23:47:27.265453] [27] SYSTEM_TIME
[23:47:27.299445] [243] RADIO
[23:47:27.302457] [243] RADIO_STATUS
[23:47:28.038624] [29] HEARTBEAT
[23:47:28.157748] [244] RADIO
[23:47:28.160589] [244] RADIO_STATUS
[23:47:28.613802] [30] VFR_HUD
[23:47:29.182597] [245] RADIO
[23:47:29.185640] [245] RADIO_STATUS
[23:47:29.423712] [33] VFR_HUD
[23:47:29.988847] [34] HEARTBEAT
[23:47:30.332891] [246] RADIO
[23:47:30.335809] [246] RADIO_STATUS
[23:47:31.040928] [36] HEARTBEAT
[23:47:31.047846] [37] SYS_STATUS
[23:47:31.165884] [38] BATTERY_STATUS
[23:47:31.173888] [39] ATTITUDE_TARGET
[23:47:31.203906] [40] VFR_HUD
[23:47:31.231891] [247] RADIO
[23:47:31.234918] [247] RADIO_STATUS
[23:47:31.832902] [41] VFR_HUD
[23:47:31.954060] [42] HEARTBEAT
[23:47:32.172051] [248] RADIO
[23:47:32.175004] [248] RADIO_STATUS
[23:47:32.646725] [43] VFR_HUD
[23:47:32.992096] [44] HEARTBEAT
[23:47:33.000068] [45] ATTITUDE_TARGET
[23:47:33.217087] [249] RADIO
[23:47:33.220073] [249] RADIO_STATUS
[23:47:33.443054] [46] VFR_HUD
[23:47:34.023185] [47] HEARTBEAT
[23:47:34.242190] [250] RADIO
[23:47:34.245308] [250] RADIO_STATUS
[23:47:34.363125] [48] VFR_HUD
[23:47:34.954303] [49] HEARTBEAT
[23:47:34.961244] [50] SYS_STATUS
[23:47:35.000257] [51] BATTERY_STATUS
[23:47:35.008202] [52] ATTITUDE_TARGET
[23:47:35.013191] [53] VFR_HUD
[23:47:35.286280] [251] RADIO
[23:47:35.289223] [251] RADIO_STATUS
[23:47:36.097312] [54] VFR_HUD
[23:47:36.100374] [55] HEARTBEAT
[23:47:36.201362] [252] RADIO
[23:47:36.204695] [252] RADIO_STATUS
[23:47:36.556417] [56] VFR_HUD
[23:47:37.230372] [253] RADIO
[23:47:37.233307] [253] RADIO_STATUS
[23:47:37.350406] [59] VFR_HUD
[23:47:38.037892] [60] HEARTBEAT
[23:47:38.379474] [254] RADIO
[23:47:38.382444] [254] RADIO_STATUS
[23:47:38.967675] [62] HEARTBEAT
[23:47:38.974706] [63] SYS_STATUS
[23:47:39.094738] [64] BATTERY_STATUS
[23:47:39.206607] [65] ATTITUDE_TARGET
[23:47:39.211539] [66] VFR_HUD
[23:47:39.217668] [255] RADIO
[23:47:39.220756] [255] RADIO_STATUS
[23:47:39.769702] [67] VFR_HUD
[23:47:40.000647] [68] HEARTBEAT
[23:47:40.219814] [0] RADIO
[23:47:40.222673] [0] RADIO_STATUS
[23:47:41.039762] [70] HEARTBEAT
[23:47:41.046740] [71] ATTITUDE_TARGET
[23:47:41.258708] [1] RADIO
[23:47:41.261717] [1] RADIO_STATUS
[23:47:41.379784] [72] VFR_HUD
[23:47:41.945902] [73] HEARTBEAT
[23:47:42.179894] [74] VFR_HUD
[23:47:42.206851] [2] RADIO
[23:47:42.209902] [2] RADIO_STATUS
[23:47:42.996974] [75] HEARTBEAT
[23:47:43.003938] [76] SYS_STATUS
[23:47:43.122893] [77] BATTERY_STATUS
[23:47:43.130898] [78] ATTITUDE_TARGET
[23:47:43.161557] [79] VFR_HUD
[23:47:43.208845] [3] RADIO
[23:47:43.211860] [3] RADIO_STATUS
[23:47:43.790009] [80] VFR_HUD
[23:47:44.248926] [4] RADIO
[23:47:44.251916] [4] RADIO_STATUS
[23:47:44.607830] [82] VFR_HUD
[23:47:44.935015] [83] HEARTBEAT
[23:47:44.958032] [84] ATTITUDE_TARGET
[23:47:45.279053] [5] RADIO
[23:47:45.282000] [5] RADIO_STATUS
[23:47:45.399162] [85] VFR_HUD
[23:47:45.975180] [86] HEARTBEAT
[23:47:46.428326] [6] RADIO
[23:47:46.431202] [6] RADIO_STATUS
[23:47:47.016261] [88] HEARTBEAT
[23:47:47.023199] [89] SYS_STATUS
[23:47:47.146289] [90] BATTERY_STATUS
[23:47:47.148210] [91] EXTENDED_SYS_STATE
[23:47:47.180332] [92] ATTITUDE_TARGET
[23:47:47.185376] [93] VFR_HUD
[23:47:47.188201] [94] SYSTEM_TIME
[23:47:47.238208] [7] RADIO
[23:47:47.241242] [7] RADIO_STATUS
[23:47:47.823298] [95] VFR_HUD
[23:47:47.935297] [96] HEARTBEAT
[23:47:48.267327] [8] RADIO
[23:47:48.270321] [8] RADIO_STATUS
[23:47:48.977383] [98] HEARTBEAT
[23:47:48.985448] [99] ATTITUDE_TARGET
[23:47:49.307588] [9] RADIO
[23:47:49.310508] [9] RADIO_STATUS
[23:47:49.429868] [100] VFR_HUD
[23:47:49.994460] [101] HEARTBEAT
[23:47:50.229999] [102] VFR_HUD
[23:47:50.260484] [10] RADIO
[23:47:50.263480] [10] RADIO_STATUS
[23:47:51.045747] [103] HEARTBEAT
[23:47:51.052570] [104] SYS_STATUS
[23:47:51.171657] [105] BATTERY_STATUS
[23:47:51.179612] [106] ATTITUDE_TARGET
[23:47:51.209639] [107] VFR_HUD
[23:47:51.257684] [11] RADIO
[23:47:51.260637] [11] RADIO_STATUS
[23:47:51.838704] [108] VFR_HUD
[23:47:52.304443] [12] RADIO
[23:47:52.305677] [12] RADIO_STATUS
[23:47:52.648740] [110] VFR_HUD
[23:47:52.997822] [111] HEARTBEAT
[23:47:53.004795] [112] ATTITUDE_TARGET
[23:47:53.327816] [13] RADIO
[23:47:53.329896] [13] RADIO_STATUS
[23:47:53.365913] [113] VFR_HUD
[23:47:54.023901] [114] HEARTBEAT
[23:47:54.476952] [14] RADIO
[23:47:54.479938] [14] RADIO_STATUS
[23:47:54.960027] [116] HEARTBEAT
[23:47:54.967016] [117] SYS_STATUS
[23:47:55.006039] [118] BATTERY_STATUS
[23:47:55.014277] [119] ATTITUDE_TARGET
[23:47:55.019008] [120] VFR_HUD
[23:47:55.292032] [15] RADIO
[23:47:55.294958] [15] RADIO_STATUS
[23:47:55.983160] [121] VFR_HUD
[23:47:55.986102] [122] HEARTBEAT
[23:47:56.316088] [16] RADIO
[23:47:56.319150] [16] RADIO_STATUS
[23:47:56.568060] [123] VFR_HUD
[23:47:57.030168] [124] HEARTBEAT
[23:47:57.038175] [125] ATTITUDE_TARGET
[23:47:57.356156] [126] VFR_HUD
[23:47:57.388179] [17] RADIO
[23:47:57.391167] [17] RADIO_STATUS
[23:47:57.936257] [127] HEARTBEAT
[23:47:58.165295] [128] VFR_HUD
[23:47:58.385301] [18] RADIO
[23:47:58.388261] [18] RADIO_STATUS
[23:47:59.094367] [131] BATTERY_STATUS
[23:47:59.212298] [132] ATTITUDE_TARGET
[23:47:59.217439] [133] VFR_HUD
[23:47:59.304342] [19] RADIO
[23:47:59.307333] [19] RADIO_STATUS
[23:47:59.775430] [134] VFR_HUD
[23:48:00.015510] [135] HEARTBEAT
[23:48:00.349489] [20] RADIO
[23:48:00.352346] [20] RADIO_STATUS
[23:48:00.574452] [136] VFR_HUD
[23:48:01.043481] [137] HEARTBEAT
[23:48:01.051491] [138] ATTITUDE_TARGET
[23:48:01.373512] [21] RADIO
[23:48:01.376540] [21] RADIO_STATUS
[23:48:01.412524] [139] VFR_HUD
[23:48:01.949547] [140] HEARTBEAT
[23:48:02.184623] [141] VFR_HUD
[23:48:02.293629] [22] RADIO
[23:48:02.296604] [22] RADIO_STATUS
[23:48:03.006680] [142] HEARTBEAT
[23:48:03.013794] [143] SYS_STATUS
[23:48:03.053690] [144] BATTERY_STATUS
[23:48:03.060677] [145] ATTITUDE_TARGET
[23:48:03.065656] [146] VFR_HUD
[23:48:03.334040] [23] RADIO
[23:48:03.336684] [23] RADIO_STATUS
[23:48:04.029709] [147] VFR_HUD
[23:48:04.032663] [148] HEARTBEAT
[23:48:04.363751] [24] RADIO
[23:48:04.366688] [24] RADIO_STATUS
[23:48:04.608746] [149] VFR_HUD
[23:48:04.938840] [150] HEARTBEAT
[23:48:04.960874] [151] ATTITUDE_TARGET
[23:48:05.402804] [152] VFR_HUD
[23:48:05.429872] [25] RADIO
[23:48:05.432972] [25] RADIO_STATUS
[23:48:05.979098] [153] HEARTBEAT
[23:48:06.218048] [154] VFR_HUD
[23:48:06.334013] [26] RADIO
[23:48:06.335898] [26] RADIO_STATUS
[23:48:07.150080] [157] BATTERY_STATUS
[23:48:07.150949] [158] EXTENDED_SYS_STATE
[23:48:07.183070] [159] ATTITUDE_TARGET
[23:48:07.188017] [160] VFR_HUD
[23:48:07.192015] [161] SYSTEM_TIME
[23:48:07.352041] [27] RADIO
[23:48:07.355132] [27] RADIO_STATUS
[23:48:07.822127] [162] VFR_HUD
[23:48:08.391217] [28] RADIO
[23:48:08.394134] [28] RADIO_STATUS
[23:48:08.622294] [164] VFR_HUD
[23:48:08.981973] [165] HEARTBEAT
[23:48:08.989207] [166] ATTITUDE_TARGET
[23:48:09.421159] [29] RADIO
[23:48:09.424245] [29] RADIO_STATUS
[23:48:09.542189] [167] VFR_HUD
[23:48:09.997280] [168] HEARTBEAT
[23:48:10.231304] [169] VFR_HUD
[23:48:10.340267] [30] RADIO
[23:48:10.343401] [30] RADIO_STATUS
[23:48:11.052051] [170] HEARTBEAT
[23:48:11.056434] [171] SYS_STATUS
[23:48:11.174361] [172] BATTERY_STATUS
[23:48:11.182328] [173] ATTITUDE_TARGET
[23:48:11.212328] [174] VFR_HUD
[23:48:11.384816] [31] RADIO
[23:48:11.385007] [31] RADIO_STATUS
[23:48:11.841343] [175] VFR_HUD
[23:48:11.956428] [176] HEARTBEAT
[23:48:12.410552] [32] RADIO
[23:48:12.413427] [32] RADIO_STATUS
[23:48:13.000550] [178] HEARTBEAT
[23:48:13.008512] [179] ATTITUDE_TARGET
[23:48:13.335509] [33] RADIO
[23:48:13.338467] [33] RADIO_STATUS
[23:48:13.368507] [180] VFR_HUD
[23:48:14.026664] [181] HEARTBEAT
[23:48:14.145559] [182] VFR_HUD
[23:48:14.369689] [34] RADIO
[23:48:14.372619] [34] RADIO_STATUS
[23:48:15.399778] [35] RADIO
[23:48:15.402834] [35] RADIO_STATUS
[23:48:15.749796] [188] VFR_HUD
[23:48:15.975752] [189] HEARTBEAT
[23:48:16.439864] [36] RADIO
[23:48:16.441843] [36] RADIO_STATUS
[23:48:16.559845] [190] VFR_HUD
[23:48:17.029032] [191] HEARTBEAT
[23:48:17.037035] [192] ATTITUDE_TARGET
[23:48:17.468884] [37] RADIO
[23:48:17.471846] [37] RADIO_STATUS
[23:48:17.940004] [194] HEARTBEAT
[23:48:18.170119] [195] VFR_HUD
[23:48:18.389049] [38] RADIO
[23:48:18.391918] [38] RADIO_STATUS
[23:48:18.977120] [196] HEARTBEAT
[23:48:18.984057] [197] SYS_STATUS
[23:48:19.098058] [198] BATTERY_STATUS
[23:48:19.216095] [199] ATTITUDE_TARGET
[23:48:19.221056] [200] VFR_HUD
[23:48:19.462056] [39] RADIO
[23:48:19.464001] [39] RADIO_STATUS
[23:48:19.779173] [201] VFR_HUD
[23:48:20.010149] [202] HEARTBEAT
[23:48:20.354228] [40] RADIO
[23:48:20.356164] [40] RADIO_STATUS
[23:48:20.579263] [203] VFR_HUD
[23:48:21.048260] [204] HEARTBEAT
[23:48:21.056306] [205] ATTITUDE_TARGET
[23:48:21.378295] [41] RADIO
[23:48:21.381230] [41] RADIO_STATUS
[23:48:21.417417] [206] VFR_HUD
[23:48:22.189430] [208] VFR_HUD
[23:48:22.423396] [42] RADIO
[23:48:22.426347] [42] RADIO_STATUS
[23:48:23.448495] [43] RADIO
[23:48:23.451452] [43] RADIO_STATUS
[23:48:23.516549] [211] BATTERY_STATUS
[23:48:23.524471] [212] ATTITUDE_TARGET
[23:48:23.529471] [213] VFR_HUD
[23:48:23.799568] [214] VFR_HUD
[23:48:24.024624] [215] HEARTBEAT
[23:48:24.368530] [44] RADIO
[23:48:24.371494] [44] RADIO_STATUS
[23:48:24.608533] [216] VFR_HUD
[23:48:24.961891] [217] HEARTBEAT
[23:48:24.965855] [218] ATTITUDE_TARGET
[23:48:25.517642] [45] RADIO
[23:48:25.520691] [45] RADIO_STATUS
[23:48:25.988790] [220] HEARTBEAT
[23:48:26.217711] [221] VFR_HUD
[23:48:26.437799] [46] RADIO
[23:48:26.439801] [46] RADIO_STATUS
[23:48:27.025759] [222] HEARTBEAT
[23:48:27.032797] [223] SYS_STATUS
[23:48:27.158911] [224] BATTERY_STATUS
[23:48:27.159060] [225] EXTENDED_SYS_STATE
[23:48:27.188788] [226] ATTITUDE_TARGET
[23:48:27.194017] [227] VFR_HUD
[23:48:27.197895] [228] SYSTEM_TIME
[23:48:27.482926] [47] RADIO
[23:48:27.485971] [47] RADIO_STATUS
[23:48:27.830131] [229] VFR_HUD
[23:48:27.933939] [230] HEARTBEAT
[23:48:28.396987] [48] RADIO
[23:48:28.399892] [48] RADIO_STATUS
[23:48:28.627977] [231] VFR_HUD
[23:48:28.987018] [232] HEARTBEAT
[23:48:28.995161] [233] ATTITUDE_TARGET
[23:48:29.427050] [49] RADIO
[23:48:29.430173] [49] RADIO_STATUS
[23:48:29.548032] [234] VFR_HUD
[23:48:30.238238] [236] VFR_HUD
[23:48:30.467138] [50] RADIO
[23:48:30.470199] [50] RADIO_STATUS
[23:48:31.497300] [51] RADIO
[23:48:31.500265] [51] RADIO_STATUS
[23:48:31.973381] [242] VFR_HUD
[23:48:31.976325] [243] HEARTBEAT
[23:48:32.416383] [52] RADIO
[23:48:32.419310] [52] RADIO_STATUS
[23:48:32.662389] [244] VFR_HUD
[23:48:33.006434] [245] HEARTBEAT
[23:48:33.014481] [246] ATTITUDE_TARGET
[23:48:33.566475] [53] RADIO
[23:48:33.569413] [53] RADIO_STATUS
[23:48:34.032558] [248] HEARTBEAT
[23:48:34.146482] [249] VFR_HUD
[23:48:34.486693] [54] RADIO
[23:48:34.489149] [54] RADIO_STATUS
[23:48:34.964581] [250] HEARTBEAT
[23:48:34.970586] [251] SYS_STATUS
[23:48:35.089617] [252] BATTERY_STATUS
[23:48:35.097636] [253] ATTITUDE_TARGET
[23:48:35.127630] [254] VFR_HUD
[23:48:35.525653] [55] RADIO
[23:48:35.528554] [55] RADIO_STATUS
[23:48:35.981719] [0] HEARTBEAT
[23:48:36.445699] [56] RADIO
[23:48:36.448722] [56] RADIO_STATUS
[23:48:36.565736] [1] VFR_HUD
[23:48:37.037910] [2] HEARTBEAT
[23:48:37.061896] [3] ATTITUDE_TARGET
[23:48:37.365886] [4] VFR_HUD
[23:48:37.475744] [57] RADIO
[23:48:37.477987] [57] RADIO_STATUS
[23:48:38.174953] [6] VFR_HUD
[23:48:38.516113] [58] RADIO
[23:48:38.517866] [58] RADIO_STATUS
[23:48:38.983076] [7] HEARTBEAT
[23:48:38.989068] [8] SYS_STATUS
[23:48:39.544021] [59] RADIO
[23:48:39.547062] [59] RADIO_STATUS
[23:48:39.790082] [12] VFR_HUD
[23:48:40.010083] [13] HEARTBEAT
[23:48:40.464231] [60] RADIO
[23:48:40.467117] [60] RADIO_STATUS
[23:48:40.584165] [14] VFR_HUD
[23:48:40.935186] [15] HEARTBEAT
[23:48:41.053254] [16] ATTITUDE_TARGET
[23:48:41.613247] [61] RADIO
[23:48:41.616243] [61] RADIO_STATUS
[23:48:41.959365] [18] HEARTBEAT
[23:48:42.194326] [19] VFR_HUD
[23:48:42.533816] [62] RADIO
[23:48:42.537985] [62] RADIO_STATUS
[23:48:43.016430] [20] HEARTBEAT
[23:48:43.023395] [21] SYS_STATUS
[23:48:43.065819] [22] BATTERY_STATUS
[23:48:43.071434] [23] ATTITUDE_TARGET
[23:48:43.075366] [24] VFR_HUD
[23:48:43.573564] [63] RADIO
[23:48:43.576491] [63] RADIO_STATUS
[23:48:44.039524] [25] VFR_HUD
[23:48:44.042516] [26] HEARTBEAT
[23:48:44.498612] [64] RADIO
[23:48:44.501571] [64] RADIO_STATUS
[23:48:44.613612] [27] VFR_HUD
[23:48:45.082658] [28] HEARTBEAT
[23:48:45.090671] [29] ATTITUDE_TARGET
[23:48:45.413786] [30] VFR_HUD
[23:48:45.523696] [65] RADIO
[23:48:45.525705] [65] RADIO_STATUS
[23:48:46.003742] [31] HEARTBEAT
[23:48:46.223716] [32] VFR_HUD
[23:48:46.567702] [66] RADIO
[23:48:46.570718] [66] RADIO_STATUS
[23:48:47.030787] [33] HEARTBEAT
[23:48:47.037894] [34] SYS_STATUS
[23:48:47.592950] [67] RADIO
[23:48:47.595921] [67] RADIO_STATUS
[23:48:47.832978] [40] VFR_HUD
[23:48:47.938891] [41] HEARTBEAT
[23:48:48.512096] [68] RADIO
[23:48:48.514904] [68] RADIO_STATUS
[23:48:48.550879] [42] VFR_HUD
[23:48:48.998038] [43] HEARTBEAT
[23:48:49.004972] [44] ATTITUDE_TARGET
[23:48:49.662005] [69] RADIO
[23:48:49.665055] [69] RADIO_STATUS
[23:48:50.009136] [46] HEARTBEAT
[23:48:50.243052] [47] VFR_HUD
[23:48:50.582116] [70] RADIO
[23:48:50.585057] [70] RADIO_STATUS
[23:48:51.066215] [48] HEARTBEAT
[23:48:51.072211] [49] SYS_STATUS
[23:48:51.112276] [50] BATTERY_STATUS
[23:48:51.120143] [51] ATTITUDE_TARGET
[23:48:51.125144] [52] VFR_HUD
[23:48:51.627294] [71] RADIO
[23:48:51.630101] [71] RADIO_STATUS
[23:48:52.088230] [53] VFR_HUD
[23:48:52.091273] [54] HEARTBEAT
[23:48:52.543361] [55] VFR_HUD
[23:48:52.575426] [72] RADIO
[23:48:52.578310] [72] RADIO_STATUS
[23:48:53.137403] [56] HEARTBEAT
[23:48:53.144491] [57] ATTITUDE_TARGET
[23:48:53.353433] [58] VFR_HUD
[23:48:53.572375] [73] RADIO
[23:48:53.575330] [73] RADIO_STATUS
[23:48:54.617526] [74] RADIO
[23:48:54.621408] [74] RADIO_STATUS
[23:48:54.970582] [61] HEARTBEAT
[23:48:54.977492] [62] SYS_STATUS
[23:48:55.095544] [63] BATTERY_STATUS
[23:48:55.104721] [64] ATTITUDE_TARGET
[23:48:55.133542] [65] VFR_HUD
[23:48:55.645869] [75] RADIO
[23:48:55.646042] [75] RADIO_STATUS
[23:48:55.762508] [66] VFR_HUD
[23:48:55.988586] [67] HEARTBEAT
[23:48:56.561701] [76] RADIO
[23:48:56.564558] [76] RADIO_STATUS
[23:48:56.600642] [68] VFR_HUD
[23:48:57.044656] [69] HEARTBEAT
[23:48:57.049682] [70] ATTITUDE_TARGET
[23:48:57.372647] [71] VFR_HUD
[23:48:57.711867] [77] RADIO
[23:48:57.714717] [77] RADIO_STATUS
[23:48:57.947717] [72] HEARTBEAT
[23:48:58.187833] [73] VFR_HUD
[23:48:58.631916] [78] RADIO
[23:48:58.634923] [78] RADIO_STATUS
[23:48:58.989936] [74] HEARTBEAT
[23:48:58.996888] [75] SYS_STATUS
[23:48:59.111991] [76] BATTERY_STATUS
[23:48:59.228915] [77] ATTITUDE_TARGET
[23:48:59.233867] [78] VFR_HUD
[23:48:59.676908] [79] RADIO
[23:48:59.679858] [79] RADIO_STATUS
[23:49:00.018279] [80] HEARTBEAT
[23:49:00.592099] [81] VFR_HUD
[23:49:00.619054] [80] RADIO
[23:49:00.621936] [80] RADIO_STATUS
[23:49:01.407009] [84] VFR_HUD
[23:49:01.621174] [81] RADIO
[23:49:01.624057] [81] RADIO_STATUS
[23:49:01.967084] [85] HEARTBEAT
[23:49:02.661141] [82] RADIO
[23:49:02.664093] [82] RADIO_STATUS
[23:49:03.019249] [87] HEARTBEAT
[23:49:03.026152] [88] SYS_STATUS
[23:49:03.145233] [89] BATTERY_STATUS
[23:49:03.152106] [90] ATTITUDE_TARGET
[23:49:03.183230] [91] VFR_HUD
[23:49:03.691273] [83] RADIO
[23:49:03.694424] [83] RADIO_STATUS
[23:49:03.813386] [92] VFR_HUD
[23:49:03.932275] [93] HEARTBEAT
[23:49:04.610324] [84] RADIO
[23:49:04.613438] [84] RADIO_STATUS
[23:49:04.731346] [94] VFR_HUD
[23:49:04.970458] [95] HEARTBEAT
[23:49:04.978373] [96] ATTITUDE_TARGET
[23:49:05.421375] [97] VFR_HUD
[23:49:05.760420] [85] RADIO
[23:49:05.763492] [85] RADIO_STATUS
[23:49:05.996465] [98] HEARTBEAT
[23:49:06.230534] [99] VFR_HUD
[23:49:06.679491] [86] RADIO
[23:49:06.682462] [86] RADIO_STATUS
[23:49:07.037668] [100] HEARTBEAT
[23:49:07.044676] [101] SYS_STATUS
[23:49:07.162679] [102] BATTERY_STATUS
[23:49:07.164686] [103] EXTENDED_SYS_STATE
[23:49:07.283570] [104] ATTITUDE_TARGET
[23:49:07.288578] [105] VFR_HUD
[23:49:07.293217] [106] SYSTEM_TIME
[23:49:07.719635] [87] RADIO
[23:49:07.722586] [87] RADIO_STATUS
[23:49:08.535785] [109] VFR_HUD
[23:49:08.650775] [88] RADIO
[23:49:08.653849] [88] RADIO_STATUS
[23:49:09.455844] [112] VFR_HUD
[23:49:09.669865] [89] RADIO
[23:49:09.672994] [89] RADIO_STATUS
[23:49:10.015987] [113] HEARTBEAT
[23:49:10.708977] [90] RADIO
[23:49:10.711969] [90] RADIO_STATUS
[23:49:10.947052] [115] HEARTBEAT
[23:49:10.953945] [116] SYS_STATUS
[23:49:11.074093] [117] BATTERY_STATUS
[23:49:11.185995] [118] ATTITUDE_TARGET
[23:49:11.190952] [119] VFR_HUD
[23:49:11.633996] [91] RADIO
[23:49:11.636985] [91] RADIO_STATUS
[23:49:11.751470] [120] VFR_HUD
[23:49:11.980090] [121] HEARTBEAT
[23:49:12.658104] [92] RADIO
[23:49:12.661056] [92] RADIO_STATUS
[23:49:13.018202] [123] HEARTBEAT
[23:49:13.026245] [124] ATTITUDE_TARGET
[23:49:13.359258] [125] VFR_HUD
[23:49:13.808240] [93] RADIO
[23:49:13.810234] [93] RADIO_STATUS
[23:49:14.049204] [126] HEARTBEAT
[23:49:14.158320] [127] VFR_HUD
[23:49:14.727245] [94] RADIO
[23:49:14.730250] [94] RADIO_STATUS
[23:49:14.975360] [128] HEARTBEAT
[23:49:14.982346] [129] SYS_STATUS
[23:49:15.102605] [130] BATTERY_STATUS
[23:49:15.109288] [131] ATTITUDE_TARGET
[23:49:15.139238] [132] VFR_HUD
[23:49:15.647488] [95] RADIO
[23:49:15.650251] [95] RADIO_STATUS
[23:49:15.768359] [133] VFR_HUD
[23:49:16.582453] [135] VFR_HUD
[23:49:16.703349] [96] RADIO
[23:49:16.706381] [96] RADIO_STATUS
[23:49:17.377468] [138] VFR_HUD
[23:49:17.716489] [97] RADIO
[23:49:17.719449] [97] RADIO_STATUS
[23:49:17.952576] [139] HEARTBEAT
[23:49:18.761567] [98] RADIO
[23:49:18.764487] [98] RADIO_STATUS
[23:49:18.994600] [141] HEARTBEAT
[23:49:19.001564] [142] SYS_STATUS
[23:49:19.121612] [143] BATTERY_STATUS
[23:49:19.233631] [144] ATTITUDE_TARGET
[23:49:19.238561] [145] VFR_HUD
[23:49:19.681622] [99] RADIO
[23:49:19.684577] [99] RADIO_STATUS
[23:49:19.801724] [146] VFR_HUD
[23:49:20.022697] [147] HEARTBEAT
[23:49:20.705806] [100] RADIO
[23:49:20.708680] [100] RADIO_STATUS
[23:49:20.955798] [149] HEARTBEAT
[23:49:20.963817] [150] ATTITUDE_TARGET
[23:49:21.405802] [151] VFR_HUD
[23:49:21.858925] [101] RADIO
[23:49:21.862093] [101] RADIO_STATUS
[23:49:21.971880] [152] HEARTBEAT
[23:49:22.206054] [153] VFR_HUD
[23:49:22.664895] [102] RADIO
[23:49:22.667870] [102] RADIO_STATUS
[23:49:23.024155] [154] HEARTBEAT
[23:49:23.029933] [155] SYS_STATUS
[23:49:23.149003] [156] BATTERY_STATUS
[23:49:23.156955] [157] ATTITUDE_TARGET
[23:49:23.186968] [158] VFR_HUD
[23:49:23.695059] [103] RADIO
[23:49:23.697970] [103] RADIO_STATUS
[23:49:23.816001] [159] VFR_HUD
[23:49:24.625151] [161] VFR_HUD
[23:49:24.740194] [104] RADIO
[23:49:24.743167] [104] RADIO_STATUS
[23:49:24.975198] [162] HEARTBEAT
[23:49:24.982193] [163] ATTITUDE_TARGET
[23:49:25.425257] [164] VFR_HUD
[23:49:25.764194] [105] RADIO
[23:49:25.767226] [105] RADIO_STATUS
[23:49:26.000227] [165] HEARTBEAT
[23:49:26.684326] [106] RADIO
[23:49:26.687246] [106] RADIO_STATUS
[23:49:27.042346] [167] HEARTBEAT
[23:49:27.049309] [168] SYS_STATUS
[23:49:27.167346] [169] BATTERY_STATUS
[23:49:27.169454] [170] EXTENDED_SYS_STATE
[23:49:27.288322] [171] ATTITUDE_TARGET
[23:49:27.293317] [172] VFR_HUD
[23:49:27.297316] [173] SYSTEM_TIME
[23:49:27.724345] [107] RADIO
[23:49:27.727317] [107] RADIO_STATUS
[23:49:27.850398] [174] VFR_HUD
[23:49:27.962452] [175] HEARTBEAT
[23:49:28.546536] [176] VFR_HUD
[23:49:28.753537] [108] RADIO
[23:49:28.756505] [108] RADIO_STATUS
[23:49:29.003524] [177] HEARTBEAT
[23:49:29.011475] [178] ATTITUDE_TARGET
[23:49:29.563548] [179] VFR_HUD
[23:49:29.902527] [109] RADIO
[23:49:29.905466] [109] RADIO_STATUS
[23:49:29.937545] [180] HEARTBEAT
[23:49:30.143601] [181] VFR_HUD
[23:49:30.713527] [110] RADIO
[23:49:30.715626] [110] RADIO_STATUS
[23:49:31.072730] [184] BATTERY_STATUS
[23:49:31.189666] [185] ATTITUDE_TARGET
[23:49:31.194624] [186] VFR_HUD
[23:49:31.742849] [111] RADIO
[23:49:31.745726] [111] RADIO_STATUS
[23:49:31.863702] [187] VFR_HUD
[23:49:31.993793] [188] HEARTBEAT
[23:49:32.552843] [189] VFR_HUD
[23:49:32.781881] [112] RADIO
[23:49:32.784878] [112] RADIO_STATUS
[23:49:33.021974] [190] HEARTBEAT
[23:49:33.029911] [191] ATTITUDE_TARGET
[23:49:33.362884] [192] VFR_HUD
[23:49:33.702025] [113] RADIO
[23:49:33.704902] [113] RADIO_STATUS
[23:49:33.928060] [193] HEARTBEAT
[23:49:34.163054] [194] VFR_HUD
[23:49:34.732048] [114] RADIO
[23:49:34.734995] [114] RADIO_STATUS
[23:49:34.985188] [195] HEARTBEAT
[23:49:34.992083] [196] SYS_STATUS
[23:49:35.032098] [197] BATTERY_STATUS
[23:49:35.039129] [198] ATTITUDE_TARGET
[23:49:35.044046] [199] VFR_HUD
[23:49:35.772113] [115] RADIO
[23:49:35.775136] [115] RADIO_STATUS
[23:49:36.008277] [200] VFR_HUD
[23:49:36.013374] [201] HEARTBEAT
[23:49:36.801317] [116] RADIO
[23:49:36.804196] [116] RADIO_STATUS
[23:49:37.056308] [203] HEARTBEAT
[23:49:37.064263] [204] ATTITUDE_TARGET
[23:49:37.382432] [205] VFR_HUD
[23:49:37.721334] [117] RADIO
[23:49:37.724281] [117] RADIO_STATUS
[23:49:37.957387] [206] HEARTBEAT
[23:49:38.197386] [207] VFR_HUD
[23:49:38.766428] [118] RADIO
[23:49:38.768393] [118] RADIO_STATUS
[23:49:39.125565] [210] BATTERY_STATUS
[23:49:39.241798] [211] ATTITUDE_TARGET
[23:49:39.242469] [212] VFR_HUD
[23:49:39.790591] [119] RADIO
[23:49:39.793586] [119] RADIO_STATUS
[23:49:39.911748] [213] VFR_HUD
[23:49:39.929554] [214] HEARTBEAT
[23:49:40.601536] [215] VFR_HUD
[23:49:40.830525] [120] RADIO
[23:49:40.833550] [120] RADIO_STATUS
[23:49:40.960598] [216] HEARTBEAT
[23:49:40.967806] [217] ATTITUDE_TARGET
[23:49:41.410592] [218] VFR_HUD
[23:49:41.755798] [121] RADIO
[23:49:41.758628] [121] RADIO_STATUS
[23:49:41.976721] [219] HEARTBEAT
[23:49:42.210735] [220] VFR_HUD
[23:49:42.779806] [122] RADIO
[23:49:42.782797] [122] RADIO_STATUS
[23:49:43.027787] [221] HEARTBEAT
[23:49:43.034806] [222] SYS_STATUS
[23:49:43.153863] [223] BATTERY_STATUS
[23:49:43.161811] [224] ATTITUDE_TARGET
[23:49:43.191795] [225] VFR_HUD
[23:49:43.819923] [226] VFR_HUD
[23:49:43.851887] [123] RADIO
[23:49:43.854920] [123] RADIO_STATUS
[23:49:43.935884] [227] HEARTBEAT
[23:49:44.849005] [124] RADIO
[23:49:44.852067] [124] RADIO_STATUS
[23:49:44.979040] [229] HEARTBEAT
[23:49:44.987202] [230] ATTITUDE_TARGET
[23:49:45.430013] [231] VFR_HUD
[23:49:45.769539] [125] RADIO
[23:49:45.772083] [125] RADIO_STATUS
[23:49:46.005279] [232] HEARTBEAT
[23:49:46.245253] [233] VFR_HUD
[23:49:46.814219] [126] RADIO
[23:49:46.817198] [126] RADIO_STATUS
[23:49:47.171256] [236] BATTERY_STATUS
[23:49:47.173183] [237] EXTENDED_SYS_STATE
[23:49:47.292247] [238] ATTITUDE_TARGET
[23:49:47.297246] [239] VFR_HUD
[23:49:47.301295] [240] SYSTEM_TIME
[23:49:47.838312] [127] RADIO
[23:49:47.841249] [127] RADIO_STATUS
[23:49:47.877261] [241] VFR_HUD
[23:49:47.954284] [242] HEARTBEAT
[23:49:48.539350] [243] VFR_HUD
[23:49:48.883386] [128] RADIO
[23:49:48.886343] [128] RADIO_STATUS
[23:49:49.008547] [244] HEARTBEAT
[23:49:49.016408] [245] ATTITUDE_TARGET
[23:49:49.798439] [129] RADIO
[23:49:49.801447] [129] RADIO_STATUS
[23:49:50.024524] [247] HEARTBEAT
[23:49:50.148553] [248] VFR_HUD
[23:49:50.828592] [130] RADIO
[23:49:50.831846] [130] RADIO_STATUS
[23:49:50.956638] [249] HEARTBEAT
[23:49:50.963616] [250] SYS_STATUS
[23:49:51.077675] [251] BATTERY_STATUS
[23:49:51.195769] [252] ATTITUDE_TARGET
[23:49:51.200609] [253] VFR_HUD
[23:49:51.758880] [254] VFR_HUD
[23:49:51.876751] [131] RADIO
[23:49:51.879706] [131] RADIO_STATUS
[23:49:52.001737] [255] HEARTBEAT
[23:49:52.558945] [0] VFR_HUD
[23:49:52.897776] [132] RADIO
[23:49:52.900786] [132] RADIO_STATUS
[23:49:52.931798] [1] HEARTBEAT
[23:49:52.954883] [2] ATTITUDE_TARGET
[23:49:53.373865] [3] VFR_HUD
[23:49:53.817957] [133] RADIO
[23:49:53.820915] [133] RADIO_STATUS
[23:49:54.168984] [5] VFR_HUD
[23:49:54.857992] [134] RADIO
[23:49:54.860996] [134] RADIO_STATUS
[23:49:55.037975] [8] BATTERY_STATUS
[23:49:55.046094] [9] ATTITUDE_TARGET
[23:49:55.051121] [10] VFR_HUD
[23:49:55.886244] [135] RADIO
[23:49:55.889021] [135] RADIO_STATUS
[23:49:55.965072] [11] VFR_HUD
[23:49:55.968085] [12] HEARTBEAT
[23:49:56.592121] [13] VFR_HUD
[23:49:56.926274] [136] RADIO
[23:49:56.929168] [136] RADIO_STATUS
[23:49:57.061203] [14] HEARTBEAT
[23:49:57.069173] [15] ATTITUDE_TARGET
[23:49:57.846249] [137] RADIO
[23:49:57.849172] [137] RADIO_STATUS
[23:49:57.967301] [17] HEARTBEAT
[23:49:58.196259] [18] VFR_HUD
[23:49:58.875414] [138] RADIO
[23:49:58.878434] [138] RADIO_STATUS
[23:49:59.003449] [19] HEARTBEAT
[23:49:59.010408] [20] SYS_STATUS
[23:49:59.130467] [21] BATTERY_STATUS
[23:49:59.244356] [22] ATTITUDE_TARGET
[23:49:59.247380] [23] VFR_HUD
[23:49:59.806497] [24] VFR_HUD
[23:49:59.915523] [139] RADIO
[23:49:59.918417] [139] RADIO_STATUS
[23:50:00.036584] [25] HEARTBEAT
[23:50:00.605565] [26] VFR_HUD
[23:50:00.945744] [140] RADIO
[23:50:00.948541] [140] RADIO_STATUS
[23:50:00.993978] [27] HEARTBEAT
[23:50:01.000594] [28] ATTITUDE_TARGET
[23:50:01.415695] [29] VFR_HUD
[23:50:01.864814] [141] RADIO
[23:50:01.867668] [141] RADIO_STATUS
[23:50:02.215744] [31] VFR_HUD
[23:50:02.904902] [142] RADIO
[23:50:02.907743] [142] RADIO_STATUS
