[22:43:00.728391] [156] VFR_HUD
[22:43:01.202419] [157] HEARTBEAT
[22:43:01.210416] [158] ATTITUDE_TARGET
[22:43:01.528379] [159] VFR_HUD
[22:43:01.560424] [144] RADIO
[22:43:01.563384] [144] RADIO_STATUS
[22:43:02.108469] [160] HEARTBEAT
[22:43:02.337447] [161] VFR_HUD
[22:43:02.452539] [145] RADIO
[22:43:02.455477] [145] RADIO_STATUS
[22:43:03.145633] [162] HEARTBEAT
[22:43:03.151634] [163] SYS_STATUS
[22:43:03.271583] [164] BATTERY_STATUS
[22:43:03.384525] [165] ATTITUDE_TARGET
[22:43:03.389481] [166] VFR_HUD
[22:43:03.476522] [146] RADIO
[22:43:03.479479] [146] RADIO_STATUS
[22:43:03.947617] [167] VFR_HUD
[22:43:04.177761] [168] HEARTBEAT
[22:43:04.521708] [147] RADIO
[22:43:04.524713] [147] RADIO_STATUS
[22:43:04.746799] [169] VFR_HUD
[22:43:05.215762] [170] HEARTBEAT
[22:43:05.223985] [171] ATTITUDE_TARGET
[22:43:05.441819] [148] RADIO
[22:43:05.444731] [148] RADIO_STATUS
[22:43:05.556894] [172] VFR_HUD
[22:43:06.121917] [173] HEARTBEAT
[22:43:06.356948] [174] VFR_HUD
[22:43:06.465933] [149] RADIO
[22:43:06.468868] [149] RADIO_STATUS
[22:43:07.179047] [175] HEARTBEAT
[22:43:07.186100] [176] SYS_STATUS
[22:43:07.220011] [177] BATTERY_STATUS
[22:43:07.221945] [178] EXTENDED_SYS_STATE
[22:43:07.230047] [179] ATTITUDE_TARGET
[22:43:07.235059] [180] VFR_HUD
[22:43:07.238006] [181] SYSTEM_TIME
[22:43:07.511269] [150] RADIO
[22:43:07.514118] [150] RADIO_STATUS
[22:43:07.966051] [182] VFR_HUD
[22:43:08.192167] [183] HEARTBEAT
[22:43:08.535135] [151] RADIO
[22:43:08.538230] [151] RADIO_STATUS
[22:43:08.781144] [184] VFR_HUD
[22:43:09.116382] [185] HEARTBEAT
[22:43:09.139243] [186] ATTITUDE_TARGET
[22:43:09.455299] [152] RADIO
[22:43:09.458281] [152] RADIO_STATUS
[22:43:09.575384] [187] VFR_HUD
[22:43:10.151419] [188] HEARTBEAT
[22:43:10.390384] [189] VFR_HUD
[22:43:10.511630] [153] RADIO
[22:43:10.514401] [153] RADIO_STATUS
[22:43:11.192564] [190] HEARTBEAT
[22:43:11.199500] [191] SYS_STATUS
[22:43:11.319458] [192] BATTERY_STATUS
[22:43:11.431467] [193] ATTITUDE_TARGET
[22:43:11.436474] [194] VFR_HUD
[22:43:11.524530] [154] RADIO
[22:43:11.527430] [154] RADIO_STATUS
[22:43:11.995524] [195] VFR_HUD
[22:43:12.105598] [196] HEARTBEAT
[22:43:12.569681] [155] RADIO
[22:43:12.572739] [155] RADIO_STATUS
[22:43:12.794970] [197] VFR_HUD
[22:43:13.154655] [198] HEARTBEAT
[22:43:13.161671] [199] ATTITUDE_TARGET
[22:43:13.483730] [156] RADIO
[22:43:13.486691] [156] RADIO_STATUS
[22:43:13.604718] [200] VFR_HUD
[22:43:14.170991] [201] HEARTBEAT
[22:43:14.404791] [202] VFR_HUD
[22:43:14.513893] [157] RADIO
[22:43:14.516822] [157] RADIO_STATUS
[22:43:15.221982] [203] HEARTBEAT
[22:43:15.228913] [204] SYS_STATUS
[22:43:15.348067] [205] BATTERY_STATUS
[22:43:15.355019] [206] ATTITUDE_TARGET
[22:43:15.385916] [207] VFR_HUD
[22:43:15.553934] [158] RADIO
[22:43:15.556998] [158] RADIO_STATUS
[22:43:16.013995] [208] VFR_HUD
[22:43:16.130064] [209] HEARTBEAT
[22:43:16.583101] [159] RADIO
[22:43:16.586037] [159] RADIO_STATUS
[22:43:16.824163] [210] VFR_HUD
[22:43:17.173242] [211] HEARTBEAT
[22:43:17.181179] [212] ATTITUDE_TARGET
[22:43:17.503208] [160] RADIO
[22:43:17.506289] [160] RADIO_STATUS
[22:43:17.542204] [213] VFR_HUD
[22:43:18.199262] [214] HEARTBEAT
[22:43:18.319414] [215] VFR_HUD
[22:43:18.543368] [161] RADIO
[22:43:18.546417] [161] RADIO_STATUS
[22:43:19.131488] [216] HEARTBEAT
[22:43:19.138416] [217] SYS_STATUS
[22:43:19.256430] [218] BATTERY_STATUS
[22:43:19.264479] [219] ATTITUDE_TARGET
[22:43:19.294418] [220] VFR_HUD
[22:43:19.573434] [162] RADIO
[22:43:19.576410] [162] RADIO_STATUS
[22:43:19.923444] [221] VFR_HUD
[22:43:20.149492] [222] HEARTBEAT
[22:43:20.612680] [163] RADIO
[22:43:20.615509] [163] RADIO_STATUS
[22:43:20.733772] [223] VFR_HUD
[22:43:21.202661] [224] HEARTBEAT
[22:43:21.210637] [225] ATTITUDE_TARGET
[22:43:21.533644] [226] VFR_HUD
[22:43:21.560731] [164] RADIO
[22:43:21.563752] [164] RADIO_STATUS
[22:43:22.218842] [227] HEARTBEAT
[22:43:22.342797] [228] VFR_HUD
[22:43:22.562824] [165] RADIO
[22:43:22.565748] [165] RADIO_STATUS
[22:43:23.150901] [229] HEARTBEAT
[22:43:23.157839] [230] SYS_STATUS
[22:43:23.271895] [231] BATTERY_STATUS
[22:43:23.389949] [232] ATTITUDE_TARGET
[22:43:23.395022] [233] VFR_HUD
[22:43:23.601904] [166] RADIO
[22:43:23.604906] [166] RADIO_STATUS
[22:43:23.953000] [234] VFR_HUD
[22:43:24.184037] [235] HEARTBEAT
[22:43:24.528854] [167] RADIO
[22:43:24.529907] [167] RADIO_STATUS
[22:43:24.753065] [236] VFR_HUD
[22:43:25.222132] [237] HEARTBEAT
[22:43:25.230103] [238] ATTITUDE_TARGET
[22:43:25.551396] [168] RADIO
[22:43:25.554165] [168] RADIO_STATUS
[22:43:25.590182] [239] VFR_HUD
[22:43:26.128199] [240] HEARTBEAT
[22:43:26.362411] [241] VFR_HUD
[22:43:26.591287] [169] RADIO
[22:43:26.594394] [169] RADIO_STATUS
[22:43:27.184297] [242] HEARTBEAT
[22:43:27.191412] [243] SYS_STATUS
[22:43:27.225482] [244] BATTERY_STATUS
[22:43:27.227356] [245] EXTENDED_SYS_STATE
[22:43:27.235301] [246] ATTITUDE_TARGET
[22:43:27.240344] [247] VFR_HUD
[22:43:27.243258] [248] SYSTEM_TIME
[22:43:27.621291] [170] RADIO
[22:43:27.624233] [170] RADIO_STATUS
[22:43:27.972337] [249] VFR_HUD
[22:43:28.197366] [250] HEARTBEAT
[22:43:28.661406] [171] RADIO
[22:43:28.664348] [171] RADIO_STATUS
[22:43:28.786460] [251] VFR_HUD
[22:43:29.117439] [252] HEARTBEAT
[22:43:29.139522] [253] ATTITUDE_TARGET
[22:43:29.581572] [254] VFR_HUD
[22:43:29.613644] [172] RADIO
[22:43:29.616600] [172] RADIO_STATUS
[22:43:30.161487] [255] HEARTBEAT
[22:43:30.391632] [0] VFR_HUD
[22:43:30.610590] [173] RADIO
[22:43:30.613544] [173] RADIO_STATUS
[22:43:31.198663] [1] HEARTBEAT
[22:43:31.205740] [2] SYS_STATUS
[22:43:31.324802] [3] BATTERY_STATUS
[22:43:31.556666] [4] ATTITUDE_TARGET
[22:43:31.561703] [5] VFR_HUD
[22:43:31.655685] [174] RADIO
[22:43:31.657613] [174] RADIO_STATUS
[22:43:32.001391] [6] VFR_HUD
[22:43:32.231740] [7] HEARTBEAT
[22:43:32.574817] [175] RADIO
[22:43:32.578026] [175] RADIO_STATUS
[22:43:32.800832] [8] VFR_HUD
[22:43:33.159767] [9] HEARTBEAT
[22:43:33.167955] [10] ATTITUDE_TARGET
[22:43:33.599867] [176] RADIO
[22:43:33.602829] [176] RADIO_STATUS
[22:43:33.719822] [11] VFR_HUD
[22:43:34.175893] [12] HEARTBEAT
[22:43:34.644971] [177] RADIO
[22:43:34.648411] [177] RADIO_STATUS
[22:43:35.669049] [178] RADIO
[22:43:35.671997] [178] RADIO_STATUS
[22:43:36.020141] [19] VFR_HUD
[22:43:36.135113] [20] HEARTBEAT
[22:43:36.714177] [179] RADIO
[22:43:36.717235] [179] RADIO_STATUS
[22:43:36.939208] [21] VFR_HUD
[22:43:37.178246] [22] HEARTBEAT
[22:43:37.186230] [23] ATTITUDE_TARGET
[22:43:37.738339] [180] RADIO
[22:43:37.741266] [180] RADIO_STATUS
[22:43:38.319405] [26] VFR_HUD
[22:43:38.658398] [181] RADIO
[22:43:38.661399] [181] RADIO_STATUS
[22:43:39.136602] [27] HEARTBEAT
[22:43:39.143504] [28] SYS_STATUS
[22:43:39.261463] [29] BATTERY_STATUS
[22:43:39.269454] [30] ATTITUDE_TARGET
[22:43:39.299483] [31] VFR_HUD
[22:43:39.703533] [182] RADIO
[22:43:39.706528] [182] RADIO_STATUS
[22:43:39.940568] [32] VFR_HUD
[22:43:40.153621] [33] HEARTBEAT
[22:43:40.617636] [183] RADIO
[22:43:40.620562] [183] RADIO_STATUS
[22:43:40.737620] [34] VFR_HUD
[22:43:41.207659] [35] HEARTBEAT
[22:43:41.215654] [36] ATTITUDE_TARGET
[22:43:41.537740] [37] VFR_HUD
[22:43:41.647662] [184] RADIO
[22:43:41.649702] [184] RADIO_STATUS
[22:43:42.347818] [39] VFR_HUD
[22:43:42.686865] [185] RADIO
[22:43:42.689848] [185] RADIO_STATUS
[22:43:43.154869] [40] HEARTBEAT
[22:43:43.161958] [41] SYS_STATUS
[22:43:43.717092] [186] RADIO
[22:43:43.719980] [186] RADIO_STATUS
[22:43:44.066980] [45] VFR_HUD
[22:43:44.182994] [46] HEARTBEAT
[22:43:44.637018] [187] RADIO
[22:43:44.639947] [187] RADIO_STATUS
[22:43:44.757045] [47] VFR_HUD
[22:43:45.144087] [49] ATTITUDE_TARGET
[22:43:45.787274] [188] RADIO
[22:43:45.789212] [188] RADIO_STATUS
[22:43:46.133275] [51] HEARTBEAT
[22:43:46.367299] [52] VFR_HUD
[22:43:46.706418] [189] RADIO
[22:43:46.709308] [189] RADIO_STATUS
[22:43:47.746463] [190] RADIO
[22:43:47.749432] [190] RADIO_STATUS
[22:43:48.202546] [61] HEARTBEAT
[22:43:48.666566] [191] RADIO
[22:43:48.669472] [191] RADIO_STATUS
[22:43:48.786519] [62] VFR_HUD
[22:43:49.260661] [63] HEARTBEAT
[22:43:49.268657] [64] ATTITUDE_TARGET
[22:43:49.586593] [65] VFR_HUD
[22:43:49.696593] [192] RADIO
[22:43:49.699605] [192] RADIO_STATUS
[22:43:50.396729] [67] VFR_HUD
[22:43:50.736807] [193] RADIO
[22:43:50.738773] [193] RADIO_STATUS
[22:43:51.204932] [68] HEARTBEAT
[22:43:51.211782] [69] SYS_STATUS
[22:43:51.765828] [194] RADIO
[22:43:51.768849] [194] RADIO_STATUS
[22:43:52.113027] [74] HEARTBEAT
[22:43:52.686039] [195] RADIO
[22:43:52.688990] [195] RADIO_STATUS
[22:43:52.724902] [75] VFR_HUD
[22:43:53.836104] [196] RADIO
[22:43:53.839037] [196] RADIO_STATUS
[22:43:53.869763] JAMMING_START
[22:43:54.182168] [79] HEARTBEAT
[22:43:54.417120] [80] VFR_HUD
[22:43:54.756076] [197] RADIO
[22:43:54.759050] [197] RADIO_STATUS
[22:43:55.107198] [81] HEARTBEAT
[22:43:55.127162] [82] SYS_STATUS
[22:43:55.171277] [83] BATTERY_STATUS
[22:43:55.178133] [84] ATTITUDE_TARGET
[22:43:55.183138] [85] VFR_HUD
[22:43:55.797283] [198] RADIO
[22:43:55.800149] [198] RADIO_STATUS
[22:43:56.263301] [86] VFR_HUD
[22:43:56.266249] [87] HEARTBEAT
[22:43:56.718306] [88] VFR_HUD
[22:43:56.750321] [199] RADIO
[22:43:56.753317] [199] RADIO_STATUS
[22:43:57.312348] [89] HEARTBEAT
[22:43:57.319384] [90] ATTITUDE_TARGET
[22:43:57.747491] [200] RADIO
[22:43:57.750357] [200] RADIO_STATUS
[22:43:58.792476] [201] RADIO
[22:43:58.795541] [201] RADIO_STATUS
[22:43:59.145603] [94] HEARTBEAT
[22:43:59.152544] [95] SYS_STATUS
[22:43:59.270585] [96] BATTERY_STATUS
[22:43:59.278528] [97] ATTITUDE_TARGET
[22:43:59.308533] [98] VFR_HUD
[22:43:59.712567] [202] RADIO
[22:43:59.715620] [202] RADIO_STATUS
[22:43:59.937675] [99] VFR_HUD
[22:44:00.163684] [100] HEARTBEAT
[22:44:00.736873] [203] RADIO
[22:44:00.739925] [203] RADIO_STATUS
[22:44:00.857761] [101] VFR_HUD
[22:44:01.326789] [102] HEARTBEAT
[22:44:01.333888] [103] ATTITUDE_TARGET
[22:44:01.547817] [104] VFR_HUD
[22:44:01.886864] [204] RADIO
[22:44:01.889871] [204] RADIO_STATUS
[22:44:02.466922] [106] VFR_HUD
[22:44:02.806926] [205] RADIO
[22:44:02.809027] [205] RADIO_STATUS
[22:44:03.165046] [107] HEARTBEAT
[22:44:03.172045] [108] SYS_STATUS
[22:44:03.286943] [109] BATTERY_STATUS
[22:44:03.403974] [110] ATTITUDE_TARGET
[22:44:03.409082] [111] VFR_HUD
[22:44:03.729892] [206] RADIO
[22:44:03.730097] [206] RADIO_STATUS
[22:44:04.196457] [113] HEARTBEAT
[22:44:04.767136] [114] VFR_HUD
[22:44:04.799323] [207] RADIO
[22:44:04.802158] [207] RADIO_STATUS
[22:44:05.687293] [117] VFR_HUD
[22:44:05.796384] [208] RADIO
[22:44:05.799242] [208] RADIO_STATUS
[22:44:06.142306] [118] HEARTBEAT
[22:44:06.841404] [209] RADIO
[22:44:06.844414] [209] RADIO_STATUS
[22:44:07.194786] [120] HEARTBEAT
[22:44:07.200505] [121] SYS_STATUS
[22:44:07.322454] [122] BATTERY_STATUS
[22:44:07.324398] [123] EXTENDED_SYS_STATE
[22:44:07.332427] [124] ATTITUDE_TARGET
[22:44:07.336457] [125] VFR_HUD
[22:44:07.340553] [126] SYSTEM_TIME
[22:44:07.755533] [210] RADIO
[22:44:07.758550] [210] RADIO_STATUS
[22:44:07.986540] [127] VFR_HUD
[22:44:08.788772] [211] RADIO
[22:44:08.788995] [211] RADIO_STATUS
[22:44:08.906634] [129] VFR_HUD
[22:44:09.145624] [130] HEARTBEAT
[22:44:09.153651] [131] ATTITUDE_TARGET
[22:44:09.596694] [132] VFR_HUD
[22:44:09.935676] [212] RADIO
[22:44:09.938814] [212] RADIO_STATUS
[22:44:10.181779] [133] HEARTBEAT
[22:44:10.745872] [213] RADIO
[22:44:10.748824] [213] RADIO_STATUS
[22:44:11.213943] [135] HEARTBEAT
[22:44:11.219841] [136] SYS_STATUS
[22:44:11.454086] [138] ATTITUDE_TARGET
[22:44:11.457858] [139] VFR_HUD
[22:44:11.774900] [214] RADIO
[22:44:11.777860] [214] RADIO_STATUS
[22:44:12.816221] [142] VFR_HUD
[22:44:12.843120] [215] RADIO
[22:44:12.849841] [215] RADIO_STATUS
[22:44:13.735156] [145] VFR_HUD
[22:44:13.845931] [216] RADIO
[22:44:13.848241] [216] RADIO_STATUS
[22:44:14.191217] [146] HEARTBEAT
[22:44:14.884401] [217] RADIO
[22:44:14.887294] [217] RADIO_STATUS
[22:44:15.116475] [148] HEARTBEAT
[22:44:15.136358] [149] SYS_STATUS
[22:44:15.179432] [150] BATTERY_STATUS
[22:44:15.187534] [151] ATTITUDE_TARGET
[22:44:15.192306] [152] VFR_HUD
[22:44:15.806456] [218] RADIO
[22:44:15.809374] [218] RADIO_STATUS
[22:44:16.272473] [153] VFR_HUD
[22:44:16.275464] [154] HEARTBEAT
[22:44:16.836536] [219] RADIO
[22:44:16.839620] [219] RADIO_STATUS
[22:44:17.196534] [156] HEARTBEAT
[22:44:17.203573] [157] ATTITUDE_TARGET
[22:44:17.536631] [158] VFR_HUD
[22:44:17.875576] [220] RADIO
[22:44:17.878625] [220] RADIO_STATUS
[22:44:18.107644] [159] HEARTBEAT
[22:44:18.336772] [160] VFR_HUD
[22:44:18.795694] [221] RADIO
[22:44:18.798664] [221] RADIO_STATUS
[22:44:19.279839] [163] BATTERY_STATUS
[22:44:19.287791] [164] ATTITUDE_TARGET
[22:44:19.317741] [165] VFR_HUD
[22:44:19.825893] [222] RADIO
[22:44:19.828860] [222] RADIO_STATUS
[22:44:19.946884] [166] VFR_HUD
[22:44:20.761993] [168] VFR_HUD
[22:44:20.876952] [223] RADIO
[22:44:20.879936] [223] RADIO_STATUS
[22:44:21.557208] [171] VFR_HUD
[22:44:21.896084] [224] RADIO
[22:44:21.899018] [224] RADIO_STATUS
[22:44:22.132367] [172] HEARTBEAT
[22:44:22.815197] [225] RADIO
[22:44:22.818254] [225] RADIO_STATUS
[22:44:23.174325] [174] HEARTBEAT
[22:44:23.180240] [175] SYS_STATUS
[22:44:23.300232] [176] BATTERY_STATUS
[22:44:23.413542] [177] ATTITUDE_TARGET
[22:44:23.417242] [178] VFR_HUD
[22:44:23.860396] [226] RADIO
[22:44:23.863308] [226] RADIO_STATUS
[22:44:23.981305] [179] VFR_HUD
[22:44:24.885455] [227] RADIO
[22:44:24.887378] [227] RADIO_STATUS
[22:44:25.244495] [182] HEARTBEAT
[22:44:25.252483] [183] ATTITUDE_TARGET
[22:44:25.585578] [184] VFR_HUD
[22:44:26.034613] [228] RADIO
[22:44:26.037648] [228] RADIO_STATUS
[22:44:26.150668] [185] HEARTBEAT
[22:44:26.385926] [186] VFR_HUD
[22:44:26.849716] [229] RADIO
[22:44:26.852637] [229] RADIO_STATUS
[22:44:27.331823] [189] BATTERY_STATUS
[22:44:27.332737] [190] EXTENDED_SYS_STATE
[22:44:27.340743] [191] ATTITUDE_TARGET
[22:44:27.346124] [192] VFR_HUD
[22:44:27.349828] [193] SYSTEM_TIME
[22:44:27.874778] [230] RADIO
[22:44:27.877756] [230] RADIO_STATUS
[22:44:27.912770] [194] VFR_HUD
[22:44:28.920027] [231] RADIO
[22:44:28.922929] [231] RADIO_STATUS
[22:44:29.155027] [197] HEARTBEAT
[22:44:29.162006] [198] ATTITUDE_TARGET
[22:44:29.604951] [199] VFR_HUD
[22:44:29.840004] [232] RADIO
[22:44:29.841940] [232] RADIO_STATUS
[22:44:30.181045] [200] HEARTBEAT
[22:44:30.864186] [233] RADIO
[22:44:30.867124] [233] RADIO_STATUS
[22:44:31.235295] [203] SYS_STATUS
[22:44:31.243212] [204] BATTERY_STATUS
[22:44:31.352244] [205] ATTITUDE_TARGET
[22:44:31.357229] [206] VFR_HUD
[22:44:31.910374] [234] RADIO
[22:44:31.913281] [234] RADIO_STATUS
[22:44:32.135351] [207] VFR_HUD
[22:44:32.142335] [208] HEARTBEAT
[22:44:32.934446] [235] RADIO
[22:44:32.937512] [235] RADIO_STATUS
[22:44:33.294566] [210] HEARTBEAT
[22:44:33.301494] [211] ATTITUDE_TARGET
[22:44:33.515558] [212] VFR_HUD
[22:44:33.979540] [236] RADIO
[22:44:33.982520] [236] RADIO_STATUS
[22:44:34.200704] [213] HEARTBEAT
[22:44:34.894704] [237] RADIO
[22:44:34.897689] [237] RADIO_STATUS
[22:44:35.371721] [218] ATTITUDE_TARGET
[22:44:35.376679] [219] VFR_HUD
[22:44:35.924774] [238] RADIO
[22:44:35.927723] [238] RADIO_STATUS
[22:44:36.045905] [220] VFR_HUD
[22:44:36.734958] [222] VFR_HUD
[22:44:36.969989] [239] RADIO
[22:44:36.972873] [239] RADIO_STATUS
[22:44:37.204990] [223] HEARTBEAT
[22:44:37.212939] [224] ATTITUDE_TARGET
[22:44:37.884179] [240] RADIO
[22:44:37.887037] [240] RADIO_STATUS
[22:44:38.111251] [226] HEARTBEAT
[22:44:38.356206] [227] VFR_HUD
[22:44:38.914188] [241] RADIO
[22:44:38.917188] [241] RADIO_STATUS
[22:44:39.954410] [242] RADIO
[22:44:39.957316] [242] RADIO_STATUS
[22:44:40.190338] [233] VFR_HUD
[22:44:40.193956] [234] HEARTBEAT
[22:44:40.984466] [243] RADIO
[22:44:40.987373] [243] RADIO_STATUS
[22:44:41.105434] [236] HEARTBEAT
[22:44:41.128526] [237] ATTITUDE_TARGET
[22:44:41.565561] [238] VFR_HUD
[22:44:41.904521] [244] RADIO
[22:44:41.907538] [244] RADIO_STATUS
[22:44:42.140644] [239] HEARTBEAT
[22:44:42.484617] [240] VFR_HUD
[22:44:42.943591] [245] RADIO
[22:44:42.946592] [245] RADIO_STATUS
[22:44:43.308750] [243] BATTERY_STATUS
[22:44:43.421690] [244] ATTITUDE_TARGET
[22:44:43.426690] [245] VFR_HUD
[22:44:43.973806] [246] RADIO
[22:44:43.976718] [246] RADIO_STATUS
[22:44:44.094910] [246] VFR_HUD
[22:44:44.112737] [247] HEARTBEAT
[22:44:44.784965] [248] VFR_HUD
[22:44:44.893900] [247] RADIO
[22:44:44.896916] [247] RADIO_STATUS
[22:44:45.143892] [249] HEARTBEAT
[22:44:45.150945] [250] ATTITUDE_TARGET
[22:44:45.594033] [251] VFR_HUD
[22:44:45.934071] [248] RADIO
[22:44:45.937006] [248] RADIO_STATUS
[22:44:46.160099] [252] HEARTBEAT
[22:44:46.394024] [253] VFR_HUD
[22:44:46.963170] [249] RADIO
[22:44:46.966080] [249] RADIO_STATUS
[22:44:47.212171] [254] HEARTBEAT
[22:44:47.218189] [255] SYS_STATUS
[22:44:47.340124] [0] BATTERY_STATUS
[22:44:47.342172] [1] EXTENDED_SYS_STATE
[22:44:47.349203] [2] ATTITUDE_TARGET
[22:44:47.354268] [3] VFR_HUD
[22:44:47.358162] [4] SYSTEM_TIME
[22:44:48.004263] [5] VFR_HUD
[22:44:48.031215] [250] RADIO
[22:44:48.034164] [250] RADIO_STATUS
[22:44:48.939409] [251] RADIO
[22:44:48.942255] [251] RADIO_STATUS
[22:44:49.613375] [10] VFR_HUD
[22:44:49.952441] [252] RADIO
[22:44:49.955428] [252] RADIO_STATUS
[22:44:50.533462] [12] VFR_HUD
[22:44:50.997489] [253] RADIO
[22:44:51.000459] [253] RADIO_STATUS
[22:44:52.022591] [254] RADIO
[22:44:52.025541] [254] RADIO_STATUS
[22:44:52.091589] [15] BATTERY_STATUS
[22:44:52.098616] [16] ATTITUDE_TARGET
[22:44:52.103690] [17] VFR_HUD
[22:44:52.108619] [18] VFR_HUD
[22:44:52.117832] [19] HEARTBEAT
[22:44:52.942717] [255] RADIO
[22:44:52.945675] [255] RADIO_STATUS
[22:44:53.192896] [21] HEARTBEAT
[22:44:53.199699] [22] ATTITUDE_TARGET
[22:44:53.988007] [0] RADIO
[22:44:53.990787] [0] RADIO_STATUS
[22:44:54.208890] [24] HEARTBEAT
[22:44:54.332957] [25] VFR_HUD
[22:44:55.011994] [1] RADIO
[22:44:55.014902] [1] RADIO_STATUS
[22:44:55.140967] [26] HEARTBEAT
[22:44:55.146984] [27] SYS_STATUS
[22:44:55.380864] [29] ATTITUDE_TARGET
[22:44:55.384228] [30] VFR_HUD
[22:44:55.943111] [31] VFR_HUD
[22:44:56.057088] [2] RADIO
[22:44:56.060006] [2] RADIO_STATUS
[22:44:56.743256] [33] VFR_HUD
[22:44:56.977099] [3] RADIO
[22:44:56.981902] [3] RADIO_STATUS
[22:44:57.212143] [34] HEARTBEAT
[22:44:57.219175] [35] ATTITUDE_TARGET
[22:44:57.558223] [36] VFR_HUD
[22:44:58.001352] [4] RADIO
[22:44:58.004266] [4] RADIO_STATUS
[22:44:58.352321] [38] VFR_HUD
[22:44:59.046479] [5] RADIO
[22:44:59.049373] [5] RADIO_STATUS
[22:44:59.961546] [6] RADIO
[22:44:59.964507] [6] RADIO_STATUS
[22:45:00.197529] [44] VFR_HUD
[22:45:00.200520] [45] HEARTBEAT
[22:45:00.881563] [46] VFR_HUD
[22:45:00.991671] [7] RADIO
[22:45:00.994754] [7] RADIO_STATUS
[22:45:01.107759] [47] HEARTBEAT
[22:45:01.130554] [48] ATTITUDE_TARGET
[22:45:02.036232] [8] RADIO
[22:45:02.036387] [8] RADIO_STATUS
[22:45:02.153063] [50] HEARTBEAT
[22:45:02.381874] [51] VFR_HUD
[22:45:03.060874] [9] RADIO
[22:45:03.063813] [9] RADIO_STATUS
[22:45:03.189875] [52] HEARTBEAT
[22:45:03.195788] [53] SYS_STATUS
[22:45:03.428903] [55] ATTITUDE_TARGET
[22:45:03.433819] [56] VFR_HUD
[22:45:03.980967] [10] RADIO
[22:45:03.983879] [10] RADIO_STATUS
[22:45:04.102309] [57] VFR_HUD
[22:45:04.129935] [58] HEARTBEAT
[22:45:04.791993] [59] VFR_HUD
[22:45:05.130049] [11] RADIO
[22:45:05.133086] [11] RADIO_STATUS
[22:45:05.178074] [60] HEARTBEAT
[22:45:05.186075] [61] ATTITUDE_TARGET
[22:45:05.612054] [62] VFR_HUD
[22:45:06.050080] [12] RADIO
[22:45:06.053157] [12] RADIO_STATUS
[22:45:06.401178] [64] VFR_HUD
[22:45:07.199218] [13] RADIO
[22:45:07.202146] [13] RADIO_STATUS
[22:45:08.010349] [72] VFR_HUD
[22:45:08.037248] [14] RADIO
[22:45:08.040306] [14] RADIO_STATUS
[22:45:08.125368] [73] HEARTBEAT
[22:45:08.930366] [74] VFR_HUD
[22:45:09.039459] [15] RADIO
[22:45:09.042350] [15] RADIO_STATUS
[22:45:09.169463] [75] HEARTBEAT
[22:45:09.177467] [76] ATTITUDE_TARGET
[22:45:09.624332] [77] VFR_HUD
[22:45:10.079469] [16] RADIO
[22:45:10.082393] [16] RADIO_STATUS
[22:45:10.434576] [79] VFR_HUD
[22:45:11.108552] [17] RADIO
[22:45:11.111837] [17] RADIO_STATUS
[22:45:11.237584] [80] HEARTBEAT
[22:45:11.243677] [81] SYS_STATUS
[22:45:11.476679] [83] ATTITUDE_TARGET
[22:45:11.481688] [84] VFR_HUD
[22:45:12.028662] [18] RADIO
[22:45:12.031828] [18] RADIO_STATUS
[22:45:12.144742] [86] HEARTBEAT
[22:45:12.729720] [87] VFR_HUD
[22:45:13.178805] [19] RADIO
[22:45:13.181842] [19] RADIO_STATUS
[22:45:13.308913] [88] HEARTBEAT
[22:45:13.316851] [89] ATTITUDE_TARGET
[22:45:13.528855] [90] VFR_HUD
[22:45:14.098921] [20] RADIO
[22:45:14.101901] [20] RADIO_STATUS
[22:45:14.339025] [92] VFR_HUD
[22:45:15.248078] [21] RADIO
[22:45:15.251137] [21] RADIO_STATUS
[22:45:16.059251] [98] VFR_HUD
[22:45:16.075224] [22] RADIO
[22:45:16.080846] [22] RADIO_STATUS
[22:45:16.174202] [99] HEARTBEAT
[22:45:16.749527] [100] VFR_HUD
[22:45:17.088321] [23] RADIO
[22:45:17.091262] [23] RADIO_STATUS
[22:45:17.668461] [103] VFR_HUD
[22:45:18.124500] [104] HEARTBEAT
[22:45:18.155460] [24] RADIO
[22:45:18.158470] [24] RADIO_STATUS
[22:45:18.358568] [105] VFR_HUD
[22:45:19.053480] [25] RADIO
[22:45:19.056434] [25] RADIO_STATUS
[22:45:20.077799] [26] RADIO
[22:45:20.080510] [26] RADIO_STATUS
[22:45:20.121566] [111] VFR_HUD
[22:45:20.124509] [112] HEARTBEAT
[22:45:20.778674] [113] VFR_HUD
[22:45:21.228793] [27] RADIO
[22:45:21.230687] [27] RADIO_STATUS
[22:45:21.578732] [116] VFR_HUD
[22:45:22.147690] [28] RADIO
[22:45:22.150630] [28] RADIO_STATUS
[22:45:22.387754] [118] VFR_HUD
[22:45:23.066823] [29] RADIO
[22:45:23.069816] [29] RADIO_STATUS
[22:45:23.195894] [119] HEARTBEAT
[22:45:23.201831] [120] SYS_STATUS
[22:45:24.102983] [125] HEARTBEAT
[22:45:24.135139] [30] RADIO
[22:45:24.138003] [30] RADIO_STATUS
[22:45:24.800945] [126] VFR_HUD
[22:45:25.137247] [31] RADIO
[22:45:25.140061] [31] RADIO_STATUS
[22:45:25.206133] [127] HEARTBEAT
[22:45:25.214096] [128] ATTITUDE_TARGET
[22:45:25.717138] [129] VFR_HUD
[22:45:26.173260] [130] HEARTBEAT
[22:45:26.204156] [32] RADIO
[22:45:26.207147] [32] RADIO_STATUS
[22:45:26.407181] [131] VFR_HUD
[22:45:27.096357] [33] RADIO
[22:45:27.099314] [33] RADIO_STATUS
[22:45:27.282273] [137] VFR_HUD
[22:45:27.286306] [138] SYSTEM_TIME
[22:45:28.017502] [139] VFR_HUD
[22:45:28.126402] [34] RADIO
[22:45:28.129601] [34] RADIO_STATUS
[22:45:28.160440] [140] HEARTBEAT
[22:45:28.712761] [141] VFR_HUD
[22:45:29.275577] [35] RADIO
[22:45:29.278490] [35] RADIO_STATUS
[22:45:30.195694] [36] RADIO
[22:45:30.198582] [36] RADIO_STATUS
[22:45:30.316658] [146] VFR_HUD
[22:45:31.115831] [37] RADIO
[22:45:31.118770] [37] RADIO_STATUS
[22:45:31.243775] [147] HEARTBEAT
[22:45:31.250849] [148] SYS_STATUS
[22:45:31.925983] [152] VFR_HUD
[22:45:32.151893] [153] HEARTBEAT
[22:45:32.264910] [38] RADIO
[22:45:32.267804] [38] RADIO_STATUS
[22:45:32.735927] [154] VFR_HUD
[22:45:33.185045] [39] RADIO
[22:45:33.187934] [39] RADIO_STATUS
[22:45:33.315290] [155] HEARTBEAT
[22:45:33.323079] [156] ATTITUDE_TARGET
[22:45:33.547084] [157] VFR_HUD
[22:45:34.225112] [40] RADIO
[22:45:34.228026] [40] RADIO_STATUS
[22:45:34.455442] [159] VFR_HUD
[22:45:35.153156] [160] HEARTBEAT
[22:45:35.160198] [161] SYS_STATUS
[22:45:35.255282] [41] RADIO
[22:45:35.258199] [41] RADIO_STATUS
[22:45:35.323237] [163] ATTITUDE_TARGET
[22:45:35.327185] [164] VFR_HUD
[22:45:36.174324] [42] RADIO
[22:45:36.177274] [42] RADIO_STATUS
[22:45:36.291313] [166] HEARTBEAT
[22:45:36.755399] [167] VFR_HUD
[22:45:37.324469] [43] RADIO
[22:45:37.327422] [43] RADIO_STATUS
[22:45:37.371531] [168] HEARTBEAT
[22:45:37.379610] [169] ATTITUDE_TARGET
[22:45:38.130542] [171] HEARTBEAT
[22:45:38.244486] [44] RADIO
[22:45:38.249939] [44] RADIO_STATUS
[22:45:38.364544] [172] VFR_HUD
[22:45:39.181588] [173] HEARTBEAT
[22:45:39.189211] [174] SYS_STATUS
[22:45:39.306664] [175] BATTERY_STATUS
[22:45:39.314776] [176] ATTITUDE_TARGET
[22:45:39.344637] [177] VFR_HUD
[22:45:39.366672] [45] RADIO
[22:45:39.369620] [45] RADIO_STATUS
[22:45:39.976042] [178] VFR_HUD
[22:45:40.199900] [179] HEARTBEAT
[22:45:40.312750] [46] RADIO
[22:45:40.315947] [46] RADIO_STATUS
[22:45:40.783865] [180] VFR_HUD
[22:45:41.132956] [181] HEARTBEAT
[22:45:41.140918] [182] ATTITUDE_TARGET
[22:45:41.232779] [47] RADIO
[22:45:41.235813] [47] RADIO_STATUS
[22:45:41.583012] [183] VFR_HUD
[22:45:42.272027] [48] RADIO
[22:45:42.274924] [48] RADIO_STATUS
[22:45:43.200130] [186] HEARTBEAT
[22:45:43.207099] [187] SYS_STATUS
[22:45:43.302087] [49] RADIO
[22:45:43.305079] [49] RADIO_STATUS
[22:45:44.222179] [50] RADIO
[22:45:44.225167] [50] RADIO_STATUS
[22:45:44.802298] [193] VFR_HUD
[22:45:45.371491] [51] RADIO
[22:45:45.374302] [51] RADIO_STATUS
[22:45:45.721376] [196] VFR_HUD
[22:45:46.186565] [197] HEARTBEAT
[22:45:46.291415] [52] RADIO
[22:45:46.294370] [52] RADIO_STATUS
[22:45:47.234793] [199] HEARTBEAT
[22:45:47.240495] [200] SYS_STATUS
[22:45:47.275563] [201] BATTERY_STATUS
[22:45:47.277395] [202] EXTENDED_SYS_STATE
[22:45:47.284486] [203] ATTITUDE_TARGET
[22:45:47.289453] [204] VFR_HUD
[22:45:47.293598] [205] SYSTEM_TIME
[22:45:47.330684] [53] RADIO
[22:45:47.333610] [53] RADIO_STATUS
[22:45:48.021637] [206] VFR_HUD
[22:45:48.142652] [207] HEARTBEAT
[22:45:48.255670] [54] RADIO
[22:45:48.258748] [54] RADIO_STATUS
[22:45:48.711834] [208] VFR_HUD
[22:45:49.182043] [209] HEARTBEAT
[22:45:49.187757] [210] ATTITUDE_TARGET
[22:45:49.279686] [55] RADIO
[22:45:49.282689] [55] RADIO_STATUS
[22:45:49.520866] [211] VFR_HUD
[22:45:50.320879] [213] VFR_HUD
[22:45:50.352879] [56] RADIO
[22:45:50.357865] [56] RADIO_STATUS
[22:45:51.137969] [214] HEARTBEAT
[22:45:51.144920] [215] SYS_STATUS
[22:45:51.263879] [216] BATTERY_STATUS
[22:45:51.270975] [217] ATTITUDE_TARGET
[22:45:51.301954] [218] VFR_HUD
[22:45:51.329052] [57] RADIO
[22:45:51.331926] [57] RADIO_STATUS
[22:45:51.931091] [219] VFR_HUD
[22:45:52.270061] [58] RADIO
[22:45:52.273036] [58] RADIO_STATUS
[22:45:52.850118] [221] VFR_HUD
[22:45:53.421326] [59] RADIO
[22:45:53.423353] [59] RADIO_STATUS
[22:45:53.540188] [224] VFR_HUD
[22:45:54.116223] [225] HEARTBEAT
[22:45:54.235291] [60] RADIO
[22:45:54.238259] [60] RADIO_STATUS
[22:45:55.158453] [227] HEARTBEAT
[22:45:55.164350] [228] SYS_STATUS
[22:45:55.259424] [61] RADIO
[22:45:55.262424] [61] RADIO_STATUS
[22:45:55.329385] [229] BATTERY_STATUS
[22:45:55.337412] [230] ATTITUDE_TARGET
[22:45:55.342350] [231] VFR_HUD
[22:45:56.305490] [232] VFR_HUD
[22:45:56.308567] [233] HEARTBEAT
[22:45:56.409503] [62] RADIO
[22:45:56.413364] [62] RADIO_STATUS
[22:45:56.760542] [234] VFR_HUD
[22:45:57.328670] [63] RADIO
[22:45:57.331586] [63] RADIO_STATUS
[22:45:57.569626] [237] VFR_HUD
[22:45:58.134643] [238] HEARTBEAT
[22:45:58.369769] [239] VFR_HUD
[22:45:58.401742] [64] RADIO
[22:45:58.404674] [64] RADIO_STATUS
[22:45:59.186883] [240] HEARTBEAT
[22:45:59.194002] [241] SYS_STATUS
[22:45:59.311881] [242] BATTERY_STATUS
[22:45:59.319788] [243] ATTITUDE_TARGET
[22:45:59.349921] [244] VFR_HUD
[22:45:59.377822] [65] RADIO
[22:45:59.380929] [65] RADIO_STATUS
[22:45:59.978955] [245] VFR_HUD
[22:46:00.319096] [66] RADIO
[22:46:00.321017] [66] RADIO_STATUS
[22:46:00.789070] [247] VFR_HUD
[22:46:01.358121] [67] RADIO
[22:46:01.361072] [67] RADIO_STATUS
[22:46:01.589162] [250] VFR_HUD
[22:46:02.164197] [251] HEARTBEAT
[22:46:02.388211] [68] RADIO
[22:46:02.391303] [68] RADIO_STATUS
[22:46:03.206435] [253] HEARTBEAT
[22:46:03.213400] [254] SYS_STATUS
[22:46:03.308375] [69] RADIO
[22:46:03.313673] [69] RADIO_STATUS
[22:46:03.349324] [255] BATTERY_STATUS
[22:46:03.375352] [0] ATTITUDE_TARGET
[22:46:03.380342] [1] VFR_HUD
[22:46:04.118566] [2] VFR_HUD
[22:46:04.125534] [3] HEARTBEAT
[22:46:04.347429] [70] RADIO
[22:46:04.350403] [70] RADIO_STATUS
[22:46:05.377554] [71] RADIO
[22:46:05.380554] [71] RADIO_STATUS
[22:46:05.623586] [7] VFR_HUD
[22:46:06.183733] [8] HEARTBEAT
[22:46:06.417647] [72] RADIO
[22:46:06.420603] [72] RADIO_STATUS
[22:46:07.337963] [73] RADIO
[22:46:07.340825] [73] RADIO_STATUS
[22:46:07.918844] [17] VFR_HUD
[22:46:08.367902] [74] RADIO
[22:46:08.370860] [74] RADIO_STATUS
[22:46:08.718089] [19] VFR_HUD
[22:46:09.188084] [20] HEARTBEAT
[22:46:09.195037] [21] ATTITUDE_TARGET
[22:46:09.518010] [75] RADIO
[22:46:09.521015] [75] RADIO_STATUS
[22:46:09.556050] [22] VFR_HUD
[22:46:10.219208] [23] HEARTBEAT
[22:46:10.328157] [24] VFR_HUD
[22:46:10.355100] [76] RADIO
[22:46:10.358128] [76] RADIO_STATUS
[22:46:11.151222] [25] HEARTBEAT
[22:46:11.157281] [26] SYS_STATUS
[22:46:11.357281] [77] RADIO
[22:46:11.360271] [77] RADIO_STATUS
[22:46:12.173333] [30] VFR_HUD
[22:46:12.176386] [31] HEARTBEAT
[22:46:12.397448] [78] RADIO
[22:46:12.400330] [78] RADIO_STATUS
[22:46:13.426466] [79] RADIO
[22:46:13.429546] [79] RADIO_STATUS
[22:46:13.547644] [35] VFR_HUD
[22:46:14.123688] [36] HEARTBEAT
[22:46:14.467561] [37] VFR_HUD
[22:46:14.481543] [80] RADIO
[22:46:14.484499] [80] RADIO_STATUS
[22:46:15.291736] [40] BATTERY_STATUS
[22:46:15.403656] [41] ATTITUDE_TARGET
[22:46:15.408616] [42] VFR_HUD
[22:46:15.414650] [81] RADIO
[22:46:15.417566] [81] RADIO_STATUS
[22:46:15.967735] [43] VFR_HUD
[22:46:16.416808] [82] RADIO
[22:46:16.419737] [82] RADIO_STATUS
[22:46:16.767774] [45] VFR_HUD
[22:46:17.126842] [46] HEARTBEAT
[22:46:17.133869] [47] ATTITUDE_TARGET
[22:46:17.566950] [83] RADIO
[22:46:17.569892] [83] RADIO_STATUS
[22:46:17.686856] [48] VFR_HUD
[22:46:18.143051] [49] HEARTBEAT
[22:46:18.380898] [50] VFR_HUD
[22:46:18.408965] [84] RADIO
[22:46:18.411962] [84] RADIO_STATUS
[22:46:19.194025] [51] HEARTBEAT
[22:46:19.201113] [52] SYS_STATUS
[22:46:19.320025] [53] BATTERY_STATUS
[22:46:19.327035] [54] ATTITUDE_TARGET
[22:46:19.358049] [55] VFR_HUD
[22:46:19.406102] [85] RADIO
[22:46:19.409027] [85] RADIO_STATUS
[22:46:19.987050] [56] VFR_HUD
[22:46:20.212121] [57] HEARTBEAT
[22:46:20.451095] [86] RADIO
[22:46:20.454047] [86] RADIO_STATUS
[22:46:21.146281] [59] HEARTBEAT
[22:46:21.153242] [60] ATTITUDE_TARGET
[22:46:21.476184] [87] RADIO
[22:46:21.478170] [87] RADIO_STATUS
[22:46:22.172288] [62] HEARTBEAT
[22:46:22.516356] [63] VFR_HUD
[22:46:22.532301] [88] RADIO
[22:46:22.535330] [88] RADIO_STATUS
[22:46:23.452389] [67] ATTITUDE_TARGET
[22:46:23.457365] [68] VFR_HUD
[22:46:23.491388] [89] RADIO
[22:46:23.494370] [89] RADIO_STATUS
[22:46:24.021508] [69] VFR_HUD
[22:46:24.132560] [70] HEARTBEAT
[22:46:24.465472] [90] RADIO
[22:46:24.468441] [90] RADIO_STATUS
[22:46:24.815476] [71] VFR_HUD
[22:46:25.174566] [72] HEARTBEAT
[22:46:25.182610] [73] ATTITUDE_TARGET
[22:46:25.614712] [91] RADIO
[22:46:25.617638] [91] RADIO_STATUS
[22:46:26.190698] [75] HEARTBEAT
[22:46:26.315670] [76] VFR_HUD
[22:46:26.534733] [92] RADIO
[22:46:26.537735] [92] RADIO_STATUS
[22:46:27.122774] [77] HEARTBEAT
[22:46:27.129791] [78] SYS_STATUS
[22:46:27.400845] [81] ATTITUDE_TARGET
[22:46:27.405747] [82] VFR_HUD
[22:46:27.408778] [83] SYSTEM_TIME
[22:46:27.454804] [93] RADIO
[22:46:27.457747] [93] RADIO_STATUS
[22:46:27.924927] [84] VFR_HUD
[22:46:28.155900] [85] HEARTBEAT
[22:46:28.499900] [94] RADIO
[22:46:28.505531] [94] RADIO_STATUS
[22:46:28.724933] [86] VFR_HUD
[22:46:29.194037] [87] HEARTBEAT
[22:46:29.201945] [88] ATTITUDE_TARGET
[22:46:29.524025] [95] RADIO
[22:46:29.527017] [95] RADIO_STATUS
[22:46:29.574023] [89] VFR_HUD
[22:46:30.106279] [90] HEARTBEAT
[22:46:30.335114] [91] VFR_HUD
[22:46:30.569133] [96] RADIO
[22:46:30.572056] [96] RADIO_STATUS
[22:46:31.484256] [97] RADIO
[22:46:31.487213] [97] RADIO_STATUS
[22:46:32.182042] [97] VFR_HUD
[22:46:32.183216] [98] HEARTBEAT
[22:46:32.514510] [98] RADIO
[22:46:32.517311] [98] RADIO_STATUS
[22:46:33.229497] [100] HEARTBEAT
[22:46:33.237308] [101] ATTITUDE_TARGET
[22:46:33.664383] [99] RADIO
[22:46:33.667374] [99] RADIO_STATUS
[22:46:34.364430] [104] VFR_HUD
[22:46:34.473501] [100] RADIO
[22:46:34.476474] [100] RADIO_STATUS
[22:46:35.171593] [105] HEARTBEAT
[22:46:35.178582] [106] SYS_STATUS
[22:46:35.411531] [108] ATTITUDE_TARGET
[22:46:35.415532] [109] VFR_HUD
[22:46:35.503505] [101] RADIO
[22:46:35.508495] [101] RADIO_STATUS
[22:46:35.972568] [110] VFR_HUD
[22:46:36.212888] [111] HEARTBEAT
[22:46:36.541638] [102] RADIO
[22:46:36.544633] [102] RADIO_STATUS
[22:46:36.772689] [112] VFR_HUD
[22:46:37.131720] [113] HEARTBEAT
[22:46:37.139762] [114] ATTITUDE_TARGET
[22:46:37.571822] [103] RADIO
[22:46:37.574788] [103] RADIO_STATUS
[22:46:37.692823] [115] VFR_HUD
[22:46:38.158046] [116] HEARTBEAT
[22:46:38.382871] [117] VFR_HUD
[22:46:38.491990] [104] RADIO
[22:46:38.493890] [104] RADIO_STATUS
[22:46:39.531125] [105] RADIO
[22:46:39.534071] [105] RADIO_STATUS
[22:46:40.118101] [123] VFR_HUD
[22:46:40.121163] [124] HEARTBEAT
[22:46:40.561213] [106] RADIO
[22:46:40.564105] [106] RADIO_STATUS
[22:46:40.911272] [125] VFR_HUD
[22:46:41.151290] [126] HEARTBEAT
[22:46:41.161844] [127] ATTITUDE_TARGET
[22:46:41.711299] [107] RADIO
[22:46:41.714197] [107] RADIO_STATUS
[22:46:42.416316] [130] VFR_HUD
[22:46:42.541800] [108] RADIO
[22:46:42.541930] [108] RADIO_STATUS
[22:46:43.219608] [131] HEARTBEAT
[22:46:43.225551] [132] SYS_STATUS
[22:46:43.458536] [134] ATTITUDE_TARGET
[22:46:43.462507] [135] VFR_HUD
[22:46:43.550457] [109] RADIO
[22:46:43.553528] [109] RADIO_STATUS
[22:46:44.127598] [137] HEARTBEAT
[22:46:44.595694] [110] RADIO
[22:46:44.598568] [110] RADIO_STATUS
[22:46:44.711737] [138] VFR_HUD
[22:46:45.180671] [139] HEARTBEAT
[22:46:45.188587] [140] ATTITUDE_TARGET
[22:46:45.511785] [141] VFR_HUD
[22:46:45.543685] [111] RADIO
[22:46:45.546704] [111] RADIO_STATUS
[22:46:46.206960] [142] HEARTBEAT
[22:46:46.320835] [143] VFR_HUD
[22:46:46.540819] [112] RADIO
[22:46:46.542842] [112] RADIO_STATUS
[22:46:47.128951] [144] HEARTBEAT
[22:46:47.135987] [145] SYS_STATUS
[22:46:47.373882] [148] ATTITUDE_TARGET
[22:46:47.378912] [149] VFR_HUD
[22:46:47.382898] [150] SYSTEM_TIME
[22:46:47.585894] [113] RADIO
[22:46:47.588878] [113] RADIO_STATUS
[22:46:48.040975] [151] VFR_HUD
[22:46:48.156038] [152] HEARTBEAT
[22:46:48.610077] [114] RADIO
[22:46:48.613097] [114] RADIO_STATUS
[22:46:48.731017] [153] VFR_HUD
[22:46:49.200324] [154] HEARTBEAT
[22:46:49.208201] [155] ATTITUDE_TARGET
[22:46:49.760212] [115] RADIO
[22:46:49.763124] [115] RADIO_STATUS
[22:46:50.106282] [157] HEARTBEAT
[22:46:50.341204] [158] VFR_HUD
[22:46:50.575252] [116] RADIO
[22:46:50.578277] [116] RADIO_STATUS
[22:46:51.599316] [117] RADIO
[22:46:51.602340] [117] RADIO_STATUS
[22:46:51.668331] [161] BATTERY_STATUS
[22:46:51.676352] [162] ATTITUDE_TARGET
[22:46:51.681384] [163] VFR_HUD
[22:46:52.175489] [165] HEARTBEAT
[22:46:52.644413] [118] RADIO
[22:46:52.647408] [118] RADIO_STATUS
[22:46:52.760440] [166] VFR_HUD
[22:46:53.229639] [167] HEARTBEAT
[22:46:53.237527] [168] ATTITUDE_TARGET
[22:46:53.560559] [169] VFR_HUD
[22:46:53.592556] [119] RADIO
[22:46:53.595623] [119] RADIO_STATUS
[22:46:54.369726] [171] VFR_HUD
[22:46:54.589690] [120] RADIO
[22:46:54.594164] [120] RADIO_STATUS
[22:46:55.177847] [172] HEARTBEAT
[22:46:55.188182] [173] SYS_STATUS
[22:46:55.415780] [175] ATTITUDE_TARGET
[22:46:55.420680] [176] VFR_HUD
[22:46:55.633774] [121] RADIO
[22:46:55.636778] [121] RADIO_STATUS
[22:46:56.209887] [178] HEARTBEAT
[22:46:56.657863] [122] RADIO
[22:46:56.660874] [122] RADIO_STATUS
[22:46:56.778813] [179] VFR_HUD
[22:46:57.166221] [180] HEARTBEAT
[22:46:57.173879] [181] ATTITUDE_TARGET
[22:46:57.577946] [123] RADIO
[22:46:57.584278] [123] RADIO_STATUS
[22:46:58.155072] [183] HEARTBEAT
[22:46:58.389104] [184] VFR_HUD
[22:46:58.618235] [124] RADIO
[22:46:58.621072] [124] RADIO_STATUS
[22:46:59.648212] [125] RADIO
[22:46:59.652916] [125] RADIO_STATUS
[22:46:59.717261] [187] BATTERY_STATUS
[22:46:59.724233] [188] ATTITUDE_TARGET
[22:46:59.729229] [189] VFR_HUD
[22:47:00.114328] [191] HEARTBEAT
[22:47:00.688382] [126] RADIO
[22:47:00.691395] [126] RADIO_STATUS
[22:47:00.814412] [192] VFR_HUD
[22:47:01.158516] [193] HEARTBEAT
[22:47:01.166444] [194] ATTITUDE_TARGET
[22:47:01.608495] [195] VFR_HUD
[22:47:01.635519] [127] RADIO
[22:47:01.638455] [127] RADIO_STATUS
[22:47:02.418660] [197] VFR_HUD
[22:47:02.641878] [128] RADIO
[22:47:02.642009] [128] RADIO_STATUS
[22:47:03.105510] [198] HEARTBEAT
[22:47:03.123622] [199] SYS_STATUS
[22:47:03.167624] [200] BATTERY_STATUS
[22:47:03.174636] [201] ATTITUDE_TARGET
[22:47:03.179609] [202] VFR_HUD
[22:47:03.677828] [129] RADIO
[22:47:03.680895] [129] RADIO_STATUS
[22:47:04.143754] [203] VFR_HUD
[22:47:04.146743] [204] HEARTBEAT
[22:47:04.706923] [130] RADIO
[22:47:04.709987] [130] RADIO_STATUS
[22:47:04.756872] [205] VFR_HUD
[22:47:05.296972] [206] HEARTBEAT
[22:47:05.305130] [207] ATTITUDE_TARGET
[22:47:05.517955] [208] VFR_HUD
[22:47:05.626916] [131] RADIO
[22:47:05.629964] [131] RADIO_STATUS
[22:47:06.203016] [209] HEARTBEAT
[22:47:06.437079] [210] VFR_HUD
[22:47:06.667180] [132] RADIO
[22:47:06.670026] [132] RADIO_STATUS
[22:47:07.135136] [211] HEARTBEAT
[22:47:07.142112] [212] SYS_STATUS
[22:47:07.381248] [215] ATTITUDE_TARGET
[22:47:07.386199] [216] VFR_HUD
[22:47:07.389071] [217] SYSTEM_TIME
[22:47:07.696217] [133] RADIO
[22:47:07.701912] [133] RADIO_STATUS
[22:47:08.047354] [218] VFR_HUD
[22:47:08.162233] [219] HEARTBEAT
[22:47:08.737452] [220] VFR_HUD
[22:47:08.764349] [134] RADIO
[22:47:08.767327] [134] RADIO_STATUS
[22:47:09.206406] [221] HEARTBEAT
[22:47:09.214321] [222] ATTITUDE_TARGET
[22:47:09.656398] [223] VFR_HUD
[22:47:09.672379] [135] RADIO
[22:47:09.675429] [135] RADIO_STATUS
[22:47:10.111667] [224] HEARTBEAT
[22:47:10.685527] [136] RADIO
[22:47:10.688527] [136] RADIO_STATUS
[22:47:11.163628] [226] HEARTBEAT
[22:47:11.170577] [227] SYS_STATUS
[22:47:11.288586] [228] BATTERY_STATUS
[22:47:11.297945] [229] ATTITUDE_TARGET
[22:47:11.326548] [230] VFR_HUD
[22:47:11.730613] [137] RADIO
[22:47:11.733551] [137] RADIO_STATUS
[22:47:11.961046] [231] VFR_HUD
[22:47:12.181908] [232] HEARTBEAT
[22:47:12.755836] [138] RADIO
[22:47:12.758746] [138] RADIO_STATUS
[22:47:12.875713] [233] VFR_HUD
[22:47:13.106933] [234] HEARTBEAT
[22:47:13.129817] [235] ATTITUDE_TARGET
[22:47:13.565921] [236] VFR_HUD
[22:47:13.674885] [139] RADIO
[22:47:13.677782] [139] RADIO_STATUS
[22:47:14.386941] [238] VFR_HUD
[22:47:14.720922] [140] RADIO
[22:47:14.722907] [140] RADIO_STATUS
[22:47:15.184043] [239] HEARTBEAT
[22:47:15.189999] [240] SYS_STATUS
[22:47:15.423128] [242] ATTITUDE_TARGET
[22:47:15.428056] [243] VFR_HUD
[22:47:15.668038] [141] RADIO
[22:47:15.671105] [141] RADIO_STATUS
[22:47:16.096064] [244] VFR_HUD
[22:47:16.103113] [245] HEARTBEAT
[22:47:16.665131] [142] RADIO
[22:47:16.668141] [142] RADIO_STATUS
[22:47:16.786229] [246] VFR_HUD
[22:47:17.706434] [249] VFR_HUD
[22:47:17.722361] [143] RADIO
[22:47:17.725285] [143] RADIO_STATUS
[22:47:18.407463] [251] VFR_HUD
[22:47:18.734260] [144] RADIO
[22:47:18.737370] [144] RADIO_STATUS
[22:47:19.218516] [252] HEARTBEAT
[22:47:19.224346] [253] SYS_STATUS
[22:47:19.264364] [254] BATTERY_STATUS
[22:47:19.272364] [255] ATTITUDE_TARGET
[22:47:19.277384] [0] VFR_HUD
[22:47:19.779407] [145] RADIO
[22:47:19.782386] [145] RADIO_STATUS
[22:47:20.136564] [1] VFR_HUD
[22:47:20.139477] [2] HEARTBEAT
[22:47:20.804512] [146] RADIO
[22:47:20.807518] [146] RADIO_STATUS
[22:47:20.925529] [3] VFR_HUD
[22:47:21.164577] [4] HEARTBEAT
[22:47:21.172557] [5] ATTITUDE_TARGET
[22:47:21.504740] [6] VFR_HUD
[22:47:21.724641] [147] RADIO
[22:47:21.727631] [147] RADIO_STATUS
[22:47:22.309729] [8] VFR_HUD
[22:47:22.768890] [148] RADIO
[22:47:22.771784] [148] RADIO_STATUS
[22:47:23.122791] [9] HEARTBEAT
[22:47:23.128842] [10] SYS_STATUS
[22:47:23.247751] [11] BATTERY_STATUS
[22:47:23.255779] [12] ATTITUDE_TARGET
[22:47:23.285778] [13] VFR_HUD
[22:47:23.794040] [149] RADIO
[22:47:23.796846] [149] RADIO_STATUS
[22:47:23.915084] [14] VFR_HUD
[22:47:24.139887] [15] HEARTBEAT
[22:47:24.714081] [150] RADIO
[22:47:24.716963] [150] RADIO_STATUS
[22:47:25.524063] [19] VFR_HUD
[22:47:25.753104] [151] RADIO
[22:47:25.756241] [151] RADIO_STATUS
[22:47:26.099148] [20] HEARTBEAT
[22:47:26.444105] [21] VFR_HUD
[22:47:26.783191] [152] RADIO
[22:47:26.786176] [152] RADIO_STATUS
[22:47:27.142087] [22] HEARTBEAT
[22:47:27.148226] [23] SYS_STATUS
[22:47:27.271244] [24] BATTERY_STATUS
[22:47:27.274049] [25] EXTENDED_SYS_STATE
[22:47:27.305264] [26] ATTITUDE_TARGET
[22:47:27.310179] [27] VFR_HUD
[22:47:27.313283] [28] SYSTEM_TIME
[22:47:27.825295] [153] RADIO
[22:47:27.826242] [153] RADIO_STATUS
[22:47:28.054259] [29] VFR_HUD
[22:47:28.169320] [30] HEARTBEAT
[22:47:28.743361] [31] VFR_HUD
[22:47:28.771357] [154] RADIO
[22:47:28.773306] [154] RADIO_STATUS
[22:47:29.212408] [32] HEARTBEAT
[22:47:29.220610] [33] ATTITUDE_TARGET
[22:47:29.553484] [34] VFR_HUD
[22:47:29.772529] [155] RADIO
[22:47:29.775438] [155] RADIO_STATUS
[22:47:30.119463] [35] HEARTBEAT
[22:47:30.353609] [36] VFR_HUD
[22:47:30.812574] [156] RADIO
[22:47:30.815652] [156] RADIO_STATUS
[22:47:31.170908] [37] HEARTBEAT
[22:47:31.177682] [38] SYS_STATUS
[22:47:31.296717] [39] BATTERY_STATUS
[22:47:31.304686] [40] ATTITUDE_TARGET
[22:47:31.334763] [41] VFR_HUD
[22:47:31.733017] [157] RADIO
[22:47:31.735705] [157] RADIO_STATUS
[22:47:31.963673] [42] VFR_HUD
[22:47:32.762828] [158] RADIO
[22:47:32.765720] [158] RADIO_STATUS
[22:47:32.882820] [44] VFR_HUD
[22:47:33.121867] [45] HEARTBEAT
[22:47:33.130210] [46] ATTITUDE_TARGET
[22:47:33.573344] [47] VFR_HUD
[22:47:33.801977] [159] RADIO
[22:47:33.804857] [159] RADIO_STATUS
[22:47:34.149969] [48] HEARTBEAT
[22:47:34.492934] [49] VFR_HUD
[22:47:34.832049] [160] RADIO
[22:47:34.835049] [160] RADIO_STATUS
[22:47:35.190063] [50] HEARTBEAT
[22:47:35.197230] [51] SYS_STATUS
[22:47:35.313518] [52] BATTERY_STATUS
[22:47:35.429229] [53] ATTITUDE_TARGET
[22:47:35.434217] [54] VFR_HUD
[22:47:35.752310] [161] RADIO
[22:47:35.755222] [161] RADIO_STATUS
[22:47:36.102115] [55] VFR_HUD
[22:47:36.110148] [56] HEARTBEAT
[22:47:36.793182] [57] VFR_HUD
[22:47:36.825178] [162] RADIO
[22:47:36.828142] [162] RADIO_STATUS
[22:47:37.607381] [60] VFR_HUD
[22:47:37.821405] [163] RADIO
[22:47:37.824226] [163] RADIO_STATUS
[22:47:38.168372] [61] HEARTBEAT
[22:47:38.402394] [62] VFR_HUD
[22:47:38.867503] [164] RADIO
[22:47:38.869460] [164] RADIO_STATUS
[22:47:39.219592] [63] HEARTBEAT
[22:47:39.226441] [64] SYS_STATUS
[22:47:39.345541] [65] BATTERY_STATUS
[22:47:39.353565] [66] ATTITUDE_TARGET
[22:47:39.383565] [67] VFR_HUD
[22:47:39.786681] [165] RADIO
[22:47:39.789460] [165] RADIO_STATUS
[22:47:40.012567] [68] VFR_HUD
[22:47:40.811579] [166] RADIO
[22:47:40.814594] [166] RADIO_STATUS
[22:47:41.171712] [71] HEARTBEAT
[22:47:41.178683] [72] ATTITUDE_TARGET
[22:47:41.511663] [73] VFR_HUD
[22:47:41.856823] [167] RADIO
[22:47:41.858769] [167] RADIO_STATUS
[22:47:42.205325] [74] HEARTBEAT
[22:47:42.313557] [75] VFR_HUD
[22:47:42.880878] [168] RADIO
[22:47:42.883841] [168] RADIO_STATUS
[22:47:43.800945] [169] RADIO
[22:47:43.803995] [169] RADIO_STATUS
[22:47:44.157054] [81] VFR_HUD
[22:47:44.160001] [82] HEARTBEAT
[22:47:44.950058] [170] RADIO
[22:47:44.953040] [170] RADIO_STATUS
[22:47:45.531182] [86] VFR_HUD
[22:47:45.870188] [171] RADIO
[22:47:45.873136] [171] RADIO_STATUS
[22:47:46.106327] [87] HEARTBEAT
[22:47:46.451182] [88] VFR_HUD
[22:47:46.915356] [172] RADIO
[22:47:46.918228] [172] RADIO_STATUS
[22:47:47.278392] [91] BATTERY_STATUS
[22:47:47.279298] [92] EXTENDED_SYS_STATE
[22:47:47.313882] [93] ATTITUDE_TARGET
[22:47:47.316368] [94] VFR_HUD
[22:47:47.320390] [95] SYSTEM_TIME
[22:47:47.830419] [173] RADIO
[22:47:47.833873] [173] RADIO_STATUS
[22:47:47.950421] [96] VFR_HUD
[22:47:48.750629] [98] VFR_HUD
[22:47:48.859533] [174] RADIO
[22:47:48.862546] [174] RADIO_STATUS
[22:47:49.095772] [99] HEARTBEAT
[22:47:49.118672] [100] ATTITUDE_TARGET
[22:47:49.560598] [101] VFR_HUD
[22:47:49.899545] [175] RADIO
[22:47:49.902621] [175] RADIO_STATUS
[22:47:50.125640] [102] HEARTBEAT
[22:47:50.360618] [103] VFR_HUD
[22:47:50.819663] [176] RADIO
[22:47:50.822624] [176] RADIO_STATUS
[22:47:51.302853] [106] BATTERY_STATUS
[22:47:51.310716] [107] ATTITUDE_TARGET
[22:47:51.340675] [108] VFR_HUD
[22:47:51.848763] [177] RADIO
[22:47:51.851725] [177] RADIO_STATUS
[22:47:51.969835] [109] VFR_HUD
[22:47:52.194849] [110] HEARTBEAT
[22:47:52.899865] [178] RADIO
[22:47:52.902801] [178] RADIO_STATUS
[22:47:53.128985] [112] HEARTBEAT
[22:47:53.135883] [113] ATTITUDE_TARGET
[22:47:53.578883] [114] VFR_HUD
[22:47:53.917994] [179] RADIO
[22:47:53.920956] [179] RADIO_STATUS
[22:47:54.154172] [115] HEARTBEAT
[22:47:54.394170] [116] VFR_HUD
[22:47:54.958121] [180] RADIO
[22:47:54.961299] [180] RADIO_STATUS
[22:47:55.318170] [119] BATTERY_STATUS
[22:47:55.435181] [120] ATTITUDE_TARGET
[22:47:55.440126] [121] VFR_HUD
[22:47:55.878192] [181] RADIO
[22:47:55.881136] [181] RADIO_STATUS
[22:47:56.004171] [122] VFR_HUD
[22:47:56.115338] [123] HEARTBEAT
[22:47:56.798341] [124] VFR_HUD
[22:47:56.908340] [182] RADIO
[22:47:56.912498] [182] RADIO_STATUS
[22:47:57.157534] [125] HEARTBEAT
[22:47:57.165377] [126] ATTITUDE_TARGET
[22:47:57.608382] [127] VFR_HUD
[22:47:57.947448] [183] RADIO
[22:47:57.953911] [183] RADIO_STATUS
[22:47:58.173795] [128] HEARTBEAT
[22:47:58.408582] [129] VFR_HUD
[22:47:58.867487] [184] RADIO
[22:47:58.870481] [184] RADIO_STATUS
[22:47:59.093684] [130] HEARTBEAT
[22:47:59.113615] [131] SYS_STATUS
[22:47:59.162550] [132] BATTERY_STATUS
[22:47:59.170728] [133] ATTITUDE_TARGET
[22:47:59.174576] [134] VFR_HUD
[22:47:59.898692] [185] RADIO
[22:47:59.901579] [185] RADIO_STATUS
[22:47:59.972678] [135] VFR_HUD
[22:48:00.135843] [136] HEARTBEAT
[22:48:00.709741] [137] VFR_HUD
[22:48:01.048765] [186] RADIO
[22:48:01.051769] [186] RADIO_STATUS
[22:48:01.178799] [138] HEARTBEAT
[22:48:01.186829] [139] ATTITUDE_TARGET
[22:48:01.628823] [140] VFR_HUD
[22:48:01.968905] [187] RADIO
[22:48:01.971853] [187] RADIO_STATUS
[22:48:02.204935] [141] HEARTBEAT
[22:48:02.318914] [142] VFR_HUD
[22:48:02.888007] [188] RADIO
[22:48:02.890947] [188] RADIO_STATUS
[22:48:03.933064] [189] RADIO
[22:48:03.936018] [189] RADIO_STATUS
[22:48:04.164050] [148] VFR_HUD
[22:48:04.167107] [149] HEARTBEAT
[22:48:04.848119] [150] VFR_HUD
[22:48:04.958175] [190] RADIO
[22:48:04.960148] [190] RADIO_STATUS
[22:48:05.213337] [151] HEARTBEAT
[22:48:05.220340] [152] ATTITUDE_TARGET
[22:48:06.003317] [191] RADIO
[22:48:06.006266] [191] RADIO_STATUS
[22:48:06.119269] [154] HEARTBEAT
[22:48:06.348638] [155] VFR_HUD
[22:48:06.922407] [192] RADIO
[22:48:06.925301] [192] RADIO_STATUS
[22:48:07.155434] [156] HEARTBEAT
[22:48:07.162362] [157] SYS_STATUS
[22:48:07.947497] [193] RADIO
[22:48:07.950442] [193] RADIO_STATUS
[22:48:08.069833] [163] VFR_HUD
[22:48:08.096945] [164] HEARTBEAT
[22:48:08.757696] [165] VFR_HUD
[22:48:09.097671] [194] RADIO
[22:48:09.100650] [194] RADIO_STATUS
[22:48:09.144686] [166] HEARTBEAT
[22:48:09.152693] [167] ATTITUDE_TARGET
[22:48:10.016922] [195] RADIO
[22:48:10.021198] [195] RADIO_STATUS
[22:48:10.133859] [169] HEARTBEAT
[22:48:10.367829] [170] VFR_HUD
[22:48:10.937033] [196] RADIO
[22:48:10.939859] [196] RADIO_STATUS
[22:48:11.982016] [197] RADIO
[22:48:11.985029] [197] RADIO_STATUS
[22:48:12.213081] [176] VFR_HUD
[22:48:12.216017] [177] HEARTBEAT
[22:48:12.897158] [178] VFR_HUD
[22:48:13.006098] [198] RADIO
[22:48:13.009039] [198] RADIO_STATUS
[22:48:13.136066] [179] HEARTBEAT
[22:48:13.144062] [180] ATTITUDE_TARGET
[22:48:14.051204] [199] RADIO
[22:48:14.054144] [199] RADIO_STATUS
[22:48:14.162152] [182] HEARTBEAT
[22:48:14.402190] [183] VFR_HUD
[22:48:14.966257] [200] RADIO
[22:48:14.969264] [200] RADIO_STATUS
[22:48:15.204311] [184] HEARTBEAT
[22:48:15.211367] [185] SYS_STATUS
[22:48:15.331554] [186] BATTERY_STATUS
[22:48:15.443335] [187] ATTITUDE_TARGET
[22:48:15.448288] [188] VFR_HUD
[22:48:15.996381] [201] RADIO
[22:48:15.999362] [201] RADIO_STATUS
[22:48:16.123950] [189] VFR_HUD
[22:48:16.125395] [190] HEARTBEAT
[22:48:16.806597] [191] VFR_HUD
[22:48:17.035545] [202] RADIO
[22:48:17.038586] [202] RADIO_STATUS
[22:48:17.165581] [192] HEARTBEAT
[22:48:17.173642] [193] ATTITUDE_TARGET
[22:48:18.065643] [203] RADIO
[22:48:18.068569] [203] RADIO_STATUS
[22:48:18.317706] [196] VFR_HUD
[22:48:18.985760] [204] RADIO
[22:48:18.988778] [204] RADIO_STATUS
[22:48:19.582799] [200] ATTITUDE_TARGET
[22:48:19.587959] [201] VFR_HUD
[22:48:20.025814] [202] VFR_HUD
[22:48:20.036905] [205] RADIO
[22:48:20.039849] [205] RADIO_STATUS
[22:48:20.150878] [203] HEARTBEAT
[22:48:20.715951] [204] VFR_HUD
[22:48:21.054955] [206] RADIO
[22:48:21.057887] [206] RADIO_STATUS
[22:48:21.185981] [205] HEARTBEAT
[22:48:21.192947] [206] ATTITUDE_TARGET
[22:48:22.095017] [207] RADIO
[22:48:22.097981] [207] RADIO_STATUS
[22:48:22.326095] [209] VFR_HUD
[22:48:23.015122] [208] RADIO
[22:48:23.018158] [208] RADIO_STATUS
[22:48:24.045287] [209] RADIO
[22:48:24.048468] [209] RADIO_STATUS
[22:48:24.113351] [212] BATTERY_STATUS
[22:48:24.121299] [213] ATTITUDE_TARGET
[22:48:24.126276] [214] VFR_HUD
[22:48:24.131476] [215] VFR_HUD
[22:48:24.134329] [216] HEARTBEAT
[22:48:24.745363] [217] VFR_HUD
[22:48:25.084395] [210] RADIO
[22:48:25.087360] [210] RADIO_STATUS
[22:48:25.214403] [218] HEARTBEAT
[22:48:25.222386] [219] ATTITUDE_TARGET
[22:48:25.545504] [220] VFR_HUD
[22:48:26.114715] [211] RADIO
[22:48:26.117448] [211] RADIO_STATUS
[22:48:26.355567] [222] VFR_HUD
[22:48:27.034652] [212] RADIO
[22:48:27.037621] [212] RADIO_STATUS
[22:48:27.162719] [223] HEARTBEAT
[22:48:27.169824] [224] SYS_STATUS
[22:48:27.408703] [227] ATTITUDE_TARGET
[22:48:27.413755] [228] VFR_HUD
[22:48:27.416657] [229] SYSTEM_TIME
[22:48:28.074786] [213] RADIO
[22:48:28.077680] [213] RADIO_STATUS
[22:48:28.195794] [231] HEARTBEAT
[22:48:28.764858] [232] VFR_HUD
[22:48:29.103844] [214] RADIO
[22:48:29.106809] [214] RADIO_STATUS
[22:48:30.139999] [236] HEARTBEAT
[22:48:30.253986] [215] RADIO
[22:48:30.256951] [215] RADIO_STATUS
[22:48:30.374055] [237] VFR_HUD
[22:48:31.069084] [216] RADIO
[22:48:31.072066] [216] RADIO_STATUS
[22:48:32.093311] [217] RADIO
[22:48:32.097770] [217] RADIO_STATUS
[22:48:32.154172] [243] VFR_HUD
[22:48:32.157210] [244] HEARTBEAT
[22:48:32.799250] [245] VFR_HUD
[22:48:33.161292] [218] RADIO
[22:48:33.164299] [218] RADIO_STATUS
[22:48:33.268392] [246] HEARTBEAT
[22:48:33.276320] [247] ATTITUDE_TARGET
[22:48:33.594537] [248] VFR_HUD
[22:48:34.058377] [219] RADIO
[22:48:34.061350] [219] RADIO_STATUS
[22:48:34.404552] [250] VFR_HUD
[22:48:35.083479] [220] RADIO
[22:48:35.086470] [220] RADIO_STATUS
[22:48:35.211564] [251] HEARTBEAT
[22:48:35.218575] [252] SYS_STATUS
[22:48:35.569642] [254] ATTITUDE_TARGET
[22:48:35.574604] [255] VFR_HUD
[22:48:36.119706] [1] HEARTBEAT
[22:48:36.150808] [221] RADIO
[22:48:36.153731] [221] RADIO_STATUS
[22:48:36.813767] [2] VFR_HUD
[22:48:37.152859] [222] RADIO
[22:48:37.155798] [222] RADIO_STATUS
[22:48:37.282850] [3] HEARTBEAT
[22:48:37.290836] [4] ATTITUDE_TARGET
[22:48:37.503813] [5] VFR_HUD
[22:48:38.072878] [223] RADIO
[22:48:38.075890] [223] RADIO_STATUS
[22:48:38.188930] [6] HEARTBEAT
[22:48:38.319062] [7] VFR_HUD
[22:48:39.121035] [8] HEARTBEAT
[22:48:39.128004] [9] SYS_STATUS
[22:48:39.140034] [224] RADIO
[22:48:39.142999] [224] RADIO_STATUS
[22:48:39.360055] [11] ATTITUDE_TARGET
[22:48:39.365000] [12] VFR_HUD
[22:48:40.033117] [13] VFR_HUD
[22:48:40.142091] [225] RADIO
[22:48:40.145143] [225] RADIO_STATUS
[22:48:40.258254] [14] HEARTBEAT
[22:48:40.722274] [15] VFR_HUD
[22:48:41.191249] [16] HEARTBEAT
[22:48:41.199268] [17] ATTITUDE_TARGET
[22:48:41.209195] [226] RADIO
[22:48:41.217253] [226] RADIO_STATUS
[22:48:41.642252] [18] VFR_HUD
[22:48:42.097335] [19] HEARTBEAT
[22:48:42.211332] [227] RADIO
[22:48:42.214375] [227] RADIO_STATUS
[22:48:42.332318] [20] VFR_HUD
[22:48:43.130362] [228] RADIO
[22:48:43.133383] [228] RADIO_STATUS
[22:48:43.259446] [21] HEARTBEAT
[22:48:43.265419] [22] SYS_STATUS
[22:48:43.498565] [24] ATTITUDE_TARGET
[22:48:43.502504] [25] VFR_HUD
[22:48:43.941530] [26] VFR_HUD
[22:48:44.166546] [27] HEARTBEAT
[22:48:44.280621] [229] RADIO
[22:48:44.283498] [229] RADIO_STATUS
[22:48:44.750597] [28] VFR_HUD
[22:48:45.200617] [230] RADIO
[22:48:45.202609] [230] RADIO_STATUS
[22:48:45.329628] [29] HEARTBEAT
[22:48:45.337609] [30] ATTITUDE_TARGET
[22:48:45.550608] [31] VFR_HUD
[22:48:46.119730] [231] RADIO
[22:48:46.122761] [231] RADIO_STATUS
[22:48:46.360740] [33] VFR_HUD
[22:48:47.167898] [34] HEARTBEAT
[22:48:47.174814] [35] SYS_STATUS
[22:48:47.269814] [232] RADIO
[22:48:47.272781] [232] RADIO_STATUS
[22:48:48.188930] [233] RADIO
[22:48:48.191858] [233] RADIO_STATUS
[22:48:48.315891] [41] VFR_HUD
[22:48:48.318873] [42] HEARTBEAT
[22:48:48.769929] [43] VFR_HUD
[22:48:49.339050] [234] RADIO
[22:48:49.342001] [234] RADIO_STATUS
[22:48:49.585027] [46] VFR_HUD
[22:48:50.145098] [47] HEARTBEAT
[22:48:50.258096] [235] RADIO
[22:48:50.261041] [235] RADIO_STATUS
[22:48:50.379119] [48] VFR_HUD
[22:48:51.178200] [236] RADIO
[22:48:51.181173] [236] RADIO_STATUS
[22:48:51.238237] [49] HEARTBEAT
[22:48:51.245202] [50] SYS_STATUS
[22:48:51.252189] [51] BATTERY_STATUS
[22:48:51.265203] [52] ATTITUDE_TARGET
[22:48:51.269233] [53] VFR_HUD
[22:48:51.989283] [54] VFR_HUD
[22:48:52.218333] [237] RADIO
[22:48:52.221273] [237] RADIO_STATUS
[22:48:52.798440] [56] VFR_HUD
[22:48:53.148426] [57] HEARTBEAT
[22:48:53.155407] [58] ATTITUDE_TARGET
[22:48:53.248375] [238] RADIO
[22:48:53.251393] [238] RADIO_STATUS
[22:48:53.598603] [59] VFR_HUD
[22:48:54.167490] [239] RADIO
[22:48:54.170451] [239] RADIO_STATUS
[22:48:55.215719] [62] HEARTBEAT
[22:48:55.222638] [63] SYS_STATUS
[22:48:55.317701] [240] RADIO
[22:48:55.320629] [240] RADIO_STATUS
[22:48:56.133822] [67] VFR_HUD
[22:48:56.136758] [68] HEARTBEAT
[22:48:56.237771] [241] RADIO
[22:48:56.240705] [241] RADIO_STATUS
[22:48:56.817851] [69] VFR_HUD
[22:48:57.161857] [242] RADIO
[22:48:57.164803] [242] RADIO_STATUS
[22:48:57.507880] [72] VFR_HUD
[22:48:58.194009] [73] HEARTBEAT
[22:48:58.224895] [243] RADIO
[22:48:58.227841] [243] RADIO_STATUS
[22:48:58.427930] [74] VFR_HUD
[22:48:59.125239] [75] HEARTBEAT
[22:48:59.132005] [76] SYS_STATUS
[22:48:59.227137] [244] RADIO
[22:48:59.229972] [244] RADIO_STATUS
[22:48:59.296066] [77] BATTERY_STATUS
[22:48:59.304062] [78] ATTITUDE_TARGET
[22:48:59.309038] [79] VFR_HUD
[22:49:00.274121] [80] VFR_HUD
[22:49:00.277113] [81] HEARTBEAT
[22:49:00.378151] [245] RADIO
[22:49:00.381195] [245] RADIO_STATUS
[22:49:00.729214] [82] VFR_HUD
[22:49:01.198310] [83] HEARTBEAT
[22:49:01.206228] [84] ATTITUDE_TARGET
[22:49:01.216226] [246] RADIO
[22:49:01.219174] [246] RADIO_STATUS
[22:49:01.538407] [85] VFR_HUD
[22:49:02.104361] [86] HEARTBEAT
[22:49:02.217352] [247] RADIO
[22:49:02.220604] [247] RADIO_STATUS
[22:49:02.338351] [87] VFR_HUD
[22:49:03.155511] [88] HEARTBEAT
[22:49:03.162565] [89] SYS_STATUS
[22:49:03.281538] [90] BATTERY_STATUS
[22:49:03.289491] [91] ATTITUDE_TARGET
[22:49:03.319530] [92] VFR_HUD
[22:49:03.346501] [248] RADIO
[22:49:03.349483] [248] RADIO_STATUS
[22:49:03.948577] [93] VFR_HUD
[22:49:04.173595] [94] HEARTBEAT
[22:49:04.205611] [249] RADIO
[22:49:04.208579] [249] RADIO_STATUS
[22:49:04.769629] [95] VFR_HUD
[22:49:05.093691] [96] HEARTBEAT
[22:49:05.207698] [250] RADIO
[22:49:05.210615] [250] RADIO_STATUS
[22:49:05.557792] [98] VFR_HUD
[22:49:06.132811] [99] HEARTBEAT
[22:49:06.251799] [251] RADIO
[22:49:06.254820] [251] RADIO_STATUS
[22:49:06.477855] [100] VFR_HUD
[22:49:07.175040] [101] HEARTBEAT
[22:49:07.181955] [102] SYS_STATUS
[22:49:07.276902] [252] RADIO
[22:49:07.279905] [252] RADIO_STATUS
[22:49:07.316941] [103] BATTERY_STATUS
[22:49:07.347901] [104] EXTENDED_SYS_STATE
[22:49:07.356019] [105] ATTITUDE_TARGET
[22:49:07.360922] [106] VFR_HUD
[22:49:07.363932] [107] SYSTEM_TIME
[22:49:08.322072] [108] VFR_HUD
[22:49:08.325080] [109] HEARTBEAT
[22:49:08.426160] [253] RADIO
[22:49:08.429042] [253] RADIO_STATUS
[22:49:08.777283] [110] VFR_HUD
[22:49:09.163201] [111] HEARTBEAT
[22:49:09.171188] [112] ATTITUDE_TARGET
[22:49:09.239108] [254] RADIO
[22:49:09.239448] [254] RADIO_STATUS
[22:49:09.592287] [113] VFR_HUD
[22:49:10.151264] [114] HEARTBEAT
[22:49:10.265246] [255] RADIO
[22:49:10.268214] [255] RADIO_STATUS
[22:49:10.386296] [115] VFR_HUD
[22:49:11.203371] [116] HEARTBEAT
[22:49:11.210403] [117] SYS_STATUS
[22:49:11.329455] [118] BATTERY_STATUS
[22:49:11.336403] [119] ATTITUDE_TARGET
[22:49:11.367387] [120] VFR_HUD
[22:49:11.394523] [0] RADIO
[22:49:11.397352] [0] RADIO_STATUS
[22:49:11.995500] [121] VFR_HUD
[22:49:12.335566] [1] RADIO
[22:49:12.338461] [1] RADIO_STATUS
[22:49:13.155642] [124] HEARTBEAT
[22:49:13.165919] [125] ATTITUDE_TARGET
[22:49:13.254585] [2] RADIO
[22:49:13.257618] [2] RADIO_STATUS
[22:49:13.604628] [126] VFR_HUD
[22:49:14.184829] [127] HEARTBEAT
[22:49:14.293664] [3] RADIO
[22:49:14.296623] [3] RADIO_STATUS
[22:49:15.323798] [4] RADIO
[22:49:15.327113] [4] RADIO_STATUS
[22:49:16.139852] [134] VFR_HUD
[22:49:16.142861] [135] HEARTBEAT
[22:49:16.363086] [5] RADIO
[22:49:16.366065] [5] RADIO_STATUS
[22:49:16.823945] [136] VFR_HUD
[22:49:17.283025] [6] RADIO
[22:49:17.285967] [6] RADIO_STATUS
[22:49:17.514100] [139] VFR_HUD
[22:49:18.199087] [140] HEARTBEAT
[22:49:18.313111] [7] RADIO
[22:49:18.316110] [7] RADIO_STATUS
[22:49:19.131318] [142] HEARTBEAT
[22:49:19.138254] [143] SYS_STATUS
[22:49:19.257276] [144] BATTERY_STATUS
[22:49:19.370318] [145] ATTITUDE_TARGET
[22:49:19.375267] [146] VFR_HUD
[22:49:19.380201] [8] RADIO
[22:49:19.383319] [8] RADIO_STATUS
[22:49:19.933359] [147] VFR_HUD
[22:49:20.382340] [9] RADIO
[22:49:20.385314] [9] RADIO_STATUS
[22:49:20.736238] [149] VFR_HUD
[22:49:21.202513] [150] HEARTBEAT
[22:49:21.209531] [151] ATTITUDE_TARGET
[22:49:21.302518] [10] RADIO
[22:49:21.305765] [10] RADIO_STATUS
[22:49:21.542516] [152] VFR_HUD
[22:49:22.108551] [153] HEARTBEAT
[22:49:22.342652] [154] VFR_HUD
[22:49:22.369595] [11] RADIO
[22:49:22.372524] [11] RADIO_STATUS
[22:49:23.159752] [155] HEARTBEAT
[22:49:23.166779] [156] SYS_STATUS
[22:49:23.285932] [157] BATTERY_STATUS
[22:49:23.292727] [158] ATTITUDE_TARGET
[22:49:23.323692] [159] VFR_HUD
[22:49:23.350689] [12] RADIO
[22:49:23.353701] [12] RADIO_STATUS
[22:49:23.952778] [160] VFR_HUD
[22:49:24.177800] [161] HEARTBEAT
[22:49:24.291841] [13] RADIO
[22:49:24.294773] [13] RADIO_STATUS
[22:49:24.871868] [162] VFR_HUD
[22:49:25.098031] [163] HEARTBEAT
[22:49:25.119886] [164] ATTITUDE_TARGET
[22:49:25.331915] [14] RADIO
[22:49:25.334831] [14] RADIO_STATUS
[22:49:25.561964] [165] VFR_HUD
[22:49:26.138006] [166] HEARTBEAT
[22:49:26.361051] [15] RADIO
[22:49:26.363983] [15] RADIO_STATUS
[22:49:27.179188] [168] HEARTBEAT
[22:49:27.186271] [169] SYS_STATUS
[22:49:27.304131] [170] BATTERY_STATUS
[22:49:27.306082] [171] EXTENDED_SYS_STATE
[22:49:27.425187] [172] ATTITUDE_TARGET
[22:49:27.430096] [173] VFR_HUD
[22:49:27.433110] [174] SYSTEM_TIME
[22:49:27.463154] [16] RADIO
[22:49:27.466129] [16] RADIO_STATUS
[22:49:27.987210] [175] VFR_HUD
[22:49:28.108219] [176] HEARTBEAT
[22:49:28.431412] [17] RADIO
[22:49:28.434242] [17] RADIO_STATUS
[22:49:28.782275] [177] VFR_HUD
[22:49:29.141958] [178] HEARTBEAT
[22:49:29.149301] [179] ATTITUDE_TARGET
[22:49:29.351336] [18] RADIO
[22:49:29.354331] [18] RADIO_STATUS
[22:49:29.591363] [180] VFR_HUD
[22:49:30.157521] [181] HEARTBEAT
[22:49:30.391514] [182] VFR_HUD
[22:49:30.423449] [19] RADIO
[22:49:30.426747] [19] RADIO_STATUS
[22:49:31.334601] [185] BATTERY_STATUS
[22:49:31.342547] [186] ATTITUDE_TARGET
[22:49:31.373901] [187] VFR_HUD
[22:49:31.400526] [20] RADIO
[22:49:31.403528] [20] RADIO_STATUS
[22:49:32.001595] [188] VFR_HUD
[22:49:32.122570] [189] HEARTBEAT
[22:49:32.340553] [21] RADIO
[22:49:32.345623] [21] RADIO_STATUS
[22:49:33.160753] [191] HEARTBEAT
[22:49:33.168785] [192] ATTITUDE_TARGET
[22:49:33.385696] [22] RADIO
[22:49:33.388684] [22] RADIO_STATUS
[22:49:33.610679] [193] VFR_HUD
[22:49:34.186795] [194] HEARTBEAT
[22:49:34.410795] [23] RADIO
[22:49:34.413779] [23] RADIO_STATUS
[22:49:34.530831] [195] VFR_HUD
[22:49:35.455903] [24] RADIO
[22:49:35.458912] [24] RADIO_STATUS
[22:49:36.147077] [201] VFR_HUD
[22:49:36.150030] [202] HEARTBEAT
[22:49:36.480068] [25] RADIO
[22:49:36.482990] [25] RADIO_STATUS
[22:49:36.721027] [203] VFR_HUD
[22:49:37.195230] [204] HEARTBEAT
[22:49:37.203121] [205] ATTITUDE_TARGET
