[22:56:16.703012] [7] VFR_HUD
[22:56:17.171911] [8] HEARTBEAT
[22:56:17.179875] [9] ATTITUDE_TARGET
[22:56:17.277931] [168] RADIO
[22:56:17.280863] [168] RADIO_STATUS
[22:56:17.513424] [10] VFR_HUD
[22:56:18.078017] [11] HEARTBEAT
[22:56:18.313178] [12] VFR_HUD
[22:56:18.345148] [169] RADIO
[22:56:18.348015] [169] RADIO_STATUS
[22:56:19.130207] [13] HEARTBEAT
[22:56:19.137124] [14] SYS_STATUS
[22:56:19.255137] [15] BATTERY_STATUS
[22:56:19.263123] [16] ATTITUDE_TARGET
[22:56:19.293236] [17] VFR_HUD
[22:56:19.321126] [170] RADIO
[22:56:19.324214] [170] RADIO_STATUS
[22:56:19.922289] [18] VFR_HUD
[22:56:20.148264] [19] HEARTBEAT
[22:56:20.386372] [171] RADIO
[22:56:20.389277] [171] RADIO_STATUS
[22:56:20.737436] [20] VFR_HUD
[22:56:21.201371] [21] HEARTBEAT
[22:56:21.209396] [22] ATTITUDE_TARGET
[22:56:21.329484] [172] RADIO
[22:56:21.332340] [172] RADIO_STATUS
[22:56:21.532392] [23] VFR_HUD
[22:56:22.107424] [24] HEARTBEAT
[22:56:22.331446] [173] RADIO
[22:56:22.334418] [173] RADIO_STATUS
[22:56:22.369468] [25] VFR_HUD
[22:56:23.149498] [26] HEARTBEAT
[22:56:23.156447] [27] SYS_STATUS
[22:56:23.276550] [28] BATTERY_STATUS
[22:56:23.388585] [29] ATTITUDE_TARGET
[22:56:23.393577] [30] VFR_HUD
[22:56:23.427574] [174] RADIO
[22:56:23.430580] [174] RADIO_STATUS
[22:56:23.956675] [31] VFR_HUD
[22:56:24.073599] [32] HEARTBEAT
[22:56:24.400711] [175] RADIO
[22:56:24.403665] [175] RADIO_STATUS
[22:56:24.751683] [33] VFR_HUD
[22:56:25.110724] [34] HEARTBEAT
[22:56:25.118710] [35] ATTITUDE_TARGET
[22:56:25.320822] [176] RADIO
[22:56:25.323632] [176] RADIO_STATUS
[22:56:25.560775] [36] VFR_HUD
[22:56:26.126945] [37] HEARTBEAT
[22:56:26.361929] [38] VFR_HUD
[22:56:26.388918] [177] RADIO
[22:56:26.390926] [177] RADIO_STATUS
[22:56:27.179016] [39] HEARTBEAT
[22:56:27.184850] [40] SYS_STATUS
[22:56:27.306921] [41] BATTERY_STATUS
[22:56:27.308863] [42] EXTENDED_SYS_STATE
[22:56:27.317049] [43] ATTITUDE_TARGET
[22:56:27.320885] [44] VFR_HUD
[22:56:27.325039] [45] SYSTEM_TIME
[22:56:27.347907] [178] RADIO
[22:56:27.350872] [178] RADIO_STATUS
[22:56:27.971054] [46] VFR_HUD
[22:56:28.086071] [47] HEARTBEAT
[22:56:28.430074] [179] RADIO
[22:56:28.433000] [179] RADIO_STATUS
[22:56:28.781070] [48] VFR_HUD
[22:56:29.130092] [49] HEARTBEAT
[22:56:29.138074] [50] ATTITUDE_TARGET
[22:56:29.350176] [180] RADIO
[22:56:29.353027] [180] RADIO_STATUS
[22:56:29.580105] [51] VFR_HUD
[22:56:30.156295] [52] HEARTBEAT
[22:56:30.379139] [181] RADIO
[22:56:30.382116] [181] RADIO_STATUS
[22:56:30.418177] [53] VFR_HUD
[22:56:31.093280] [54] HEARTBEAT
[22:56:31.100219] [55] SYS_STATUS
[22:56:31.139220] [56] BATTERY_STATUS
[22:56:31.147351] [57] ATTITUDE_TARGET
[22:56:31.152162] [58] VFR_HUD
[22:56:31.419232] [182] RADIO
[22:56:31.422245] [182] RADIO_STATUS
[22:56:32.116313] [59] VFR_HUD
[22:56:32.119330] [60] HEARTBEAT
[22:56:32.449458] [183] RADIO
[22:56:32.452315] [183] RADIO_STATUS
[22:56:32.690366] [61] VFR_HUD
[22:56:33.164450] [62] HEARTBEAT
[22:56:33.172467] [63] ATTITUDE_TARGET
[22:56:33.369533] [184] RADIO
[22:56:33.372392] [184] RADIO_STATUS
[22:56:33.490405] [64] VFR_HUD
[22:56:34.175473] [65] HEARTBEAT
[22:56:34.299503] [66] VFR_HUD
[22:56:34.408616] [185] RADIO
[22:56:34.411644] [185] RADIO_STATUS
[22:56:35.106617] [67] HEARTBEAT
[22:56:35.113634] [68] SYS_STATUS
[22:56:35.233588] [69] BATTERY_STATUS
[22:56:35.345596] [70] ATTITUDE_TARGET
[22:56:35.350587] [71] VFR_HUD
[22:56:35.384703] [186] RADIO
[22:56:35.387580] [186] RADIO_STATUS
[22:56:35.908803] [72] VFR_HUD
[22:56:36.139819] [73] HEARTBEAT
[22:56:36.478703] [187] RADIO
[22:56:36.480641] [187] RADIO_STATUS
[22:56:36.708880] [74] VFR_HUD
[22:56:37.177814] [75] HEARTBEAT
[22:56:37.185777] [76] ATTITUDE_TARGET
[22:56:37.397832] [188] RADIO
[22:56:37.400767] [188] RADIO_STATUS
[22:56:37.518924] [77] VFR_HUD
[22:56:38.083918] [78] HEARTBEAT
[22:56:38.318914] [79] VFR_HUD
[22:56:38.428028] [189] RADIO
[22:56:38.430875] [189] RADIO_STATUS
[22:56:39.140987] [80] HEARTBEAT
[22:56:39.148132] [81] SYS_STATUS
[22:56:39.187011] [82] BATTERY_STATUS
[22:56:39.194992] [83] ATTITUDE_TARGET
[22:56:39.200069] [84] VFR_HUD
[22:56:39.467157] [190] RADIO
[22:56:39.470029] [190] RADIO_STATUS
[22:56:40.164097] [85] VFR_HUD
[22:56:40.167086] [86] HEARTBEAT
[22:56:40.392159] [191] RADIO
[22:56:40.395275] [191] RADIO_STATUS
[22:56:40.743272] [87] VFR_HUD
[22:56:41.213721] [88] HEARTBEAT
[22:56:41.220211] [89] ATTITUDE_TARGET
[22:56:41.417363] [192] RADIO
[22:56:41.420292] [192] RADIO_STATUS
[22:56:41.537214] [90] VFR_HUD
[22:56:42.113434] [91] HEARTBEAT
[22:56:42.352313] [92] VFR_HUD
[22:56:42.473309] [193] RADIO
[22:56:42.476270] [193] RADIO_STATUS
[22:56:43.154536] [93] HEARTBEAT
[22:56:43.161375] [94] SYS_STATUS
[22:56:43.281451] [95] BATTERY_STATUS
[22:56:43.393420] [96] ATTITUDE_TARGET
[22:56:43.398426] [97] VFR_HUD
[22:56:43.432565] [194] RADIO
[22:56:43.435399] [194] RADIO_STATUS
[22:56:43.957468] [98] VFR_HUD
[22:56:44.182608] [99] HEARTBEAT
[22:56:44.406601] [195] RADIO
[22:56:44.409471] [195] RADIO_STATUS
[22:56:44.756544] [100] VFR_HUD
[22:56:45.115709] [101] HEARTBEAT
[22:56:45.123627] [102] ATTITUDE_TARGET
[22:56:45.451557] [196] RADIO
[22:56:45.453527] [196] RADIO_STATUS
[22:56:45.566527] [103] VFR_HUD
[22:56:46.131810] [104] HEARTBEAT
[22:56:46.366702] [105] VFR_HUD
[22:56:46.475742] [197] RADIO
[22:56:46.478689] [197] RADIO_STATUS
[22:56:47.183815] [106] HEARTBEAT
[22:56:47.190718] [107] SYS_STATUS
[22:56:47.313337] [108] BATTERY_STATUS
[22:56:47.313665] [109] EXTENDED_SYS_STATE
[22:56:47.321775] [110] ATTITUDE_TARGET
[22:56:47.326708] [111] VFR_HUD
[22:56:47.329715] [112] SYSTEM_TIME
[22:56:47.520891] [198] RADIO
[22:56:47.523831] [198] RADIO_STATUS
[22:56:47.975788] [113] VFR_HUD
[22:56:48.091783] [114] HEARTBEAT
[22:56:48.434824] [199] RADIO
[22:56:48.437745] [199] RADIO_STATUS
[22:56:48.785827] [115] VFR_HUD
[22:56:49.135000] [116] HEARTBEAT
[22:56:49.142853] [117] ATTITUDE_TARGET
[22:56:49.465008] [200] RADIO
[22:56:49.467841] [200] RADIO_STATUS
[22:56:49.503021] [118] VFR_HUD
[22:56:50.160944] [119] HEARTBEAT
[22:56:50.400062] [120] VFR_HUD
[22:56:50.520965] [201] RADIO
[22:56:50.523965] [201] RADIO_STATUS
[22:56:51.098181] [121] HEARTBEAT
[22:56:51.105102] [122] SYS_STATUS
[22:56:51.144099] [123] BATTERY_STATUS
[22:56:51.152064] [124] ATTITUDE_TARGET
[22:56:51.157042] [125] VFR_HUD
[22:56:51.534140] [202] RADIO
[22:56:51.537075] [202] RADIO_STATUS
[22:56:51.885266] [126] VFR_HUD
[22:56:52.110281] [127] HEARTBEAT
[22:56:52.454358] [203] RADIO
[22:56:52.457196] [203] RADIO_STATUS
[22:56:52.694507] [128] VFR_HUD
[22:56:53.164333] [129] HEARTBEAT
[22:56:53.171287] [130] ATTITUDE_TARGET
[22:56:53.494444] [131] VFR_HUD
[22:56:53.521311] [204] RADIO
[22:56:53.524375] [204] RADIO_STATUS
[22:56:54.075344] [132] HEARTBEAT
[22:56:54.304310] [133] VFR_HUD
[22:56:54.523399] [205] RADIO
[22:56:54.526303] [205] RADIO_STATUS
[22:56:55.111405] [134] HEARTBEAT
[22:56:55.118465] [135] SYS_STATUS
[22:56:55.233701] [136] BATTERY_STATUS
[22:56:55.350454] [137] ATTITUDE_TARGET
[22:56:55.355370] [138] VFR_HUD
[22:56:55.563549] [206] RADIO
[22:56:55.566357] [206] RADIO_STATUS
[22:56:56.144459] [140] HEARTBEAT
[22:56:56.483510] [207] RADIO
[22:56:56.486452] [207] RADIO_STATUS
[22:56:56.713701] [141] VFR_HUD
[22:56:57.182726] [142] HEARTBEAT
[22:56:57.192639] [143] ATTITUDE_TARGET
[22:56:57.512777] [208] RADIO
[22:56:57.515745] [208] RADIO_STATUS
[22:56:57.551567] [144] VFR_HUD
[22:56:58.323751] [146] VFR_HUD
[22:56:58.552673] [209] RADIO
[22:56:58.555653] [209] RADIO_STATUS
[22:56:59.145825] [147] HEARTBEAT
[22:56:59.152709] [148] SYS_STATUS
[22:56:59.192785] [149] BATTERY_STATUS
[22:56:59.199731] [150] ATTITUDE_TARGET
[22:56:59.204737] [151] VFR_HUD
[22:56:59.585790] [210] RADIO
[22:56:59.588754] [210] RADIO_STATUS
[22:56:59.932820] [152] VFR_HUD
[22:57:00.158934] [153] HEARTBEAT
[22:57:00.501877] [211] RADIO
[22:57:00.504829] [211] RADIO_STATUS
[22:57:00.747863] [154] VFR_HUD
[22:57:01.077935] [155] HEARTBEAT
[22:57:01.100982] [156] ATTITUDE_TARGET
[22:57:01.651970] [212] RADIO
[22:57:01.654940] [212] RADIO_STATUS
[22:57:02.123125] [158] HEARTBEAT
[22:57:02.571318] [213] RADIO
[22:57:02.574091] [213] RADIO_STATUS
[22:57:03.161841] [160] HEARTBEAT
[22:57:03.166170] [161] SYS_STATUS
[22:57:03.286188] [162] BATTERY_STATUS
[22:57:03.398184] [163] ATTITUDE_TARGET
[22:57:03.403129] [164] VFR_HUD
[22:57:03.491175] [214] RADIO
[22:57:03.494156] [214] RADIO_STATUS
[22:57:03.809398] JAMMING_START
[22:57:04.192285] [166] HEARTBEAT
[22:57:04.536320] [215] RADIO
[22:57:04.538244] [215] RADIO_STATUS
[22:57:04.761304] [167] VFR_HUD
[22:57:05.229362] [168] HEARTBEAT
[22:57:05.237350] [169] ATTITUDE_TARGET
[22:57:05.560413] [216] RADIO
[22:57:05.562336] [216] RADIO_STATUS
[22:57:05.680416] [170] VFR_HUD
[22:57:06.145493] [171] HEARTBEAT
[22:57:06.370479] [172] VFR_HUD
[22:57:06.599486] [217] RADIO
[22:57:06.602454] [217] RADIO_STATUS
[22:57:07.187523] [173] HEARTBEAT
[22:57:07.194546] [174] SYS_STATUS
[22:57:07.316588] [175] BATTERY_STATUS
[22:57:07.317479] [176] EXTENDED_SYS_STATE
[22:57:07.325544] [177] ATTITUDE_TARGET
[22:57:07.330518] [178] VFR_HUD
[22:57:07.333505] [179] SYSTEM_TIME
[22:57:07.523562] [218] RADIO
[22:57:07.526478] [218] RADIO_STATUS
[22:57:07.979574] [180] VFR_HUD
[22:57:08.548680] [219] RADIO
[22:57:08.551625] [219] RADIO_STATUS
[22:57:08.793729] [182] VFR_HUD
[22:57:09.137711] [183] HEARTBEAT
[22:57:09.145738] [184] ATTITUDE_TARGET
[22:57:09.483782] [185] VFR_HUD
[22:57:09.697817] [220] RADIO
[22:57:09.700774] [220] RADIO_STATUS
[22:57:10.163879] [186] HEARTBEAT
[22:57:10.509050] [187] VFR_HUD
[22:57:10.524887] [221] RADIO
[22:57:10.528127] [221] RADIO_STATUS
[22:57:11.096006] [188] HEARTBEAT
[22:57:11.102939] [189] SYS_STATUS
[22:57:11.220963] [190] BATTERY_STATUS
[22:57:11.229076] [191] ATTITUDE_TARGET
[22:57:11.258926] [192] VFR_HUD
[22:57:11.537982] [222] RADIO
[22:57:11.540962] [222] RADIO_STATUS
[22:57:12.114178] [194] HEARTBEAT
[22:57:12.582092] [223] RADIO
[22:57:12.585045] [223] RADIO_STATUS
[22:57:13.276223] [196] HEARTBEAT
[22:57:13.284201] [197] ATTITUDE_TARGET
[22:57:13.498316] [198] VFR_HUD
[22:57:13.607204] [224] RADIO
[22:57:13.610187] [224] RADIO_STATUS
[22:57:14.078350] [199] HEARTBEAT
[22:57:14.655345] [225] RADIO
[22:57:14.658260] [225] RADIO_STATUS
[22:57:15.115401] [201] HEARTBEAT
[22:57:15.121350] [202] SYS_STATUS
[22:57:15.236353] [203] BATTERY_STATUS
[22:57:15.583430] [204] ATTITUDE_TARGET
[22:57:15.588390] [205] VFR_HUD
[22:57:15.599374] [226] RADIO
[22:57:15.602360] [226] RADIO_STATUS
[22:57:15.922402] [206] VFR_HUD
[22:57:16.142451] [207] HEARTBEAT
[22:57:16.596462] [227] RADIO
[22:57:16.599434] [227] RADIO_STATUS
[22:57:16.716653] [208] VFR_HUD
[22:57:17.185569] [209] HEARTBEAT
[22:57:17.193543] [210] ATTITUDE_TARGET
[22:57:17.531568] [211] VFR_HUD
[22:57:17.746042] [228] RADIO
[22:57:17.748576] [228] RADIO_STATUS
[22:57:18.091654] [212] HEARTBEAT
[22:57:18.326607] [213] VFR_HUD
[22:57:18.665688] [229] RADIO
[22:57:18.668636] [229] RADIO_STATUS
[22:57:19.148717] [214] HEARTBEAT
[22:57:19.155702] [215] SYS_STATUS
[22:57:19.194923] [216] BATTERY_STATUS
[22:57:19.202682] [217] ATTITUDE_TARGET
[22:57:19.207693] [218] VFR_HUD
[22:57:19.584757] [230] RADIO
[22:57:19.587719] [230] RADIO_STATUS
[22:57:19.946761] [219] VFR_HUD
[22:57:20.160847] [220] HEARTBEAT
[22:57:20.623864] [231] RADIO
[22:57:20.626799] [231] RADIO_STATUS
[22:57:21.102973] [223] ATTITUDE_TARGET
[22:57:21.543968] [224] VFR_HUD
[22:57:21.653960] [232] RADIO
[22:57:21.656929] [232] RADIO_STATUS
[22:57:22.125095] [225] HEARTBEAT
[22:57:22.693013] [233] RADIO
[22:57:22.696030] [233] RADIO_STATUS
[22:57:23.164954] [227] HEARTBEAT
[22:57:23.169907] [228] SYS_STATUS
[22:57:23.288096] [229] BATTERY_STATUS
[22:57:23.433090] [230] ATTITUDE_TARGET
[22:57:23.437147] [231] VFR_HUD
[22:57:23.611063] [234] RADIO
[22:57:23.614051] [234] RADIO_STATUS
[22:57:23.962148] [232] VFR_HUD
[22:57:24.067142] [233] HEARTBEAT
[22:57:24.641255] [235] RADIO
[22:57:24.644193] [235] RADIO_STATUS
[22:57:25.126342] [235] HEARTBEAT
[22:57:25.134465] [236] ATTITUDE_TARGET
[22:57:25.571389] [237] VFR_HUD
[22:57:25.680364] [236] RADIO
[22:57:25.683324] [236] RADIO_STATUS
[22:57:26.137519] [238] HEARTBEAT
[22:57:26.371421] [239] VFR_HUD
[22:57:26.710490] [237] RADIO
[22:57:26.713481] [237] RADIO_STATUS
[22:57:27.193530] [240] HEARTBEAT
[22:57:27.200570] [241] SYS_STATUS
[22:57:27.234547] [242] BATTERY_STATUS
[22:57:27.236505] [243] EXTENDED_SYS_STATE
[22:57:27.244571] [244] ATTITUDE_TARGET
[22:57:27.249484] [245] VFR_HUD
[22:57:27.252523] [246] SYSTEM_TIME
[22:57:27.630585] [238] RADIO
[22:57:27.632491] [238] RADIO_STATUS
[22:57:27.992569] [247] VFR_HUD
[22:57:28.669701] [239] RADIO
[22:57:28.672612] [239] RADIO_STATUS
[22:57:28.900730] [249] VFR_HUD
[22:57:29.480860] [252] VFR_HUD
[22:57:29.699727] [240] RADIO
[22:57:29.702670] [240] RADIO_STATUS
[22:57:30.165827] [253] HEARTBEAT
[22:57:30.279758] [254] VFR_HUD
[22:57:30.738879] [241] RADIO
[22:57:30.741816] [241] RADIO_STATUS
[22:57:31.222851] [1] BATTERY_STATUS
[22:57:31.230815] [2] ATTITUDE_TARGET
[22:57:31.260878] [3] VFR_HUD
[22:57:31.663903] [242] RADIO
[22:57:31.666905] [242] RADIO_STATUS
[22:57:31.889883] [4] VFR_HUD
[22:57:32.115001] [5] HEARTBEAT
[22:57:32.688918] [243] RADIO
[22:57:32.691959] [243] RADIO_STATUS
[22:57:32.808982] [6] VFR_HUD
[22:57:33.168163] [7] HEARTBEAT
[22:57:33.175990] [8] ATTITUDE_TARGET
[22:57:33.499052] [9] VFR_HUD
[22:57:33.728020] [244] RADIO
[22:57:33.731120] [244] RADIO_STATUS
[22:57:34.074128] [10] HEARTBEAT
[22:57:34.314136] [11] VFR_HUD
[22:57:34.653289] [245] RADIO
[22:57:34.656170] [245] RADIO_STATUS
[22:57:35.116216] [12] HEARTBEAT
[22:57:35.122182] [13] SYS_STATUS
[22:57:35.237205] [14] BATTERY_STATUS
[22:57:35.355220] [15] ATTITUDE_TARGET
[22:57:35.360242] [16] VFR_HUD
[22:57:35.677230] [246] RADIO
[22:57:35.680179] [246] RADIO_STATUS
[22:57:35.923246] [17] VFR_HUD
[22:57:36.717374] [19] VFR_HUD
[22:57:36.749861] [247] RADIO
[22:57:36.752330] [247] RADIO_STATUS
[22:57:37.532604] [22] VFR_HUD
[22:57:37.746507] [248] RADIO
[22:57:37.749451] [248] RADIO_STATUS
[22:57:38.092595] [23] HEARTBEAT
[22:57:38.791603] [249] RADIO
[22:57:38.794625] [249] RADIO_STATUS
[22:57:39.269793] [27] BATTERY_STATUS
[22:57:39.277689] [28] ATTITUDE_TARGET
[22:57:39.309430] [29] VFR_HUD
[22:57:39.710967] [250] RADIO
[22:57:39.713785] [250] RADIO_STATUS
[22:57:39.936746] [30] VFR_HUD
[22:57:40.161786] [31] HEARTBEAT
[22:57:40.735872] [251] RADIO
[22:57:40.738865] [251] RADIO_STATUS
[22:57:40.855874] [32] VFR_HUD
[22:57:41.094915] [33] HEARTBEAT
[22:57:41.102966] [34] ATTITUDE_TARGET
[22:57:41.545892] [35] VFR_HUD
[22:57:41.884956] [252] RADIO
[22:57:41.887879] [252] RADIO_STATUS
[22:57:42.125951] [36] HEARTBEAT
[22:57:42.355959] [37] VFR_HUD
[22:57:42.805061] [253] RADIO
[22:57:42.808020] [253] RADIO_STATUS
[22:57:43.163059] [38] HEARTBEAT
[22:57:43.169361] [39] SYS_STATUS
[22:57:43.284096] [40] BATTERY_STATUS
[22:57:43.402111] [41] ATTITUDE_TARGET
[22:57:43.407114] [42] VFR_HUD
[22:57:43.724158] [254] RADIO
[22:57:43.728780] [254] RADIO_STATUS
[22:57:43.965188] [43] VFR_HUD
[22:57:44.765250] [45] VFR_HUD
[22:57:44.792227] [255] RADIO
[22:57:44.795187] [255] RADIO_STATUS
[22:57:45.129332] [46] HEARTBEAT
[22:57:45.137277] [47] ATTITUDE_TARGET
[22:57:45.580309] [48] VFR_HUD
[22:57:45.793864] [0] RADIO
[22:57:45.796334] [0] RADIO_STATUS
[22:57:46.140384] [49] HEARTBEAT
[22:57:46.718343] [1] RADIO
[22:57:46.721346] [1] RADIO_STATUS
[22:57:47.753468] [2] RADIO
[22:57:47.756427] [2] RADIO_STATUS
[22:57:47.983537] [58] VFR_HUD
[22:57:48.104558] [59] HEARTBEAT
[22:57:48.782646] [3] RADIO
[22:57:48.785575] [3] RADIO_STATUS
[22:57:49.142650] [61] HEARTBEAT
[22:57:49.150617] [62] ATTITUDE_TARGET
[22:57:49.822695] [4] RADIO
[22:57:49.825701] [4] RADIO_STATUS
[22:57:50.174810] [64] HEARTBEAT
[22:57:50.283748] [65] VFR_HUD
[22:57:50.742768] [5] RADIO
[22:57:50.745735] [5] RADIO_STATUS
[22:57:51.225848] [68] BATTERY_STATUS
[22:57:51.233835] [69] ATTITUDE_TARGET
[22:57:51.263896] [70] VFR_HUD
[22:57:51.771894] [6] RADIO
[22:57:51.774887] [6] RADIO_STATUS
[22:57:51.892966] [71] VFR_HUD
[22:57:52.127989] [72] HEARTBEAT
[22:57:52.707977] [73] VFR_HUD
[22:57:52.823069] [7] RADIO
[22:57:52.825997] [7] RADIO_STATUS
[22:57:53.172044] [74] HEARTBEAT
[22:57:53.179028] [75] ATTITUDE_TARGET
[22:57:53.502097] [76] VFR_HUD
[22:57:53.841128] [8] RADIO
[22:57:53.844100] [8] RADIO_STATUS
[22:57:54.317185] [78] VFR_HUD
[22:57:54.761253] [9] RADIO
[22:57:54.764160] [9] RADIO_STATUS
[22:57:55.119276] [79] HEARTBEAT
[22:57:55.126297] [80] SYS_STATUS
[22:57:55.358337] [82] ATTITUDE_TARGET
[22:57:55.363281] [83] VFR_HUD
[22:57:55.801308] [10] RADIO
[22:57:55.804309] [10] RADIO_STATUS
[22:57:55.926374] [84] VFR_HUD
[22:57:56.149395] [85] HEARTBEAT
[22:57:56.830522] [11] RADIO
[22:57:56.833405] [11] RADIO_STATUS
[22:57:57.066496] [87] HEARTBEAT
[22:57:57.089435] [88] ATTITUDE_TARGET
[22:57:57.870481] [12] RADIO
[22:57:57.873453] [12] RADIO_STATUS
[22:57:58.096667] [90] HEARTBEAT
[22:57:58.330604] [91] VFR_HUD
[22:57:58.795852] [13] RADIO
[22:57:58.798717] [13] RADIO_STATUS
[22:57:59.273727] [94] BATTERY_STATUS
[22:57:59.281700] [95] ATTITUDE_TARGET
[22:57:59.311727] [96] VFR_HUD
[22:57:59.819754] [14] RADIO
[22:57:59.822725] [14] RADIO_STATUS
[22:57:59.940712] [97] VFR_HUD
[22:58:00.749870] [99] VFR_HUD
[22:58:00.864804] [15] RADIO
[22:58:00.867792] [15] RADIO_STATUS
[22:58:01.099894] [100] HEARTBEAT
[22:58:01.106890] [101] ATTITUDE_TARGET
[22:58:01.549944] [102] VFR_HUD
[22:58:01.888997] [16] RADIO
[22:58:01.891893] [16] RADIO_STATUS
[22:58:02.359986] [104] VFR_HUD
[22:58:02.809314] [17] RADIO
[22:58:02.812079] [17] RADIO_STATUS
[22:58:03.168158] [105] HEARTBEAT
[22:58:03.174061] [106] SYS_STATUS
[22:58:03.406114] [108] ATTITUDE_TARGET
[22:58:03.411060] [109] VFR_HUD
[22:58:03.854091] [18] RADIO
[22:58:03.857014] [18] RADIO_STATUS
[22:58:03.974063] [110] VFR_HUD
[22:58:04.086088] [111] HEARTBEAT
[22:58:04.769161] [112] VFR_HUD
[22:58:04.801216] [19] RADIO
[22:58:04.804358] [19] RADIO_STATUS
[22:58:05.133257] [113] HEARTBEAT
[22:58:05.141236] [114] ATTITUDE_TARGET
[22:58:05.688386] [115] VFR_HUD
[22:58:05.798361] [20] RADIO
[22:58:05.801282] [20] RADIO_STATUS
[22:58:06.144390] [116] HEARTBEAT
[22:58:06.378399] [117] VFR_HUD
[22:58:06.842421] [21] RADIO
[22:58:06.845385] [21] RADIO_STATUS
[22:58:07.867804] [22] RADIO
[22:58:07.870498] [22] RADIO_STATUS
[22:58:07.987556] [125] VFR_HUD
[22:58:08.108575] [126] HEARTBEAT
[22:58:08.677672] [127] VFR_HUD
[22:58:08.912730] [23] RADIO
[22:58:08.914647] [23] RADIO_STATUS
[22:58:09.146746] [128] HEARTBEAT
[22:58:09.154706] [129] ATTITUDE_TARGET
[22:58:09.826766] [24] RADIO
[22:58:09.829744] [24] RADIO_STATUS
[22:58:10.286840] [132] VFR_HUD
[22:58:10.855872] [25] RADIO
[22:58:10.858861] [25] RADIO_STATUS
[22:58:11.109924] [133] HEARTBEAT
[22:58:11.115875] [134] SYS_STATUS
[22:58:11.155964] [135] BATTERY_STATUS
[22:58:11.163932] [136] ATTITUDE_TARGET
[22:58:11.169096] [137] VFR_HUD
[22:58:11.895969] [26] RADIO
[22:58:11.899043] [26] RADIO_STATUS
[22:58:12.132012] [138] VFR_HUD
[22:58:12.134992] [139] HEARTBEAT
[22:58:12.712063] [140] VFR_HUD
[22:58:12.926062] [27] RADIO
[22:58:12.927999] [27] RADIO_STATUS
[22:58:13.180106] [141] HEARTBEAT
[22:58:13.188329] [142] ATTITUDE_TARGET
[22:58:13.517196] [143] VFR_HUD
[22:58:13.850191] [28] RADIO
[22:58:13.853067] [28] RADIO_STATUS
[22:58:14.321241] [145] VFR_HUD
[22:58:14.885227] [29] RADIO
[22:58:14.888185] [29] RADIO_STATUS
[22:58:15.123394] [146] HEARTBEAT
[22:58:15.130307] [147] SYS_STATUS
[22:58:15.361345] [149] ATTITUDE_TARGET
[22:58:15.366343] [150] VFR_HUD
[22:58:15.914377] [30] RADIO
[22:58:15.917349] [30] RADIO_STATUS
[22:58:16.035347] [151] VFR_HUD
[22:58:16.150572] [152] HEARTBEAT
[22:58:16.724545] [153] VFR_HUD
[22:58:16.953467] [31] RADIO
[22:58:16.956431] [31] RADIO_STATUS
[22:58:17.873593] [32] RADIO
[22:58:17.876509] [32] RADIO_STATUS
[22:58:18.099667] [157] HEARTBEAT
[22:58:18.334634] [158] VFR_HUD
[22:58:18.903752] [33] RADIO
[22:58:18.906868] [33] RADIO_STATUS
[22:58:19.151761] [159] HEARTBEAT
[22:58:19.158823] [160] SYS_STATUS
[22:58:19.276758] [161] BATTERY_STATUS
[22:58:19.284716] [162] ATTITUDE_TARGET
[22:58:19.316042] [163] VFR_HUD
[22:58:19.943810] [164] VFR_HUD
[22:58:19.970794] [34] RADIO
[22:58:19.973812] [34] RADIO_STATUS
[22:58:20.169035] [165] HEARTBEAT
[22:58:20.753973] [166] VFR_HUD
[22:58:20.972936] [35] RADIO
[22:58:20.975913] [35] RADIO_STATUS
[22:58:21.102973] [167] HEARTBEAT
[22:58:21.111039] [168] ATTITUDE_TARGET
[22:58:21.553938] [169] VFR_HUD
[22:58:21.892963] [36] RADIO
[22:58:21.895910] [36] RADIO_STATUS
[22:58:22.368045] [171] VFR_HUD
[22:58:22.932138] [37] RADIO
[22:58:22.935076] [37] RADIO_STATUS
[22:58:23.409350] [175] ATTITUDE_TARGET
[22:58:23.414090] [176] VFR_HUD
[22:58:23.962190] [38] RADIO
[22:58:23.965186] [38] RADIO_STATUS
[22:58:24.000180] [177] VFR_HUD
[22:58:24.078264] [178] HEARTBEAT
[22:58:24.772270] [179] VFR_HUD
[22:58:25.001257] [39] RADIO
[22:58:25.004248] [39] RADIO_STATUS
[22:58:25.241335] [180] HEARTBEAT
[22:58:25.248307] [181] ATTITUDE_TARGET
[22:58:25.692379] [182] VFR_HUD
[22:58:25.926388] [40] RADIO
[22:58:25.929403] [40] RADIO_STATUS
[22:58:26.147406] [183] HEARTBEAT
[22:58:26.382470] [184] VFR_HUD
[22:58:26.950525] [41] RADIO
[22:58:26.953480] [41] RADIO_STATUS
[22:58:27.199545] [185] HEARTBEAT
[22:58:27.205586] [186] SYS_STATUS
[22:58:27.327552] [187] BATTERY_STATUS
[22:58:27.329527] [188] EXTENDED_SYS_STATE
[22:58:27.337544] [189] ATTITUDE_TARGET
[22:58:27.341505] [190] VFR_HUD
[22:58:27.345524] [191] SYSTEM_TIME
[22:58:27.996589] [42] RADIO
[22:58:27.998554] [42] RADIO_STATUS
[22:58:28.112874] [193] HEARTBEAT
[22:58:28.681779] [194] VFR_HUD
[22:58:29.020699] [43] RADIO
[22:58:29.023693] [43] RADIO_STATUS
[22:58:29.150723] [195] HEARTBEAT
[22:58:29.158752] [196] ATTITUDE_TARGET
[22:58:29.495822] [197] VFR_HUD
[22:58:29.939808] [44] RADIO
[22:58:29.942765] [44] RADIO_STATUS
[22:58:30.290877] [199] VFR_HUD
[22:58:30.984947] [45] RADIO
[22:58:30.987929] [45] RADIO_STATUS
[22:58:31.112968] [200] HEARTBEAT
[22:58:31.119919] [201] SYS_STATUS
[22:58:31.159001] [202] BATTERY_STATUS
[22:58:31.167031] [203] ATTITUDE_TARGET
[22:58:31.171927] [204] VFR_HUD
[22:58:32.009048] [46] RADIO
[22:58:32.012133] [46] RADIO_STATUS
[22:58:32.715095] [207] VFR_HUD
[22:58:32.929110] [47] RADIO
[22:58:32.932059] [47] RADIO_STATUS
[22:58:33.510210] [210] VFR_HUD
[22:58:33.974182] [48] RADIO
[22:58:33.977169] [48] RADIO_STATUS
[22:58:34.090409] [211] HEARTBEAT
[22:58:34.998316] [49] RADIO
[22:58:35.001273] [49] RADIO_STATUS
[22:58:35.127391] [213] HEARTBEAT
[22:58:35.133285] [214] SYS_STATUS
[22:58:35.253303] [215] BATTERY_STATUS
[22:58:35.366359] [216] ATTITUDE_TARGET
[22:58:35.371304] [217] VFR_HUD
[22:58:36.043438] [50] RADIO
[22:58:36.046430] [50] RADIO_STATUS
[22:58:36.159482] [219] HEARTBEAT
[22:58:36.728484] [220] VFR_HUD
[22:58:37.067488] [51] RADIO
[22:58:37.070453] [51] RADIO_STATUS
[22:58:37.197522] [221] HEARTBEAT
[22:58:37.205498] [222] ATTITUDE_TARGET
[22:58:37.538526] [223] VFR_HUD
[22:58:37.987598] [52] RADIO
[22:58:37.990598] [52] RADIO_STATUS
[22:58:38.337836] [225] VFR_HUD
[22:58:39.032710] [53] RADIO
[22:58:39.035709] [53] RADIO_STATUS
[22:58:39.155800] [226] HEARTBEAT
[22:58:39.161917] [227] SYS_STATUS
[22:58:39.948105] [231] VFR_HUD
[22:58:39.974932] [54] RADIO
[22:58:39.977918] [54] RADIO_STATUS
[22:58:40.172948] [232] HEARTBEAT
[22:58:40.762981] [233] VFR_HUD
[22:58:40.977013] [55] RADIO
[22:58:40.979997] [55] RADIO_STATUS
[22:58:41.107062] [234] HEARTBEAT
[22:58:41.114041] [235] ATTITUDE_TARGET
[22:58:42.016133] [56] RADIO
[22:58:42.019166] [56] RADIO_STATUS
[22:58:42.132243] [237] HEARTBEAT
[22:58:42.372165] [238] VFR_HUD
[22:58:43.046238] [57] RADIO
[22:58:43.049183] [57] RADIO_STATUS
[22:58:43.174245] [239] HEARTBEAT
[22:58:43.181245] [240] SYS_STATUS
[22:58:43.301206] [241] BATTERY_STATUS
[22:58:43.413250] [242] ATTITUDE_TARGET
[22:58:43.418234] [243] VFR_HUD
[22:58:44.086323] [244] VFR_HUD
[22:58:44.093363] [245] HEARTBEAT
[22:58:44.118259] [58] RADIO
[22:58:44.121254] [58] RADIO_STATUS
[22:58:44.776353] [246] VFR_HUD
[22:58:45.115390] [59] RADIO
[22:58:45.118347] [59] RADIO_STATUS
[22:58:45.245387] [247] HEARTBEAT
[22:58:45.252350] [248] ATTITUDE_TARGET
[22:58:45.585434] [249] VFR_HUD
[22:58:46.034421] [60] RADIO
[22:58:46.037422] [60] RADIO_STATUS
[22:58:46.151554] [250] HEARTBEAT
[22:58:47.074483] [61] RADIO
[22:58:47.077490] [61] RADIO_STATUS
[22:58:47.202580] [252] HEARTBEAT
[22:58:47.209628] [253] SYS_STATUS
[22:58:47.890647] [3] VFR_HUD
[22:58:48.005595] [62] RADIO
[22:58:48.008556] [62] RADIO_STATUS
[22:58:48.220645] [4] HEARTBEAT
[22:58:48.684609] [5] VFR_HUD
[22:58:49.023738] [63] RADIO
[22:58:49.026779] [63] RADIO_STATUS
[22:58:49.153840] [6] HEARTBEAT
[22:58:49.161696] [7] ATTITUDE_TARGET
[22:58:49.499740] [8] VFR_HUD
[22:58:50.063822] [64] RADIO
[22:58:50.066842] [64] RADIO_STATUS
[22:58:50.179841] [9] HEARTBEAT
[22:58:50.294846] [10] VFR_HUD
[22:58:51.093003] [65] RADIO
[22:58:51.095923] [65] RADIO_STATUS
[22:58:51.152906] [11] HEARTBEAT
[22:58:51.165183] [12] SYS_STATUS
[22:58:51.166968] [13] BATTERY_STATUS
[22:58:51.179953] [14] ATTITUDE_TARGET
[22:58:51.184873] [15] VFR_HUD
[22:58:52.018286] [66] RADIO
[22:58:52.020973] [66] RADIO_STATUS
[22:58:52.129239] [17] HEARTBEAT
[22:58:53.162137] [67] RADIO
[22:58:53.165134] [67] RADIO_STATUS
[22:58:53.513365] [21] VFR_HUD
[22:58:54.082199] [68] RADIO
[22:58:54.085201] [68] RADIO_STATUS
[22:58:54.116292] [22] HEARTBEAT
[22:58:55.130648] [24] HEARTBEAT
[22:58:55.137354] [25] SYS_STATUS
[22:58:55.231339] [69] RADIO
[22:58:55.234338] [69] RADIO_STATUS
[22:58:55.301360] [26] BATTERY_STATUS
[22:58:55.309388] [27] ATTITUDE_TARGET
[22:58:55.314371] [28] VFR_HUD
[22:58:56.047435] [70] RADIO
[22:58:56.049434] [70] RADIO_STATUS
[22:58:56.277422] [29] VFR_HUD
[22:58:56.280408] [30] HEARTBEAT
[22:58:56.732915] [31] VFR_HUD
[22:58:57.071506] [71] RADIO
[22:58:57.074463] [71] RADIO_STATUS
[22:58:57.119531] [32] HEARTBEAT
[22:58:57.126524] [33] ATTITUDE_TARGET
[22:58:57.542556] [34] VFR_HUD
[22:58:58.107729] [35] HEARTBEAT
[22:58:58.138664] [72] RADIO
[22:58:58.141609] [72] RADIO_STATUS
[22:58:58.341667] [36] VFR_HUD
[22:58:59.140746] [73] RADIO
[22:58:59.143684] [73] RADIO_STATUS
[22:58:59.200774] [37] HEARTBEAT
[22:58:59.207726] [38] SYS_STATUS
[22:58:59.214770] [39] BATTERY_STATUS
[22:58:59.227724] [40] ATTITUDE_TARGET
[22:58:59.231696] [41] VFR_HUD
[22:59:00.060788] [74] RADIO
[22:59:00.063741] [74] RADIO_STATUS
[22:59:00.176851] [43] HEARTBEAT
[22:59:00.870834] [44] VFR_HUD
[22:59:01.209910] [75] RADIO
[22:59:01.212919] [75] RADIO_STATUS
[22:59:01.560957] [47] VFR_HUD
[22:59:02.130056] [76] RADIO
[22:59:02.133012] [76] RADIO_STATUS
[22:59:02.256043] [48] HEARTBEAT
[22:59:02.480117] [49] VFR_HUD
[22:59:03.178107] [50] HEARTBEAT
[22:59:03.185292] [51] SYS_STATUS
[22:59:03.197194] [77] RADIO
[22:59:03.200133] [77] RADIO_STATUS
[22:59:03.304156] [52] BATTERY_STATUS
[22:59:03.980194] [55] VFR_HUD
[22:59:04.085158] [56] HEARTBEAT
[22:59:04.117243] [78] RADIO
[22:59:04.120280] [78] RADIO_STATUS
[22:59:04.780278] [57] VFR_HUD
[22:59:05.119296] [79] RADIO
[22:59:05.122242] [79] RADIO_STATUS
[22:59:05.249343] [58] HEARTBEAT
[22:59:05.256401] [59] ATTITUDE_TARGET
[22:59:05.589326] [60] VFR_HUD
[22:59:06.155417] [61] HEARTBEAT
[22:59:06.186548] [80] RADIO
[22:59:06.189386] [80] RADIO_STATUS
[22:59:06.284403] [62] VFR_HUD
[22:59:07.074479] [63] HEARTBEAT
[22:59:07.094744] [64] SYS_STATUS
[22:59:07.106508] [81] RADIO
[22:59:07.109428] [81] RADIO_STATUS
[22:59:07.211503] [65] BATTERY_STATUS
[22:59:07.212480] [66] EXTENDED_SYS_STATE
[22:59:07.332524] [67] ATTITUDE_TARGET
[22:59:07.337468] [68] VFR_HUD
[22:59:07.340461] [69] SYSTEM_TIME
[22:59:07.894560] [70] VFR_HUD
[22:59:08.108563] [82] RADIO
[22:59:08.110706] [82] RADIO_STATUS
[22:59:08.224580] [71] HEARTBEAT
[22:59:08.688622] [72] VFR_HUD
[22:59:09.257749] [83] RADIO
[22:59:09.260691] [83] RADIO_STATUS
[22:59:09.387730] [73] HEARTBEAT
[22:59:09.394740] [74] ATTITUDE_TARGET
[22:59:09.503746] [75] VFR_HUD
[22:59:10.063828] [76] HEARTBEAT
[22:59:10.177839] [84] RADIO
[22:59:10.180775] [84] RADIO_STATUS
[22:59:11.097003] [85] RADIO
[22:59:11.100060] [85] RADIO_STATUS
[22:59:11.228125] [78] HEARTBEAT
[22:59:11.233615] [79] SYS_STATUS
[22:59:11.346914] [80] BATTERY_STATUS
[22:59:11.693978] [81] ATTITUDE_TARGET
[22:59:11.698122] [82] VFR_HUD
[22:59:11.907056] [83] VFR_HUD
[22:59:12.133133] [84] HEARTBEAT
[22:59:12.246068] [86] RADIO
[22:59:12.249057] [86] RADIO_STATUS
[22:59:13.166227] [87] RADIO
[22:59:13.169156] [87] RADIO_STATUS
[22:59:13.296304] [86] HEARTBEAT
[22:59:13.304201] [87] ATTITUDE_TARGET
[22:59:13.516186] [88] VFR_HUD
[22:59:14.097268] [89] HEARTBEAT
[22:59:14.205291] [88] RADIO
[22:59:14.208264] [88] RADIO_STATUS
[22:59:14.326282] [90] VFR_HUD
[22:59:15.133375] [91] HEARTBEAT
[22:59:15.141363] [92] SYS_STATUS
[22:59:15.235445] [89] RADIO
[22:59:15.238443] [89] RADIO_STATUS
[22:59:15.276529] [93] BATTERY_STATUS
[22:59:15.303394] [94] ATTITUDE_TARGET
[22:59:15.308363] [95] VFR_HUD
[22:59:15.935434] [96] VFR_HUD
[22:59:16.155528] [90] RADIO
[22:59:16.158585] [90] RADIO_STATUS
[22:59:16.735517] [98] VFR_HUD
[22:59:17.099544] [99] HEARTBEAT
[22:59:17.107596] [100] ATTITUDE_TARGET
[22:59:17.304571] [91] RADIO
[22:59:17.307557] [91] RADIO_STATUS
[22:59:17.550646] [101] VFR_HUD
[22:59:18.110685] [102] HEARTBEAT
[22:59:18.141646] [92] RADIO
[22:59:18.144625] [92] RADIO_STATUS
[22:59:18.344773] [103] VFR_HUD
[22:59:19.142742] [93] RADIO
[22:59:19.145772] [93] RADIO_STATUS
[22:59:19.279851] [107] ATTITUDE_TARGET
[22:59:19.284962] [108] VFR_HUD
[22:59:19.953870] [109] VFR_HUD
[22:59:20.073839] [110] HEARTBEAT
[22:59:20.182867] [94] RADIO
[22:59:20.185820] [94] RADIO_STATUS
[22:59:20.872949] [111] VFR_HUD
[22:59:21.113069] [112] HEARTBEAT
[22:59:21.120941] [113] ATTITUDE_TARGET
[22:59:21.212950] [95] RADIO
[22:59:21.216055] [95] RADIO_STATUS
[22:59:21.562958] [114] VFR_HUD
[22:59:22.144095] [115] HEARTBEAT
[22:59:22.252068] [96] RADIO
[22:59:22.255020] [96] RADIO_STATUS
[22:59:22.373094] [116] VFR_HUD
[22:59:23.180380] [117] HEARTBEAT
[22:59:23.187213] [118] SYS_STATUS
[22:59:23.200099] [97] RADIO
[22:59:23.203187] [97] RADIO_STATUS
[22:59:23.307195] [119] BATTERY_STATUS
[22:59:23.419248] [120] ATTITUDE_TARGET
[22:59:23.424130] [121] VFR_HUD
[22:59:23.982208] [122] VFR_HUD
[22:59:24.088311] [123] HEARTBEAT
[22:59:24.202252] [98] RADIO
[22:59:24.205277] [98] RADIO_STATUS
[22:59:24.677484] [124] VFR_HUD
[22:59:25.142511] [125] HEARTBEAT
[22:59:25.149339] [126] ATTITUDE_TARGET
[22:59:25.351390] [99] RADIO
[22:59:25.354396] [99] RADIO_STATUS
[22:59:25.592447] [127] VFR_HUD
[22:59:26.157623] [128] HEARTBEAT
[22:59:26.189471] [100] RADIO
[22:59:26.192501] [100] RADIO_STATUS
[22:59:26.287510] [129] VFR_HUD
[22:59:27.088606] [130] HEARTBEAT
[22:59:27.095673] [131] SYS_STATUS
[22:59:27.190544] [101] RADIO
[22:59:27.193523] [101] RADIO_STATUS
[22:59:27.896695] [137] VFR_HUD
[22:59:28.116619] [138] HEARTBEAT
[22:59:28.339642] [102] RADIO
[22:59:28.342601] [102] RADIO_STATUS
[22:59:28.690794] [139] VFR_HUD
[22:59:29.159780] [140] HEARTBEAT
[22:59:29.167816] [141] ATTITUDE_TARGET
[22:59:29.177738] [103] RADIO
[22:59:29.179890] [103] RADIO_STATUS
[22:59:29.499800] [142] VFR_HUD
[22:59:30.064845] [143] HEARTBEAT
[22:59:30.178810] [104] RADIO
[22:59:30.181825] [104] RADIO_STATUS
[22:59:30.299842] [144] VFR_HUD
[22:59:31.242018] [147] BATTERY_STATUS
[22:59:31.249964] [148] ATTITUDE_TARGET
[22:59:31.280003] [149] VFR_HUD
[22:59:31.307982] [105] RADIO
[22:59:31.311019] [105] RADIO_STATUS
[22:59:31.909038] [150] VFR_HUD
[22:59:32.248059] [106] RADIO
[22:59:32.250993] [106] RADIO_STATUS
[22:59:32.719147] [152] VFR_HUD
[22:59:33.188147] [153] HEARTBEAT
[22:59:33.196757] [154] ATTITUDE_TARGET
[22:59:33.398184] [107] RADIO
[22:59:33.401137] [107] RADIO_STATUS
[22:59:33.518226] [155] VFR_HUD
[22:59:34.207262] [108] RADIO
[22:59:34.210207] [108] RADIO_STATUS
[22:59:34.328339] [157] VFR_HUD
[22:59:35.135334] [158] HEARTBEAT
[22:59:35.142356] [159] SYS_STATUS
[22:59:35.237332] [109] RADIO
[22:59:35.240412] [109] RADIO_STATUS
[22:59:35.942453] [163] VFR_HUD
[22:59:36.162453] [164] HEARTBEAT
[22:59:36.276437] [110] RADIO
[22:59:36.279598] [110] RADIO_STATUS
[22:59:37.101553] [166] HEARTBEAT
[22:59:37.109553] [167] ATTITUDE_TARGET
[22:59:37.306591] [111] RADIO
[22:59:37.309523] [111] RADIO_STATUS
[22:59:37.656673] [168] VFR_HUD
[22:59:38.113009] [169] HEARTBEAT
[22:59:38.225637] [112] RADIO
[22:59:38.228562] [112] RADIO_STATUS
[22:59:38.346620] [170] VFR_HUD
[22:59:39.265861] [113] RADIO
[22:59:39.268723] [113] RADIO_STATUS
[22:59:40.086737] [176] VFR_HUD
[22:59:40.089756] [177] HEARTBEAT
[22:59:40.294778] [114] RADIO
[22:59:40.297732] [114] RADIO_STATUS
[22:59:40.765767] [178] VFR_HUD
[22:59:41.114868] [179] HEARTBEAT
[22:59:41.122915] [180] ATTITUDE_TARGET
[22:59:41.444909] [115] RADIO
[22:59:41.446832] [115] RADIO_STATUS
[22:59:41.564852] [181] VFR_HUD
[22:59:42.253898] [116] RADIO
[22:59:42.256876] [116] RADIO_STATUS
[22:59:42.374956] [183] VFR_HUD
[22:59:43.065226] [184] HEARTBEAT
[22:59:43.195022] [185] SYS_STATUS
[22:59:43.202002] [186] BATTERY_STATUS
[22:59:43.284005] [117] RADIO
[22:59:43.286979] [117] RADIO_STATUS
[22:59:43.359036] [188] VFR_HUD
[22:59:43.985082] [189] VFR_HUD
[22:59:44.090112] [190] HEARTBEAT
[22:59:44.324236] [118] RADIO
[22:59:44.327148] [118] RADIO_STATUS
[22:59:45.149263] [192] HEARTBEAT
[22:59:45.156224] [193] ATTITUDE_TARGET
[22:59:45.353263] [119] RADIO
[22:59:45.356195] [119] RADIO_STATUS
[22:59:45.605366] [194] VFR_HUD
[22:59:46.159419] [195] HEARTBEAT
[22:59:46.273290] [120] RADIO
[22:59:46.276272] [120] RADIO_STATUS
[22:59:46.312285] [196] VFR_HUD
[22:59:47.312552] [121] RADIO
[22:59:47.315439] [121] RADIO_STATUS
[22:59:48.118629] [205] HEARTBEAT
[22:59:48.342540] [122] RADIO
[22:59:48.345545] [122] RADIO_STATUS
[22:59:48.693596] [206] VFR_HUD
[22:59:49.162685] [207] HEARTBEAT
[22:59:49.170807] [208] ATTITUDE_TARGET
[22:59:49.492688] [123] RADIO
[22:59:49.495809] [123] RADIO_STATUS
[22:59:49.612947] [209] VFR_HUD
[22:59:50.302759] [211] VFR_HUD
[22:59:50.335804] [124] RADIO
[22:59:50.338861] [124] RADIO_STATUS
[22:59:51.120947] [212] HEARTBEAT
[22:59:51.126841] [213] SYS_STATUS
[22:59:51.245865] [214] BATTERY_STATUS
[22:59:51.253846] [215] ATTITUDE_TARGET
[22:59:51.283824] [216] VFR_HUD
[22:59:51.311823] [125] RADIO
[22:59:51.313840] [125] RADIO_STATUS
[22:59:51.912915] [217] VFR_HUD
[22:59:52.137982] [218] HEARTBEAT
[22:59:52.376982] [126] RADIO
[22:59:52.379949] [126] RADIO_STATUS
[22:59:52.723033] [219] VFR_HUD
[22:59:53.192066] [220] HEARTBEAT
[22:59:53.200019] [221] ATTITUDE_TARGET
[22:59:53.320040] [127] RADIO
[22:59:53.323013] [127] RADIO_STATUS
[22:59:53.522133] [222] VFR_HUD
[22:59:54.321113] [128] RADIO
[22:59:54.324091] [128] RADIO_STATUS
[22:59:54.360193] [224] VFR_HUD
[22:59:55.378293] [228] ATTITUDE_TARGET
[22:59:55.383214] [229] VFR_HUD
[22:59:55.417213] [129] RADIO
[22:59:55.420209] [129] RADIO_STATUS
[22:59:56.051294] [230] VFR_HUD
[22:59:56.167347] [231] HEARTBEAT
[22:59:56.391337] [130] RADIO
[22:59:56.393269] [130] RADIO_STATUS
[22:59:56.741388] [232] VFR_HUD
[22:59:57.210438] [233] HEARTBEAT
[22:59:57.217438] [234] ATTITUDE_TARGET
[22:59:57.310439] [131] RADIO
[22:59:57.313467] [131] RADIO_STATUS
[22:59:57.660478] [235] VFR_HUD
[22:59:58.116516] [236] HEARTBEAT
[22:59:58.350487] [237] VFR_HUD
[22:59:58.382505] [132] RADIO
[22:59:58.385442] [132] RADIO_STATUS
[22:59:59.167790] [238] HEARTBEAT
[22:59:59.174546] [239] SYS_STATUS
[22:59:59.293598] [240] BATTERY_STATUS
[22:59:59.301586] [241] ATTITUDE_TARGET
[22:59:59.331561] [242] VFR_HUD
[22:59:59.353855] [133] RADIO
[22:59:59.356641] [133] RADIO_STATUS
[22:59:59.960623] [243] VFR_HUD
[23:00:00.080688] [244] HEARTBEAT
[23:00:00.424735] [134] RADIO
[23:00:00.427769] [134] RADIO_STATUS
[23:00:00.769764] [245] VFR_HUD
[23:00:01.118763] [246] HEARTBEAT
[23:00:01.126774] [247] ATTITUDE_TARGET
[23:00:01.339863] [135] RADIO
[23:00:01.341854] [135] RADIO_STATUS
[23:00:01.569827] [248] VFR_HUD
[23:00:02.368882] [136] RADIO
[23:00:02.371785] [136] RADIO_STATUS
[23:00:02.489880] [250] VFR_HUD
[23:00:03.082925] [251] HEARTBEAT
[23:00:03.088845] [252] SYS_STATUS
[23:00:03.128876] [253] BATTERY_STATUS
[23:00:03.136868] [254] ATTITUDE_TARGET
[23:00:03.142056] [255] VFR_HUD
[23:00:03.410915] [137] RADIO
[23:00:03.414118] [137] RADIO_STATUS
[23:00:04.106952] [0] VFR_HUD
[23:00:04.109986] [1] HEARTBEAT
[23:00:04.439961] [138] RADIO
[23:00:04.442922] [138] RADIO_STATUS
[23:00:04.685942] [2] VFR_HUD
[23:00:05.359981] [139] RADIO
[23:00:05.362969] [139] RADIO_STATUS
[23:00:06.166183] [6] HEARTBEAT
[23:00:06.399065] [140] RADIO
[23:00:06.402070] [140] RADIO_STATUS
[23:00:07.097228] [8] HEARTBEAT
[23:00:07.104165] [9] SYS_STATUS
[23:00:07.227160] [10] BATTERY_STATUS
[23:00:07.229222] [11] EXTENDED_SYS_STATE
[23:00:07.261202] [12] ATTITUDE_TARGET
[23:00:07.266160] [13] VFR_HUD
[23:00:07.269173] [14] SYSTEM_TIME
[23:00:07.429206] [141] RADIO
[23:00:07.432173] [141] RADIO_STATUS
[23:00:08.130349] [16] HEARTBEAT
[23:00:08.348283] [142] RADIO
[23:00:08.351275] [142] RADIO_STATUS
[23:00:08.699356] [17] VFR_HUD
[23:00:09.168606] [18] HEARTBEAT
[23:00:09.176404] [19] ATTITUDE_TARGET
[23:00:09.388434] [143] RADIO
[23:00:09.391408] [143] RADIO_STATUS
[23:00:09.509447] [20] VFR_HUD
[23:00:10.074490] [21] HEARTBEAT
[23:00:10.308526] [22] VFR_HUD
[23:00:10.417583] [144] RADIO
[23:00:10.420515] [144] RADIO_STATUS
[23:00:11.126605] [23] HEARTBEAT
[23:00:11.132638] [24] SYS_STATUS
[23:00:11.283632] [25] BATTERY_STATUS
[23:00:11.291637] [26] ATTITUDE_TARGET
[23:00:11.296605] [27] VFR_HUD
[23:00:11.456619] [145] RADIO
[23:00:11.459593] [145] RADIO_STATUS
[23:00:11.917660] [28] VFR_HUD
[23:00:12.143682] [29] HEARTBEAT
[23:00:12.486755] [146] RADIO
[23:00:12.489703] [146] RADIO_STATUS
[23:00:12.732879] [30] VFR_HUD
[23:00:13.062927] [31] HEARTBEAT
[23:00:13.304785] [32] ATTITUDE_TARGET
[23:00:13.406773] [147] RADIO
[23:00:13.409803] [147] RADIO_STATUS
[23:00:13.538799] [33] VFR_HUD
[23:00:14.101967] [34] HEARTBEAT
[23:00:14.341879] [35] VFR_HUD
[23:00:14.462096] [148] RADIO
[23:00:14.464924] [148] RADIO_STATUS
[23:00:15.143055] [36] HEARTBEAT
[23:00:15.150000] [37] SYS_STATUS
[23:00:15.270014] [38] BATTERY_STATUS
[23:00:15.382007] [39] ATTITUDE_TARGET
[23:00:15.387007] [40] VFR_HUD
[23:00:15.421007] [149] RADIO
[23:00:15.423966] [149] RADIO_STATUS
[23:00:16.055069] [41] VFR_HUD
[23:00:16.062134] [42] HEARTBEAT
[23:00:16.395089] [150] RADIO
[23:00:16.398062] [150] RADIO_STATUS
[23:00:16.745126] [43] VFR_HUD
[23:00:17.214245] [44] HEARTBEAT
[23:00:17.221313] [45] ATTITUDE_TARGET
[23:00:17.439235] [151] RADIO
[23:00:17.442193] [151] RADIO_STATUS
[23:00:17.555182] [46] VFR_HUD
[23:00:18.355299] [48] VFR_HUD
[23:00:18.464312] [152] RADIO
[23:00:18.467299] [152] RADIO_STATUS
[23:00:19.172330] [49] HEARTBEAT
[23:00:19.179365] [50] SYS_STATUS
[23:00:19.503371] [153] RADIO
[23:00:19.506354] [153] RADIO_STATUS
[23:00:19.964548] [54] VFR_HUD
[23:00:20.079465] [55] HEARTBEAT
[23:00:20.533454] [154] RADIO
[23:00:20.536389] [154] RADIO_STATUS
[23:00:20.774476] [56] VFR_HUD
[23:00:21.123499] [57] HEARTBEAT
[23:00:21.131472] [58] ATTITUDE_TARGET
[23:00:21.453571] [155] RADIO
[23:00:21.456444] [155] RADIO_STATUS
[23:00:21.491511] [59] VFR_HUD
[23:00:22.149540] [60] HEARTBEAT
[23:00:22.498576] [156] RADIO
[23:00:22.500552] [156] RADIO_STATUS
[23:00:23.085709] [62] HEARTBEAT
[23:00:23.092613] [63] SYS_STATUS
[23:00:23.132701] [64] BATTERY_STATUS
[23:00:23.139670] [65] ATTITUDE_TARGET
[23:00:23.144618] [66] VFR_HUD
[23:00:23.522667] [157] RADIO
[23:00:23.525617] [157] RADIO_STATUS
[23:00:23.884789] [67] VFR_HUD
[23:00:24.097763] [68] HEARTBEAT
[23:00:24.441742] [158] RADIO
[23:00:24.444752] [158] RADIO_STATUS
[23:00:25.481918] [72] VFR_HUD
[23:00:25.513893] [159] RADIO
[23:00:25.516838] [159] RADIO_STATUS
[23:00:26.062925] [73] HEARTBEAT
[23:00:26.511115] [160] RADIO
[23:00:26.513969] [160] RADIO_STATUS
[23:00:27.099012] [75] HEARTBEAT
[23:00:27.106018] [76] SYS_STATUS
[23:00:27.228998] [77] BATTERY_STATUS
[23:00:27.230966] [78] EXTENDED_SYS_STATE
[23:00:27.263057] [79] ATTITUDE_TARGET
[23:00:27.267991] [80] VFR_HUD
[23:00:27.270964] [81] SYSTEM_TIME
[23:00:27.556112] [161] RADIO
[23:00:27.559051] [161] RADIO_STATUS
[23:00:27.901117] [82] VFR_HUD
[23:00:28.142217] [83] HEARTBEAT
[23:00:28.580154] [162] RADIO
[23:00:28.583134] [162] RADIO_STATUS
[23:00:28.701168] [84] VFR_HUD
[23:00:29.170505] [85] HEARTBEAT
[23:00:29.178266] [86] ATTITUDE_TARGET
[23:00:29.500250] [163] RADIO
[23:00:29.503256] [163] RADIO_STATUS
[23:00:30.076346] [88] HEARTBEAT
[23:00:30.310346] [89] VFR_HUD
[23:00:30.540357] [164] RADIO
[23:00:30.543346] [164] RADIO_STATUS
[23:00:31.133407] [90] HEARTBEAT
[23:00:31.139409] [91] SYS_STATUS
[23:00:31.179403] [92] BATTERY_STATUS
[23:00:31.187493] [93] ATTITUDE_TARGET
[23:00:31.192413] [94] VFR_HUD
[23:00:31.569654] [165] RADIO
[23:00:31.572454] [165] RADIO_STATUS
[23:00:32.145543] [96] HEARTBEAT
[23:00:32.489599] [166] RADIO
[23:00:32.492515] [166] RADIO_STATUS
[23:00:32.839635] [97] VFR_HUD
[23:00:33.065641] [98] HEARTBEAT
[23:00:33.087650] [99] ATTITUDE_TARGET
[23:00:33.528710] [100] VFR_HUD
[23:00:33.555659] [167] RADIO
[23:00:33.558722] [167] RADIO_STATUS
[23:00:34.104803] [101] HEARTBEAT
[23:00:34.448751] [102] VFR_HUD
[23:00:34.557767] [168] RADIO
[23:00:34.560759] [168] RADIO_STATUS
[23:00:35.146053] [103] HEARTBEAT
[23:00:35.152861] [104] SYS_STATUS
[23:00:35.272786] [105] BATTERY_STATUS
[23:00:35.597859] [169] RADIO
[23:00:35.600833] [169] RADIO_STATUS
[23:00:35.947990] [108] VFR_HUD
[23:00:36.182953] [109] HEARTBEAT
[23:00:36.626987] [170] RADIO
[23:00:36.629930] [170] RADIO_STATUS
[23:00:36.747956] [110] VFR_HUD
[23:00:37.106999] [111] HEARTBEAT
[23:00:37.114963] [112] ATTITUDE_TARGET
[23:00:37.547021] [171] RADIO
[23:00:37.550037] [171] RADIO_STATUS
[23:00:37.668050] [113] VFR_HUD
[23:00:38.123105] [114] HEARTBEAT
[23:00:38.357265] [115] VFR_HUD
[23:00:38.586100] [172] RADIO
[23:00:38.589088] [172] RADIO_STATUS
[23:00:39.174372] [116] HEARTBEAT
[23:00:39.181241] [117] SYS_STATUS
[23:00:39.300160] [118] BATTERY_STATUS
[23:00:39.308197] [119] ATTITUDE_TARGET
[23:00:39.338125] [120] VFR_HUD
[23:00:39.506409] [173] RADIO
[23:00:39.509201] [173] RADIO_STATUS
[23:00:40.535292] [174] RADIO
[23:00:40.538233] [174] RADIO_STATUS
[23:00:41.125455] [124] HEARTBEAT
[23:00:41.133353] [125] ATTITUDE_TARGET
[23:00:41.470405] [126] VFR_HUD
[23:00:41.591448] [175] RADIO
[23:00:41.594553] [175] RADIO_STATUS
[23:00:42.150522] [127] HEARTBEAT
[23:00:42.495485] [128] VFR_HUD
[23:00:42.511538] [176] RADIO
[23:00:42.514446] [176] RADIO_STATUS
[23:00:43.090640] [130] SYS_STATUS
[23:00:43.524594] [177] RADIO
[23:00:43.527520] [177] RADIO_STATUS
[23:00:43.874690] [134] VFR_HUD
[23:00:44.100664] [135] HEARTBEAT
[23:00:44.677851] [178] RADIO
[23:00:44.679637] [178] RADIO_STATUS
[23:00:45.153816] [137] HEARTBEAT
[23:00:45.160800] [138] ATTITUDE_TARGET
[23:00:45.483777] [139] VFR_HUD
[23:00:45.592768] [179] RADIO
[23:00:45.595815] [179] RADIO_STATUS
[23:00:46.064811] [140] HEARTBEAT
[23:00:46.293834] [141] VFR_HUD
[23:00:46.637824] [180] RADIO
[23:00:46.640807] [180] RADIO_STATUS
[23:00:47.100903] [142] HEARTBEAT
[23:00:47.107887] [143] SYS_STATUS
[23:00:47.224916] [144] BATTERY_STATUS
[23:00:47.228943] [145] EXTENDED_SYS_STATE
[23:00:47.346936] [146] ATTITUDE_TARGET
[23:00:47.351871] [147] VFR_HUD
[23:00:47.354857] [148] SYSTEM_TIME
[23:00:47.557918] [181] RADIO
[23:00:47.560901] [181] RADIO_STATUS
[23:00:47.902976] [149] VFR_HUD
[23:00:48.582114] [182] RADIO
[23:00:48.584979] [182] RADIO_STATUS
[23:00:48.703076] [151] VFR_HUD
[23:00:49.518182] [154] VFR_HUD
[23:00:49.639107] [183] RADIO
[23:00:49.642100] [183] RADIO_STATUS
[23:00:50.078178] [155] HEARTBEAT
[23:00:50.324172] [156] VFR_HUD
[23:00:50.651322] [184] RADIO
[23:00:50.654260] [184] RADIO_STATUS
[23:00:51.571361] [185] RADIO
[23:00:51.573318] [185] RADIO_STATUS
[23:00:51.921406] [162] VFR_HUD
[23:00:52.146670] [163] HEARTBEAT
[23:00:52.720446] [186] RADIO
[23:00:52.723469] [186] RADIO_STATUS
[23:00:53.068609] [165] HEARTBEAT
[23:00:53.089483] [166] ATTITUDE_TARGET
[23:00:53.530595] [167] VFR_HUD
[23:00:53.639580] [187] RADIO
[23:00:53.642512] [187] RADIO_STATUS
[23:00:54.111821] [168] HEARTBEAT
[23:00:54.340684] [169] VFR_HUD
[23:00:54.684798] [188] RADIO
[23:00:54.687730] [188] RADIO_STATUS
[23:00:55.147852] [170] HEARTBEAT
[23:00:55.154784] [171] SYS_STATUS
[23:00:55.274820] [172] BATTERY_STATUS
[23:00:55.386792] [173] ATTITUDE_TARGET
[23:00:55.391741] [174] VFR_HUD
[23:00:55.599807] [189] RADIO
[23:00:55.602751] [189] RADIO_STATUS
[23:00:55.950778] [175] VFR_HUD
[23:00:56.629826] [190] RADIO
[23:00:56.632809] [190] RADIO_STATUS
[23:00:56.750892] [177] VFR_HUD
[23:00:57.110013] [178] HEARTBEAT
[23:00:57.117895] [179] ATTITUDE_TARGET
[23:00:57.559938] [180] VFR_HUD
[23:00:57.669965] [191] RADIO
[23:00:57.672974] [191] RADIO_STATUS
[23:00:58.126058] [181] HEARTBEAT
[23:00:58.699033] [192] RADIO
[23:00:58.702021] [192] RADIO_STATUS
[23:00:59.303190] [185] BATTERY_STATUS
[23:00:59.310214] [186] ATTITUDE_TARGET
[23:00:59.341217] [187] VFR_HUD
[23:00:59.619249] [193] RADIO
[23:00:59.622159] [193] RADIO_STATUS
[23:00:59.969235] [188] VFR_HUD
[23:01:00.085205] [189] HEARTBEAT
[23:01:00.768263] [194] RADIO
[23:01:00.771224] [194] RADIO_STATUS
[23:01:01.128379] [191] HEARTBEAT
[23:01:01.136292] [192] ATTITUDE_TARGET
[23:01:01.578428] [193] VFR_HUD
[23:01:01.688338] [195] RADIO
[23:01:01.691307] [195] RADIO_STATUS
[23:01:02.154452] [194] HEARTBEAT
[23:01:02.393399] [195] VFR_HUD
[23:01:02.727562] [196] RADIO
[23:01:02.730480] [196] RADIO_STATUS
[23:01:03.211597] [198] BATTERY_STATUS
[23:01:03.218510] [199] ATTITUDE_TARGET
[23:01:03.248520] [200] VFR_HUD
[23:01:03.647594] [197] RADIO
[23:01:03.650860] [197] RADIO_STATUS
[23:01:03.877589] [201] VFR_HUD
[23:01:04.676625] [198] RADIO
[23:01:04.679607] [198] RADIO_STATUS
[23:01:04.797656] [203] VFR_HUD
[23:01:05.156712] [204] HEARTBEAT
[23:01:05.164750] [205] ATTITUDE_TARGET
[23:01:05.486770] [206] VFR_HUD
[23:01:05.715778] [199] RADIO
[23:01:05.718745] [199] RADIO_STATUS
[23:01:06.295847] [208] VFR_HUD
[23:01:06.744915] [200] RADIO
[23:01:06.747807] [200] RADIO_STATUS
[23:01:07.103947] [209] HEARTBEAT
[23:01:07.109969] [210] SYS_STATUS
[23:01:07.348989] [213] ATTITUDE_TARGET
[23:01:07.353910] [214] VFR_HUD
[23:01:07.357887] [215] SYSTEM_TIME
[23:01:07.664918] [201] RADIO
[23:01:07.667874] [201] RADIO_STATUS
[23:01:07.910927] [216] VFR_HUD
[23:01:08.131019] [217] HEARTBEAT
[23:01:08.706044] [218] VFR_HUD
[23:01:08.814057] [202] RADIO
[23:01:08.817016] [202] RADIO_STATUS
[23:01:09.174129] [219] HEARTBEAT
[23:01:09.182075] [220] ATTITUDE_TARGET
[23:01:09.624099] [221] VFR_HUD
[23:01:09.734183] [203] RADIO
[23:01:09.737108] [203] RADIO_STATUS
[23:01:10.080191] [222] HEARTBEAT
[23:01:10.314316] [223] VFR_HUD
[23:01:10.773600] [204] RADIO
[23:01:10.776163] [204] RADIO_STATUS
[23:01:11.698311] [205] RADIO
[23:01:11.701296] [205] RADIO_STATUS
[23:01:12.722424] [206] RADIO
[23:01:12.725373] [206] RADIO_STATUS
[23:01:12.843440] [231] VFR_HUD
[23:01:13.068494] [232] HEARTBEAT
[23:01:13.091511] [233] ATTITUDE_TARGET
[23:01:13.533557] [234] VFR_HUD
[23:01:13.767798] [207] RADIO
[23:01:13.770557] [207] RADIO_STATUS
[23:01:14.113707] [235] HEARTBEAT
[23:01:14.342630] [236] VFR_HUD
[23:01:14.690682] [208] RADIO
[23:01:14.693659] [208] RADIO_STATUS
[23:01:15.149793] [237] HEARTBEAT
[23:01:15.156804] [238] SYS_STATUS
[23:01:15.388825] [240] ATTITUDE_TARGET
[23:01:15.393899] [241] VFR_HUD
[23:01:15.711807] [209] RADIO
[23:01:15.716573] [209] RADIO_STATUS
[23:01:15.951868] [242] VFR_HUD
[23:01:16.057868] [243] HEARTBEAT
[23:01:16.764355] [244] VFR_HUD
[23:01:16.859891] [210] RADIO
[23:01:16.862875] [210] RADIO_STATUS
[23:01:17.116064] [245] HEARTBEAT
[23:01:17.122973] [246] ATTITUDE_TARGET
[23:01:17.780045] [211] RADIO
[23:01:17.782964] [211] RADIO_STATUS
[23:01:18.126130] [248] HEARTBEAT
[23:01:18.361208] [249] VFR_HUD
[23:01:18.705120] [212] RADIO
[23:01:18.708084] [212] RADIO_STATUS
[23:01:19.740227] [213] RADIO
[23:01:19.743166] [213] RADIO_STATUS
[23:01:20.096280] [255] VFR_HUD
[23:01:20.099451] [0] HEARTBEAT
[23:01:20.769267] [214] RADIO
[23:01:20.772252] [214] RADIO_STATUS
[23:01:20.808345] [1] VFR_HUD
[23:01:21.129460] [2] HEARTBEAT
[23:01:21.137315] [3] ATTITUDE_TARGET
[23:01:21.814405] [215] RADIO
[23:01:21.817377] [215] RADIO_STATUS
[23:01:22.155578] [5] HEARTBEAT
[23:01:22.269434] [6] VFR_HUD
[23:01:22.728520] [216] RADIO
[23:01:22.731437] [216] RADIO_STATUS
[23:01:23.086693] [7] HEARTBEAT
[23:01:23.093551] [8] SYS_STATUS
[23:01:23.212730] [9] BATTERY_STATUS
[23:01:23.219523] [10] ATTITUDE_TARGET
[23:01:23.250530] [11] VFR_HUD
[23:01:23.758637] [217] RADIO
[23:01:23.761563] [217] RADIO_STATUS
[23:01:23.878783] [12] VFR_HUD
[23:01:24.104689] [13] HEARTBEAT
[23:01:24.688641] [14] VFR_HUD
[23:01:24.907737] [218] RADIO
[23:01:24.910681] [218] RADIO_STATUS
[23:01:25.157930] [15] HEARTBEAT
[23:01:25.165786] [16] ATTITUDE_TARGET
[23:01:25.488820] [17] VFR_HUD
[23:01:25.827806] [219] RADIO
[23:01:25.830873] [219] RADIO_STATUS
[23:01:26.303821] [19] VFR_HUD
[23:01:26.748022] [220] RADIO
[23:01:26.750839] [220] RADIO_STATUS
[23:01:27.105956] [20] HEARTBEAT
[23:01:27.113060] [21] SYS_STATUS
[23:01:27.350980] [24] ATTITUDE_TARGET
[23:01:27.355912] [25] VFR_HUD
[23:01:27.359869] [26] SYSTEM_TIME
[23:01:27.786991] [221] RADIO
[23:01:27.789913] [221] RADIO_STATUS
[23:01:28.018140] [27] VFR_HUD
[23:01:28.132976] [28] HEARTBEAT
[23:01:28.707003] [29] VFR_HUD
[23:01:28.817099] [222] RADIO
[23:01:28.820059] [222] RADIO_STATUS
[23:01:29.177198] [30] HEARTBEAT
[23:01:29.184101] [31] ATTITUDE_TARGET
[23:01:29.627144] [32] VFR_HUD
[23:01:29.753151] [223] RADIO
[23:01:29.756137] [223] RADIO_STATUS
[23:01:30.082231] [33] HEARTBEAT
[23:01:30.316257] [34] VFR_HUD
[23:01:30.775299] [224] RADIO
[23:01:30.778203] [224] RADIO_STATUS
[23:01:31.139545] [35] HEARTBEAT
[23:01:31.145341] [36] SYS_STATUS
[23:01:31.185328] [37] BATTERY_STATUS
[23:01:31.193325] [38] ATTITUDE_TARGET
[23:01:31.198305] [39] VFR_HUD
[23:01:31.805406] [225] RADIO
[23:01:31.808350] [225] RADIO_STATUS
[23:01:32.161455] [40] VFR_HUD
[23:01:32.164404] [41] HEARTBEAT
[23:01:32.735485] [42] VFR_HUD
[23:01:32.845507] [226] RADIO
[23:01:32.848500] [226] RADIO_STATUS
[23:01:33.085555] [43] HEARTBEAT
[23:01:33.093682] [44] ATTITUDE_TARGET
[23:01:33.536617] [45] VFR_HUD
[23:01:33.770576] [227] RADIO
[23:01:33.773539] [227] RADIO_STATUS
[23:01:34.345743] [47] VFR_HUD
[23:01:34.794730] [228] RADIO
[23:01:34.797759] [228] RADIO_STATUS
[23:01:35.152742] [48] HEARTBEAT
[23:01:35.159704] [49] SYS_STATUS
[23:01:35.391946] [51] ATTITUDE_TARGET
[23:01:35.396816] [52] VFR_HUD
[23:01:35.838770] [229] RADIO
[23:01:35.841750] [229] RADIO_STATUS
[23:01:35.965765] [53] VFR_HUD
[23:01:36.185831] [54] HEARTBEAT
[23:01:36.754843] [55] VFR_HUD
[23:01:36.786859] [230] RADIO
[23:01:36.789876] [230] RADIO_STATUS
[23:01:37.673999] [58] VFR_HUD
[23:01:37.784008] [231] RADIO
[23:01:37.785962] [231] RADIO_STATUS
[23:01:38.130097] [59] HEARTBEAT
[23:01:38.364059] [60] VFR_HUD
[23:01:38.828106] [232] RADIO
[23:01:38.831089] [232] RADIO_STATUS
[23:01:39.186209] [61] HEARTBEAT
[23:01:39.193933] [62] SYS_STATUS
[23:01:39.233161] [63] BATTERY_STATUS
[23:01:39.241129] [64] ATTITUDE_TARGET
[23:01:39.245099] [65] VFR_HUD
[23:01:39.855865] [233] RADIO
[23:01:39.856173] [233] RADIO_STATUS
[23:01:40.099385] [66] VFR_HUD
[23:01:40.102342] [67] HEARTBEAT
[23:01:40.788559] [68] VFR_HUD
[23:01:40.909504] [234] RADIO
[23:01:40.912352] [234] RADIO_STATUS
[23:01:41.132420] [69] HEARTBEAT
[23:01:41.140372] [70] ATTITUDE_TARGET
[23:01:41.473515] [71] VFR_HUD
[23:01:41.817473] [235] RADIO
[23:01:41.820412] [235] RADIO_STATUS
[23:01:42.273562] [73] VFR_HUD
[23:01:42.842574] [236] RADIO
[23:01:42.845580] [236] RADIO_STATUS
[23:01:43.090630] [74] HEARTBEAT
[23:01:43.097675] [75] SYS_STATUS
[23:01:43.254021] [78] VFR_HUD
[23:01:43.881697] [79] VFR_HUD
[23:01:43.914689] [237] RADIO
[23:01:43.917769] [237] RADIO_STATUS
[23:01:44.107831] [80] HEARTBEAT
[23:01:44.801804] [81] VFR_HUD
[23:01:44.833825] [238] RADIO
[23:01:44.836810] [238] RADIO_STATUS
[23:01:45.270883] [82] HEARTBEAT
[23:01:45.277898] [83] ATTITUDE_TARGET
[23:01:45.491992] [84] VFR_HUD
[23:01:45.829931] [239] RADIO
[23:01:45.832883] [239] RADIO_STATUS
[23:01:46.066023] [85] HEARTBEAT
[23:01:46.410990] [86] VFR_HUD
[23:01:46.875047] [240] RADIO
[23:01:46.877993] [240] RADIO_STATUS
[23:01:47.108139] [87] HEARTBEAT
[23:01:47.115132] [88] SYS_STATUS
[23:01:47.232099] [89] BATTERY_STATUS
[23:01:47.234093] [90] EXTENDED_SYS_STATE
[23:01:47.354095] [91] ATTITUDE_TARGET
[23:01:47.359139] [92] VFR_HUD
[23:01:47.362090] [93] SYSTEM_TIME
[23:01:47.899188] [241] RADIO
[23:01:47.902120] [241] RADIO_STATUS
[23:01:48.135247] [95] HEARTBEAT
[23:01:48.712217] [96] VFR_HUD
[23:01:48.944290] [242] RADIO
[23:01:48.947291] [242] RADIO_STATUS
[23:01:49.179347] [97] HEARTBEAT
[23:01:49.187341] [98] ATTITUDE_TARGET
[23:01:49.525325] [99] VFR_HUD
[23:01:49.858357] [243] RADIO
[23:01:49.861369] [243] RADIO_STATUS
[23:01:50.094459] [100] HEARTBEAT
[23:01:50.319418] [101] VFR_HUD
[23:01:50.888559] [244] RADIO
[23:01:50.891521] [244] RADIO_STATUS
[23:01:51.294608] [104] BATTERY_STATUS
[23:01:51.304271] [105] ATTITUDE_TARGET
[23:01:51.929640] [107] VFR_HUD
[23:01:51.957500] [245] RADIO
[23:01:51.959694] [245] RADIO_STATUS
[23:01:52.154680] [108] HEARTBEAT
[23:01:52.738664] [109] VFR_HUD
[23:01:52.958794] [246] RADIO
[23:01:52.960769] [246] RADIO_STATUS
[23:01:53.087827] [110] HEARTBEAT
[23:01:53.095801] [111] ATTITUDE_TARGET
[23:01:53.549802] [112] VFR_HUD
[23:01:53.876904] [247] RADIO
[23:01:53.880025] [247] RADIO_STATUS
[23:01:54.113879] [113] HEARTBEAT
[23:01:54.916962] [248] RADIO
[23:01:54.919895] [248] RADIO_STATUS
[23:01:55.155111] [115] HEARTBEAT
[23:01:55.162022] [116] SYS_STATUS
[23:01:55.277011] [117] BATTERY_STATUS
[23:01:55.394183] [118] ATTITUDE_TARGET
[23:01:55.399001] [119] VFR_HUD
[23:01:55.947082] [249] RADIO
[23:01:55.950000] [249] RADIO_STATUS
[23:01:56.063079] [121] HEARTBEAT
[23:01:56.757157] [122] VFR_HUD
[23:01:56.867186] [250] RADIO
[23:01:56.869103] [250] RADIO_STATUS
[23:01:57.572296] [125] VFR_HUD
[23:01:57.906217] [251] RADIO
[23:01:57.909177] [251] RADIO_STATUS
[23:01:58.367286] [127] VFR_HUD
[23:01:58.936337] [252] RADIO
[23:01:58.939277] [252] RADIO_STATUS
[23:01:59.189379] [128] HEARTBEAT
[23:01:59.196381] [129] SYS_STATUS
[23:01:59.236351] [130] BATTERY_STATUS
[23:01:59.244322] [131] ATTITUDE_TARGET
[23:01:59.248313] [132] VFR_HUD
[23:01:59.976421] [253] RADIO
[23:01:59.979359] [253] RADIO_STATUS
[23:02:00.213181] [133] VFR_HUD
[23:02:00.214441] [134] HEARTBEAT
[23:02:00.786557] [135] VFR_HUD
[23:02:00.900502] [254] RADIO
[23:02:00.903489] [254] RADIO_STATUS
[23:02:01.135562] [136] HEARTBEAT
[23:02:01.143551] [137] ATTITUDE_TARGET
[23:02:01.476567] [138] VFR_HUD
[23:02:01.925703] [255] RADIO
[23:02:01.928601] [255] RADIO_STATUS
[23:02:02.166684] [139] HEARTBEAT
[23:02:02.275755] [140] VFR_HUD
[23:02:02.964787] [0] RADIO
[23:02:02.967765] [0] RADIO_STATUS
[23:02:03.093808] [141] HEARTBEAT
[23:02:03.100803] [142] SYS_STATUS
[23:02:03.218831] [143] BATTERY_STATUS
[23:02:03.226773] [144] ATTITUDE_TARGET
[23:02:03.256804] [145] VFR_HUD
[23:02:03.897834] [146] VFR_HUD
[23:02:03.917852] [1] RADIO
[23:02:03.920813] [1] RADIO_STATUS
[23:02:04.111873] [147] HEARTBEAT
[23:02:04.805972] [148] VFR_HUD
[23:02:04.914970] [2] RADIO
[23:02:04.917939] [2] RADIO_STATUS
[23:02:05.495041] [151] VFR_HUD
[23:02:05.960052] [3] RADIO
[23:02:05.963018] [3] RADIO_STATUS
[23:02:06.071119] [152] HEARTBEAT
[23:02:06.415083] [153] VFR_HUD
[23:02:06.984114] [4] RADIO
[23:02:06.987062] [4] RADIO_STATUS
[23:02:07.112276] [154] HEARTBEAT
[23:02:07.119125] [155] SYS_STATUS
[23:02:07.242112] [156] BATTERY_STATUS
[23:02:07.244072] [157] EXTENDED_SYS_STATE
[23:02:07.276104] [158] ATTITUDE_TARGET
[23:02:07.281896] [159] VFR_HUD
[23:02:07.284107] [160] SYSTEM_TIME
[23:02:07.904176] [5] RADIO
[23:02:07.907116] [5] RADIO_STATUS
[23:02:07.945731] [161] VFR_HUD
[23:02:08.714318] [163] VFR_HUD
[23:02:08.949443] [6] RADIO
[23:02:08.952193] [6] RADIO_STATUS
[23:02:09.060303] [164] HEARTBEAT
[23:02:09.182274] [165] ATTITUDE_TARGET
[23:02:09.524300] [166] VFR_HUD
[23:02:09.973355] [7] RADIO
[23:02:09.976325] [7] RADIO_STATUS
[23:02:10.089544] [167] HEARTBEAT
[23:02:10.324402] [168] VFR_HUD
[23:02:11.018459] [8] RADIO
[23:02:11.020440] [8] RADIO_STATUS
[23:02:11.140485] [169] HEARTBEAT
[23:02:11.147479] [170] SYS_STATUS
[23:02:11.266465] [171] BATTERY_STATUS
[23:02:11.274686] [172] ATTITUDE_TARGET
[23:02:11.304456] [173] VFR_HUD
[23:02:11.933605] [174] VFR_HUD
[23:02:12.041593] [9] RADIO
[23:02:12.044499] [9] RADIO_STATUS
[23:02:12.157689] [175] HEARTBEAT
[23:02:12.961648] [10] RADIO
[23:02:12.964596] [10] RADIO_STATUS
[23:02:13.541713] [179] VFR_HUD
[23:02:14.006742] [11] RADIO
[23:02:14.009729] [11] RADIO_STATUS
[23:02:14.117823] [180] HEARTBEAT
[23:02:14.461803] [181] VFR_HUD
[23:02:15.030839] [12] RADIO
[23:02:15.033795] [12] RADIO_STATUS
[23:02:15.168015] [185] ATTITUDE_TARGET
[23:02:15.172812] [186] VFR_HUD
[23:02:15.950909] [13] RADIO
[23:02:15.953889] [13] RADIO_STATUS
[23:02:15.988923] [187] VFR_HUD
[23:02:16.068733] [188] HEARTBEAT
[23:02:16.760971] [189] VFR_HUD
[23:02:16.990019] [14] RADIO
[23:02:16.993065] [14] RADIO_STATUS
[23:02:17.125084] [190] HEARTBEAT
[23:02:17.133201] [191] ATTITUDE_TARGET
[23:02:17.576031] [192] VFR_HUD
[23:02:18.020157] [15] RADIO
[23:02:18.023103] [15] RADIO_STATUS
[23:02:18.136141] [193] HEARTBEAT
[23:02:18.371149] [194] VFR_HUD
[23:02:19.056194] [195] HEARTBEAT
[23:02:19.076247] [196] SYS_STATUS
[23:02:19.087234] [16] RADIO
[23:02:19.090174] [16] RADIO_STATUS
[23:02:19.189211] [197] BATTERY_STATUS
[23:02:19.307271] [198] ATTITUDE_TARGET
[23:02:19.312407] [199] VFR_HUD
[23:02:19.870363] [200] VFR_HUD
[23:02:20.089434] [17] RADIO
[23:02:20.092296] [17] RADIO_STATUS
[23:02:20.669466] [202] VFR_HUD
[23:02:21.008378] [18] RADIO
[23:02:21.011330] [18] RADIO_STATUS
[23:02:21.138499] [203] HEARTBEAT
[23:02:21.146387] [204] ATTITUDE_TARGET
[23:02:21.479436] [205] VFR_HUD
[23:02:22.048547] [19] RADIO
[23:02:22.054760] [19] RADIO_STATUS
[23:02:22.169651] [206] HEARTBEAT
[23:02:22.968654] [20] RADIO
[23:02:22.970616] [20] RADIO_STATUS
[23:02:23.997742] [21] RADIO
[23:02:24.002668] [21] RADIO_STATUS
[23:02:24.123830] [213] VFR_HUD
[23:02:24.126812] [214] HEARTBEAT
[23:02:24.807840] [215] VFR_HUD
[23:02:25.037917] [22] RADIO
[23:02:25.039895] [22] RADIO_STATUS
[23:02:25.172845] [216] HEARTBEAT
[23:02:25.180810] [217] ATTITUDE_TARGET
[23:02:25.497870] [218] VFR_HUD
[23:02:26.066989] [23] RADIO
[23:02:26.069903] [23] RADIO_STATUS
[23:02:26.100928] [219] HEARTBEAT
[23:02:26.307919] [220] VFR_HUD
[23:02:26.986977] [24] RADIO
[23:02:26.989959] [24] RADIO_STATUS
[23:02:27.115038] [221] HEARTBEAT
[23:02:27.122011] [222] SYS_STATUS
[23:02:27.245335] [223] BATTERY_STATUS
[23:02:27.246073] [224] EXTENDED_SYS_STATE
[23:02:27.278055] [225] ATTITUDE_TARGET
[23:02:27.282974] [226] VFR_HUD
[23:02:27.287008] [227] SYSTEM_TIME
[23:02:27.917147] [228] VFR_HUD
[23:02:28.136195] [25] RADIO
[23:02:28.139160] [25] RADIO_STATUS
[23:02:28.717251] [230] VFR_HUD
[23:02:29.056240] [26] RADIO
[23:02:29.059196] [26] RADIO_STATUS
[23:02:29.526329] [233] VFR_HUD
[23:02:30.092358] [234] HEARTBEAT
[23:02:30.123338] [27] RADIO
[23:02:30.126335] [27] RADIO_STATUS
[23:02:30.326370] [235] VFR_HUD
[23:02:31.020443] [28] RADIO
[23:02:31.023414] [28] RADIO_STATUS
[23:02:31.269534] [238] BATTERY_STATUS
[23:02:31.276545] [239] ATTITUDE_TARGET
[23:02:31.307530] [240] VFR_HUD
[23:02:31.935531] [241] VFR_HUD
[23:02:32.045555] [29] RADIO
[23:02:32.047534] [29] RADIO_STATUS
[23:02:32.161567] [242] HEARTBEAT
[23:02:32.855629] [243] VFR_HUD
[23:02:33.094857] [244] HEARTBEAT
[23:02:33.102644] [245] ATTITUDE_TARGET
