[20:44:56.374249] [23] RADIO
[20:44:56.376560] [23] RADIO_STATUS
[20:44:56.489766] [144] HEARTBEAT
[20:44:57.073659] [145] VFR_HUD
[20:44:57.413085] [24] RADIO
[20:44:57.415736] [24] RADIO_STATUS
[20:44:57.542807] [146] HEARTBEAT
[20:44:57.550769] [147] ATTITUDE_TARGET
[20:44:57.873826] [148] VFR_HUD
[20:44:58.338940] [25] RADIO
[20:44:58.340860] [25] RADIO_STATUS
[20:44:58.454818] [149] HEARTBEAT
[20:44:58.683863] [150] VFR_HUD
[20:44:59.363009] [26] RADIO
[20:44:59.365895] [26] RADIO_STATUS
[20:44:59.490962] [151] HEARTBEAT
[20:44:59.497985] [152] SYS_STATUS
[20:44:59.613091] [153] BATTERY_STATUS
[20:44:59.729985] [154] ATTITUDE_TARGET
[20:44:59.734941] [155] VFR_HUD
[20:45:00.294208] [156] VFR_HUD
[20:45:00.408083] [27] RADIO
[20:45:00.411017] [27] RADIO_STATUS
[20:45:00.524229] [157] HEARTBEAT
[20:45:01.093175] [158] VFR_HUD
[20:45:01.328281] [28] RADIO
[20:45:01.331251] [28] RADIO_STATUS
[20:45:01.444349] [159] HEARTBEAT
[20:45:01.561236] [160] ATTITUDE_TARGET
[20:45:01.908258] [161] VFR_HUD
[20:45:02.352297] [29] RADIO
[20:45:02.355373] [29] RADIO_STATUS
[20:45:02.468352] [162] HEARTBEAT
[20:45:02.703364] [163] VFR_HUD
[20:45:03.397403] [30] RADIO
[20:45:03.400372] [30] RADIO_STATUS
[20:45:03.525430] [164] HEARTBEAT
[20:45:03.532399] [165] SYS_STATUS
[20:45:03.571434] [166] BATTERY_STATUS
[20:45:03.579512] [167] ATTITUDE_TARGET
[20:45:03.584394] [168] VFR_HUD
[20:45:04.421646] [31] RADIO
[20:45:04.424488] [31] RADIO_STATUS
[20:45:04.465633] [169] VFR_HUD
[20:45:04.468484] [170] HEARTBEAT
[20:45:05.127599] [171] VFR_HUD
[20:45:05.471694] [172] HEARTBEAT
[20:45:05.479623] [173] ATTITUDE_TARGET
[20:45:05.489607] [32] RADIO
[20:45:05.492607] [32] RADIO_STATUS
[20:45:05.922745] [174] VFR_HUD
[20:45:06.386796] [33] RADIO
[20:45:06.389767] [33] RADIO_STATUS
[20:45:06.502950] [175] HEARTBEAT
[20:45:06.731944] [176] VFR_HUD
[20:45:07.411059] [34] RADIO
[20:45:07.413900] [34] RADIO_STATUS
[20:45:07.540015] [177] HEARTBEAT
[20:45:07.545942] [178] SYS_STATUS
[20:45:07.668952] [179] BATTERY_STATUS
[20:45:07.670884] [180] EXTENDED_SYS_STATE
[20:45:07.702923] [181] ATTITUDE_TARGET
[20:45:07.707873] [182] VFR_HUD
[20:45:07.710923] [183] SYSTEM_TIME
[20:45:08.342043] [184] VFR_HUD
[20:45:08.447153] [185] HEARTBEAT
[20:45:08.479023] [35] RADIO
[20:45:08.481972] [35] RADIO_STATUS
[20:45:09.142057] [186] VFR_HUD
[20:45:09.481037] [36] RADIO
[20:45:09.484134] [36] RADIO_STATUS
[20:45:09.529118] [187] HEARTBEAT
[20:45:09.536075] [188] ATTITUDE_TARGET
[20:45:09.951248] [189] VFR_HUD
[20:45:10.401258] [37] RADIO
[20:45:10.403143] [37] RADIO_STATUS
[20:45:10.517329] [190] HEARTBEAT
[20:45:10.646242] [191] VFR_HUD
[20:45:11.436486] [192] HEARTBEAT
[20:45:11.456484] [193] SYS_STATUS
[20:45:11.468331] [38] RADIO
[20:45:11.471296] [38] RADIO_STATUS
[20:45:11.575356] [194] BATTERY_STATUS
[20:45:11.687419] [195] ATTITUDE_TARGET
[20:45:11.692453] [196] VFR_HUD
[20:45:12.256605] [197] VFR_HUD
[20:45:12.470563] [39] RADIO
[20:45:12.473405] [39] RADIO_STATUS
[20:45:12.586628] [198] HEARTBEAT
[20:45:13.050571] [199] VFR_HUD
[20:45:13.519824] [200] HEARTBEAT
[20:45:13.527647] [201] ATTITUDE_TARGET
[20:45:13.860806] [202] VFR_HUD
[20:45:14.429789] [40] RADIO
[20:45:14.432862] [40] RADIO_STATUS
[20:45:14.545866] [203] HEARTBEAT
[20:45:14.660796] [204] VFR_HUD
[20:45:15.458959] [41] RADIO
[20:45:15.461823] [41] RADIO_STATUS
[20:45:15.588026] [205] HEARTBEAT
[20:45:15.593863] [206] SYS_STATUS
[20:45:15.713889] [207] BATTERY_STATUS
[20:45:15.826935] [208] ATTITUDE_TARGET
[20:45:15.830901] [209] VFR_HUD
[20:45:16.269963] [210] VFR_HUD
[20:45:16.494987] [211] HEARTBEAT
[20:45:16.609096] [42] RADIO
[20:45:16.612257] [42] RADIO_STATUS
[20:45:17.080177] [212] VFR_HUD
[20:45:17.419220] [43] RADIO
[20:45:17.422068] [43] RADIO_STATUS
[20:45:17.549168] [213] HEARTBEAT
[20:45:17.557268] [214] ATTITUDE_TARGET
[20:45:17.879217] [215] VFR_HUD
[20:45:18.448267] [44] RADIO
[20:45:18.451220] [44] RADIO_STATUS
[20:45:18.565373] [216] HEARTBEAT
[20:45:18.689274] [217] VFR_HUD
[20:45:19.497877] [218] HEARTBEAT
[20:45:19.503455] [219] SYS_STATUS
[20:45:19.598538] [45] RADIO
[20:45:19.601429] [45] RADIO_STATUS
[20:45:19.639434] [220] BATTERY_STATUS
[20:45:19.666475] [221] ATTITUDE_TARGET
[20:45:19.671404] [222] VFR_HUD
[20:45:20.304615] [223] VFR_HUD
[20:45:20.425539] [46] RADIO
[20:45:20.427444] [46] RADIO_STATUS
[20:45:20.524581] [224] HEARTBEAT
[20:45:21.098643] [225] VFR_HUD
[20:45:21.437652] [47] RADIO
[20:45:21.440594] [47] RADIO_STATUS
[20:45:21.485755] [226] HEARTBEAT
[20:45:21.493593] [227] ATTITUDE_TARGET
[20:45:21.913784] [228] VFR_HUD
[20:45:22.474943] [229] HEARTBEAT
[20:45:22.505876] [48] RADIO
[20:45:22.508717] [48] RADIO_STATUS
[20:45:22.708792] [230] VFR_HUD
[20:45:23.507837] [49] RADIO
[20:45:23.510833] [49] RADIO_STATUS
[20:45:23.567917] [231] HEARTBEAT
[20:45:23.573805] [232] SYS_STATUS
[20:45:23.581807] [233] BATTERY_STATUS
[20:45:23.593775] [234] ATTITUDE_TARGET
[20:45:23.598900] [235] VFR_HUD
[20:45:24.317975] [236] VFR_HUD
[20:45:24.438897] [237] HEARTBEAT
[20:45:24.547991] [50] RADIO
[20:45:24.550893] [50] RADIO_STATUS
[20:45:25.128023] [238] VFR_HUD
[20:45:25.477128] [239] HEARTBEAT
[20:45:25.485128] [240] ATTITUDE_TARGET
[20:45:25.495461] [51] RADIO
[20:45:25.498155] [51] RADIO_STATUS
[20:45:25.928364] [241] VFR_HUD
[20:45:26.497194] [52] RADIO
[20:45:26.500113] [52] RADIO_STATUS
[20:45:26.531208] [242] HEARTBEAT
[20:45:26.738249] [243] VFR_HUD
[20:45:27.545267] [244] HEARTBEAT
[20:45:27.552281] [245] SYS_STATUS
[20:45:27.565314] [53] RADIO
[20:45:27.568233] [53] RADIO_STATUS
[20:45:27.670332] [246] BATTERY_STATUS
[20:45:27.671271] [247] EXTENDED_SYS_STATE
[20:45:27.791398] [248] ATTITUDE_TARGET
[20:45:27.796379] [249] VFR_HUD
[20:45:27.799303] [250] SYSTEM_TIME
[20:45:28.348454] [251] VFR_HUD
[20:45:28.453420] [252] HEARTBEAT
[20:45:28.485386] [54] RADIO
[20:45:28.488397] [54] RADIO_STATUS
[20:45:29.147596] [253] VFR_HUD
[20:45:29.486541] [55] RADIO
[20:45:29.489469] [55] RADIO_STATUS
[20:45:29.534603] [254] HEARTBEAT
[20:45:29.542538] [255] ATTITUDE_TARGET
[20:45:29.962551] [0] VFR_HUD
[20:45:30.522703] [1] HEARTBEAT
[20:45:30.554632] [56] RADIO
[20:45:30.557601] [56] RADIO_STATUS
[20:45:30.652617] [2] VFR_HUD
[20:45:31.454792] [3] HEARTBEAT
[20:45:31.461757] [4] SYS_STATUS
[20:45:31.555737] [57] RADIO
[20:45:31.558707] [57] RADIO_STATUS
[20:45:31.625892] [5] BATTERY_STATUS
[20:45:31.633837] [6] ATTITUDE_TARGET
[20:45:31.638815] [7] VFR_HUD
[20:45:32.601866] [8] VFR_HUD
[20:45:32.604836] [9] HEARTBEAT
[20:45:33.057028] [10] VFR_HUD
[20:45:33.525982] [11] HEARTBEAT
[20:45:33.533007] [12] ATTITUDE_TARGET
[20:45:33.542955] [58] RADIO
[20:45:33.545927] [58] RADIO_STATUS
[20:45:33.866085] [13] VFR_HUD
[20:45:34.545091] [59] RADIO
[20:45:34.548030] [59] RADIO_STATUS
[20:45:34.579205] [14] HEARTBEAT
[20:45:34.666136] [15] VFR_HUD
[20:45:35.483236] [16] HEARTBEAT
[20:45:35.490179] [17] SYS_STATUS
[20:45:35.695300] [60] RADIO
[20:45:35.698217] [60] RADIO_STATUS
[20:45:36.276263] [21] VFR_HUD
[20:45:36.501348] [22] HEARTBEAT
[20:45:36.615341] [61] RADIO
[20:45:36.618308] [61] RADIO_STATUS
[20:45:37.534439] [62] RADIO
[20:45:37.537400] [62] RADIO_STATUS
[20:45:37.664446] [24] HEARTBEAT
[20:45:37.672458] [25] ATTITUDE_TARGET
[20:45:38.460535] [27] HEARTBEAT
[20:45:38.574545] [63] RADIO
[20:45:38.579169] [63] RADIO_STATUS
[20:45:38.700543] [28] VFR_HUD
[20:45:39.502623] [29] HEARTBEAT
[20:45:39.509612] [30] SYS_STATUS
[20:45:39.603798] [64] RADIO
[20:45:39.606615] [64] RADIO_STATUS
[20:45:39.644646] [31] BATTERY_STATUS
[20:45:39.671643] [32] ATTITUDE_TARGET
[20:45:39.676615] [33] VFR_HUD
[20:45:40.309765] [34] VFR_HUD
[20:45:40.523872] [65] RADIO
[20:45:40.526739] [65] RADIO_STATUS
[20:45:40.639783] [35] HEARTBEAT
[20:45:41.103842] [36] VFR_HUD
[20:45:41.462940] [37] HEARTBEAT
[20:45:41.470852] [38] ATTITUDE_TARGET
[20:45:41.672889] [66] RADIO
[20:45:41.675881] [66] RADIO_STATUS
[20:45:41.913987] [39] VFR_HUD
[20:45:42.593072] [67] RADIO
[20:45:42.595052] [67] RADIO_STATUS
[20:45:42.713068] [41] VFR_HUD
[20:45:43.530194] [42] HEARTBEAT
[20:45:43.537116] [43] SYS_STATUS
[20:45:43.742137] [68] RADIO
[20:45:43.745091] [68] RADIO_STATUS
[20:45:44.323251] [47] VFR_HUD
[20:45:44.443240] [48] HEARTBEAT
[20:45:44.552291] [69] RADIO
[20:45:44.555189] [69] RADIO_STATUS
[20:45:45.481392] [50] HEARTBEAT
[20:45:45.489330] [51] ATTITUDE_TARGET
[20:45:45.581379] [70] RADIO
[20:45:45.584481] [70] RADIO_STATUS
[20:45:46.512489] [53] HEARTBEAT
[20:45:46.621443] [71] RADIO
[20:45:46.624413] [71] RADIO_STATUS
[20:45:46.741562] [54] VFR_HUD
[20:45:47.549609] [55] HEARTBEAT
[20:45:47.555592] [56] SYS_STATUS
[20:45:47.572080] [72] RADIO
[20:45:47.572227] [72] RADIO_STATUS
[20:45:47.673631] [57] BATTERY_STATUS
[20:45:47.675548] [58] EXTENDED_SYS_STATE
[20:45:47.794857] [59] ATTITUDE_TARGET
[20:45:47.799578] [60] VFR_HUD
[20:45:47.803612] [61] SYSTEM_TIME
[20:45:48.467736] [62] VFR_HUD
[20:45:48.469716] [63] HEARTBEAT
[20:45:48.570745] [73] RADIO
[20:45:48.573929] [73] RADIO_STATUS
[20:45:49.151838] [64] VFR_HUD
[20:45:49.515926] [65] HEARTBEAT
[20:45:49.523863] [66] ATTITUDE_TARGET
[20:45:49.615835] [74] RADIO
[20:45:49.618834] [74] RADIO_STATUS
[20:45:49.840872] [67] VFR_HUD
[20:45:50.639966] [75] RADIO
[20:45:50.644133] [75] RADIO_STATUS
[20:45:50.761029] [69] VFR_HUD
[20:45:51.458139] [70] HEARTBEAT
[20:45:51.465078] [71] SYS_STATUS
[20:45:51.565089] [76] RADIO
[20:45:51.568306] [76] RADIO_STATUS
[20:45:51.629226] [72] BATTERY_STATUS
[20:45:51.637087] [73] ATTITUDE_TARGET
[20:45:51.642013] [74] VFR_HUD
[20:45:52.503195] [75] VFR_HUD
[20:45:52.506140] [76] HEARTBEAT
[20:45:52.711345] [77] RADIO
[20:45:52.714192] [77] RADIO_STATUS
[20:45:53.062224] [77] VFR_HUD
[20:45:53.531294] [78] HEARTBEAT
[20:45:53.539349] [79] ATTITUDE_TARGET
[20:45:53.631482] [78] RADIO
[20:45:53.634296] [78] RADIO_STATUS
[20:45:53.872393] [80] VFR_HUD
[20:45:54.437439] [81] HEARTBEAT
[20:45:54.671472] [82] VFR_HUD
[20:45:54.703439] [79] RADIO
[20:45:54.706391] [79] RADIO_STATUS
[20:45:55.614639] [85] BATTERY_STATUS
[20:45:55.621610] [86] ATTITUDE_TARGET
[20:45:55.652573] [87] VFR_HUD
[20:45:55.679617] [80] RADIO
[20:45:55.682551] [80] RADIO_STATUS
[20:45:56.506769] [89] HEARTBEAT
[20:45:56.620647] [81] RADIO
[20:45:56.623619] [81] RADIO_STATUS
[20:45:57.095793] [90] VFR_HUD
[20:45:57.564839] [91] HEARTBEAT
[20:45:57.572790] [92] ATTITUDE_TARGET
[20:45:57.664983] [82] RADIO
[20:45:57.667826] [82] RADIO_STATUS
[20:45:57.890907] [93] VFR_HUD
[20:45:58.465931] [94] HEARTBEAT
[20:45:58.688971] [83] RADIO
[20:45:58.691991] [83] RADIO_STATUS
[20:45:58.727983] [95] VFR_HUD
[20:45:59.507186] [96] HEARTBEAT
[20:45:59.514094] [97] SYS_STATUS
[20:45:59.609044] [84] RADIO
[20:45:59.612282] [84] RADIO_STATUS
[20:45:59.679119] [98] BATTERY_STATUS
[20:45:59.686133] [99] ATTITUDE_TARGET
[20:45:59.691075] [100] VFR_HUD
[20:46:00.547260] [101] VFR_HUD
[20:46:00.550167] [102] HEARTBEAT
[20:46:00.760259] [85] RADIO
[20:46:00.763240] [85] RADIO_STATUS
[20:46:01.111273] [103] VFR_HUD
[20:46:01.470311] [104] HEARTBEAT
[20:46:01.478349] [105] ATTITUDE_TARGET
[20:46:01.680316] [86] RADIO
[20:46:01.683290] [86] RADIO_STATUS
[20:46:01.921341] [106] VFR_HUD
[20:46:02.486397] [107] HEARTBEAT
[20:46:02.720418] [108] VFR_HUD
[20:46:02.752430] [87] RADIO
[20:46:02.755360] [87] RADIO_STATUS
[20:46:03.662570] [111] BATTERY_STATUS
[20:46:03.670545] [112] ATTITUDE_TARGET
[20:46:03.700537] [113] VFR_HUD
[20:46:03.728511] [88] RADIO
[20:46:03.731515] [88] RADIO_STATUS
[20:46:04.444727] [115] HEARTBEAT
[20:46:04.668670] [89] RADIO
[20:46:04.671620] [89] RADIO_STATUS
[20:46:05.139804] [116] VFR_HUD
[20:46:05.607829] [117] HEARTBEAT
[20:46:05.615800] [118] ATTITUDE_TARGET
[20:46:05.708799] [90] RADIO
[20:46:05.711972] [90] RADIO_STATUS
[20:46:05.939877] [119] VFR_HUD
[20:46:06.514938] [120] HEARTBEAT
[20:46:06.737908] [91] RADIO
[20:46:06.740912] [91] RADIO_STATUS
[20:46:06.777077] [121] VFR_HUD
[20:46:07.452061] [122] HEARTBEAT
[20:46:07.458073] [123] SYS_STATUS
[20:46:07.493078] [124] BATTERY_STATUS
[20:46:07.494920] [125] EXTENDED_SYS_STATE
[20:46:07.501973] [126] ATTITUDE_TARGET
[20:46:07.506969] [127] VFR_HUD
[20:46:07.510964] [128] SYSTEM_TIME
[20:46:07.658041] [92] RADIO
[20:46:07.660955] [92] RADIO_STATUS
[20:46:08.364055] [129] VFR_HUD
[20:46:08.475271] [130] HEARTBEAT
[20:46:08.698193] [93] RADIO
[20:46:08.701063] [93] RADIO_STATUS
[20:46:09.048143] [131] VFR_HUD
[20:46:09.523227] [132] HEARTBEAT
[20:46:09.530209] [133] ATTITUDE_TARGET
[20:46:09.727253] [94] RADIO
[20:46:09.730213] [94] RADIO_STATUS
[20:46:09.848282] [134] VFR_HUD
[20:46:10.533347] [135] HEARTBEAT
[20:46:10.657392] [136] VFR_HUD
[20:46:10.767431] [95] RADIO
[20:46:10.770362] [95] RADIO_STATUS
[20:46:11.465490] [137] HEARTBEAT
[20:46:11.472458] [138] SYS_STATUS
[20:46:11.704633] [140] ATTITUDE_TARGET
[20:46:11.709590] [141] VFR_HUD
[20:46:11.714529] [96] RADIO
[20:46:11.717515] [96] RADIO_STATUS
[20:46:12.267577] [142] VFR_HUD
[20:46:12.497583] [143] HEARTBEAT
[20:46:12.716591] [97] RADIO
[20:46:12.719544] [97] RADIO_STATUS
[20:46:13.066732] [144] VFR_HUD
[20:46:13.655819] [145] HEARTBEAT
[20:46:13.663819] [146] ATTITUDE_TARGET
[20:46:13.755790] [98] RADIO
[20:46:13.758748] [98] RADIO_STATUS
[20:46:14.441847] [148] HEARTBEAT
[20:46:14.785891] [99] RADIO
[20:46:14.788799] [99] RADIO_STATUS
[20:46:15.498975] [150] HEARTBEAT
[20:46:15.505958] [151] SYS_STATUS
[20:46:15.545980] [152] BATTERY_STATUS
[20:46:15.552954] [153] ATTITUDE_TARGET
[20:46:15.557931] [154] VFR_HUD
[20:46:15.704978] [100] RADIO
[20:46:15.707908] [100] RADIO_STATUS
[20:46:16.521072] [155] VFR_HUD
[20:46:16.524031] [156] HEARTBEAT
[20:46:16.745099] [101] RADIO
[20:46:16.748040] [101] RADIO_STATUS
[20:46:17.101115] [157] VFR_HUD
[20:46:17.570179] [158] HEARTBEAT
[20:46:17.578222] [159] ATTITUDE_TARGET
[20:46:17.775214] [102] RADIO
[20:46:17.777157] [102] RADIO_STATUS
[20:46:17.895327] [160] VFR_HUD
[20:46:18.710344] [162] VFR_HUD
[20:46:18.826355] [103] RADIO
[20:46:18.829296] [103] RADIO_STATUS
[20:46:19.512440] [163] HEARTBEAT
[20:46:19.519455] [164] SYS_STATUS
[20:46:19.751602] [166] ATTITUDE_TARGET
[20:46:19.756484] [167] VFR_HUD
[20:46:19.790482] [104] RADIO
[20:46:19.793442] [104] RADIO_STATUS
[20:46:20.314499] [168] VFR_HUD
[20:46:20.545665] [169] HEARTBEAT
[20:46:20.763568] [105] RADIO
[20:46:20.766546] [105] RADIO_STATUS
[20:46:21.114635] [170] VFR_HUD
[20:46:21.473674] [171] HEARTBEAT
[20:46:21.485735] [172] ATTITUDE_TARGET
[20:46:21.808777] [106] RADIO
[20:46:21.811757] [106] RADIO_STATUS
[20:46:22.489835] [174] HEARTBEAT
[20:46:22.832834] [107] RADIO
[20:46:22.835785] [107] RADIO_STATUS
[20:46:23.540998] [176] HEARTBEAT
[20:46:23.547947] [177] SYS_STATUS
[20:46:23.665947] [178] BATTERY_STATUS
[20:46:23.673944] [179] ATTITUDE_TARGET
[20:46:23.703965] [180] VFR_HUD
[20:46:23.732075] [108] RADIO
[20:46:23.734969] [108] RADIO_STATUS
[20:46:24.333077] [181] VFR_HUD
[20:46:24.449994] [182] HEARTBEAT
[20:46:24.797088] [109] RADIO
[20:46:24.800096] [109] RADIO_STATUS
[20:46:25.148129] [183] VFR_HUD
[20:46:25.492189] [184] HEARTBEAT
[20:46:25.499194] [185] ATTITUDE_TARGET
[20:46:25.822239] [110] RADIO
[20:46:25.825177] [110] RADIO_STATUS
[20:46:25.860209] [186] VFR_HUD
[20:46:26.741324] [111] RADIO
[20:46:26.744328] [111] RADIO_STATUS
[20:46:26.780331] [188] VFR_HUD
[20:46:27.449440] [189] HEARTBEAT
[20:46:27.456399] [190] SYS_STATUS
[20:46:27.577524] [191] BATTERY_STATUS
[20:46:27.579544] [192] EXTENDED_SYS_STATE
[20:46:27.587461] [193] ATTITUDE_TARGET
[20:46:27.592431] [194] VFR_HUD
[20:46:27.595574] [195] SYSTEM_TIME
[20:46:27.786629] [112] RADIO
[20:46:27.789446] [112] RADIO_STATUS
[20:46:28.241531] [196] VFR_HUD
[20:46:28.810577] [113] RADIO
[20:46:28.813620] [113] RADIO_STATUS
[20:46:29.051630] [198] VFR_HUD
[20:46:29.520775] [199] HEARTBEAT
[20:46:29.527699] [200] ATTITUDE_TARGET
[20:46:29.850769] [201] VFR_HUD
[20:46:29.882767] [114] RADIO
[20:46:29.885803] [114] RADIO_STATUS
[20:46:30.535861] [202] HEARTBEAT
[20:46:30.660834] [203] VFR_HUD
[20:46:30.879834] [115] RADIO
[20:46:30.882838] [115] RADIO_STATUS
[20:46:31.467953] [204] HEARTBEAT
[20:46:31.474908] [205] SYS_STATUS
[20:46:31.588965] [206] BATTERY_STATUS
[20:46:31.706992] [207] ATTITUDE_TARGET
[20:46:31.711902] [208] VFR_HUD
[20:46:31.799922] [116] RADIO
[20:46:31.802934] [116] RADIO_STATUS
[20:46:32.501171] [210] HEARTBEAT
[20:46:32.839406] [117] RADIO
[20:46:32.842051] [117] RADIO_STATUS
[20:46:33.539225] [212] HEARTBEAT
[20:46:33.547189] [213] ATTITUDE_TARGET
[20:46:33.759213] [118] RADIO
[20:46:33.762156] [118] RADIO_STATUS
[20:46:33.885194] [214] VFR_HUD
[20:46:34.445340] [215] HEARTBEAT
[20:46:34.679634] [216] VFR_HUD
[20:46:34.789358] [119] RADIO
[20:46:34.792432] [119] RADIO_STATUS
[20:46:35.504144] [217] HEARTBEAT
[20:46:35.508389] [218] SYS_STATUS
[20:46:35.548426] [219] BATTERY_STATUS
[20:46:35.556430] [220] ATTITUDE_TARGET
[20:46:35.561370] [221] VFR_HUD
[20:46:35.828426] [120] RADIO
[20:46:35.831470] [120] RADIO_STATUS
[20:46:36.644542] [222] VFR_HUD
[20:46:36.647537] [223] HEARTBEAT
[20:46:36.858697] [121] RADIO
[20:46:36.861519] [121] RADIO_STATUS
[20:46:37.098609] [224] VFR_HUD
[20:46:37.434644] [225] HEARTBEAT
[20:46:37.457603] [226] ATTITUDE_TARGET
[20:46:37.777649] [122] RADIO
[20:46:37.780615] [122] RADIO_STATUS
[20:46:37.898644] [227] VFR_HUD
[20:46:38.479771] [228] HEARTBEAT
[20:46:38.708790] [229] VFR_HUD
[20:46:38.927804] [123] RADIO
[20:46:38.930731] [123] RADIO_STATUS
[20:46:39.515785] [230] HEARTBEAT
[20:46:39.522763] [231] SYS_STATUS
[20:46:39.642779] [232] BATTERY_STATUS
[20:46:39.754846] [233] ATTITUDE_TARGET
[20:46:39.760062] [234] VFR_HUD
[20:46:39.847785] [124] RADIO
[20:46:39.850840] [124] RADIO_STATUS
[20:46:40.549337] [236] HEARTBEAT
[20:46:40.886917] [125] RADIO
[20:46:40.890198] [125] RADIO_STATUS
[20:46:41.586097] [238] HEARTBEAT
[20:46:41.594006] [239] ATTITUDE_TARGET
[20:46:41.807023] [126] RADIO
[20:46:41.809986] [126] RADIO_STATUS
[20:46:41.928048] [240] VFR_HUD
[20:46:42.493245] [241] HEARTBEAT
[20:46:42.727139] [242] VFR_HUD
[20:46:42.836204] [127] RADIO
[20:46:42.839138] [127] RADIO_STATUS
[20:46:43.549264] [243] HEARTBEAT
[20:46:43.556282] [244] SYS_STATUS
[20:46:43.596273] [245] BATTERY_STATUS
[20:46:43.603243] [246] ATTITUDE_TARGET
[20:46:43.608263] [247] VFR_HUD
[20:46:43.876276] [128] RADIO
[20:46:43.879249] [128] RADIO_STATUS
[20:46:44.462341] [248] VFR_HUD
[20:46:44.465365] [249] HEARTBEAT
[20:46:44.801442] [129] RADIO
[20:46:44.804450] [129] RADIO_STATUS
[20:46:45.151578] [250] VFR_HUD
[20:46:45.495560] [251] HEARTBEAT
[20:46:45.503554] [252] ATTITUDE_TARGET
[20:46:45.825599] [130] RADIO
[20:46:45.828726] [130] RADIO_STATUS
[20:46:45.946777] [253] VFR_HUD
[20:46:46.521729] [254] HEARTBEAT
[20:46:46.761791] [255] VFR_HUD
[20:46:46.974833] [131] RADIO
[20:46:46.977779] [131] RADIO_STATUS
[20:46:47.453834] [0] HEARTBEAT
[20:46:47.459802] [1] SYS_STATUS
[20:46:47.581856] [2] BATTERY_STATUS
[20:46:47.583773] [3] EXTENDED_SYS_STATE
[20:46:47.590840] [4] ATTITUDE_TARGET
[20:46:47.595817] [5] VFR_HUD
[20:46:47.599887] [6] SYSTEM_TIME
[20:46:47.894983] [132] RADIO
[20:46:47.897925] [132] RADIO_STATUS
[20:46:48.245942] [7] VFR_HUD
[20:46:48.471024] [8] HEARTBEAT
[20:46:48.815009] [133] RADIO
[20:46:48.817986] [133] RADIO_STATUS
[20:46:49.055042] [9] VFR_HUD
[20:46:49.634232] [10] HEARTBEAT
[20:46:49.641163] [11] ATTITUDE_TARGET
[20:46:49.855234] [12] VFR_HUD
[20:46:49.887155] [134] RADIO
[20:46:49.890116] [134] RADIO_STATUS
[20:46:50.540275] [13] HEARTBEAT
[20:46:50.884288] [135] RADIO
[20:46:50.887522] [135] RADIO_STATUS
[20:46:51.593416] [17] BATTERY_STATUS
[20:46:51.712971] [18] ATTITUDE_TARGET
[20:46:51.715366] [19] VFR_HUD
[20:46:51.956414] [136] RADIO
[20:46:51.959346] [136] RADIO_STATUS
[20:46:52.279422] [20] VFR_HUD
[20:46:52.499522] [21] HEARTBEAT
[20:46:52.848574] [137] RADIO
[20:46:52.851506] [137] RADIO_STATUS
[20:46:53.073599] [22] VFR_HUD
[20:46:53.543714] [23] HEARTBEAT
[20:46:53.550765] [24] ATTITUDE_TARGET
[20:46:53.872716] [138] RADIO
[20:46:53.875701] [138] RADIO_STATUS
[20:46:53.911692] [25] VFR_HUD
[20:46:54.449811] [26] HEARTBEAT
[20:46:54.683782] [27] VFR_HUD
[20:46:55.022929] [139] RADIO
[20:46:55.025861] [139] RADIO_STATUS
[20:46:55.505930] [28] HEARTBEAT
[20:46:55.513595] [29] SYS_STATUS
[20:46:55.551889] [30] BATTERY_STATUS
[20:46:55.559864] [31] ATTITUDE_TARGET
[20:46:55.564813] [32] VFR_HUD
[20:46:55.832889] [140] RADIO
[20:46:55.835848] [140] RADIO_STATUS
[20:46:56.528964] [33] VFR_HUD
[20:46:56.532146] [34] HEARTBEAT
[20:46:56.862046] [141] RADIO
[20:46:56.865197] [141] RADIO_STATUS
[20:46:57.103030] [35] VFR_HUD
[20:46:57.438095] [36] HEARTBEAT
[20:46:57.461139] [37] ATTITUDE_TARGET
[20:46:57.903090] [38] VFR_HUD
[20:46:57.930226] [142] RADIO
[20:46:57.933095] [142] RADIO_STATUS
[20:46:58.483194] [39] HEARTBEAT
[20:46:58.931215] [143] RADIO
[20:46:58.934166] [143] RADIO_STATUS
[20:46:59.641404] [43] BATTERY_STATUS
[20:46:59.758377] [44] ATTITUDE_TARGET
[20:46:59.763394] [45] VFR_HUD
[20:46:59.851384] [144] RADIO
[20:46:59.854367] [144] RADIO_STATUS
[20:47:00.321471] [46] VFR_HUD
[20:47:00.552474] [47] HEARTBEAT
[20:47:00.891571] [145] RADIO
[20:47:00.893864] [145] RADIO_STATUS
[20:47:01.121549] [48] VFR_HUD
[20:47:01.485636] [49] HEARTBEAT
[20:47:01.493597] [50] ATTITUDE_TARGET
[20:47:01.920659] [146] RADIO
[20:47:01.924397] [146] RADIO_STATUS
[20:47:01.959668] [51] VFR_HUD
[20:47:02.496844] [52] HEARTBEAT
[20:47:02.733083] [53] VFR_HUD
[20:47:03.070823] [147] RADIO
[20:47:03.073782] [147] RADIO_STATUS
[20:47:03.554042] [54] HEARTBEAT
[20:47:03.560095] [55] SYS_STATUS
[20:47:03.599932] [56] BATTERY_STATUS
[20:47:03.607907] [57] ATTITUDE_TARGET
[20:47:03.612924] [58] VFR_HUD
[20:47:03.879966] [148] RADIO
[20:47:03.882995] [148] RADIO_STATUS
[20:47:04.576026] [59] VFR_HUD
[20:47:04.579040] [60] HEARTBEAT
[20:47:04.910143] [149] RADIO
[20:47:04.913307] [149] RADIO_STATUS
[20:47:05.156069] [61] VFR_HUD
[20:47:05.500153] [62] HEARTBEAT
[20:47:05.507124] [63] ATTITUDE_TARGET
[20:47:05.840216] [64] VFR_HUD
[20:47:05.949213] [150] RADIO
[20:47:05.952151] [150] RADIO_STATUS
[20:47:06.525244] [65] HEARTBEAT
[20:47:06.645221] [66] VFR_HUD
[20:47:06.979308] [151] RADIO
[20:47:06.982443] [151] RADIO_STATUS
[20:47:07.457429] [67] HEARTBEAT
[20:47:07.465246] [68] SYS_STATUS
[20:47:07.898384] [152] RADIO
[20:47:07.901378] [152] RADIO_STATUS
[20:47:08.249506] [74] VFR_HUD
[20:47:08.474487] [75] HEARTBEAT
[20:47:08.938517] [153] RADIO
[20:47:08.941448] [153] RADIO_STATUS
[20:47:09.527665] [77] HEARTBEAT
[20:47:09.535585] [78] ATTITUDE_TARGET
[20:47:09.967630] [154] RADIO
[20:47:09.970617] [154] RADIO_STATUS
[20:47:10.433697] [80] HEARTBEAT
[20:47:10.673695] [81] VFR_HUD
[20:47:11.117861] [155] RADIO
[20:47:11.120740] [155] RADIO_STATUS
[20:47:11.475855] [82] HEARTBEAT
[20:47:11.481819] [83] SYS_STATUS
[20:47:11.596823] [84] BATTERY_STATUS
[20:47:11.714855] [85] ATTITUDE_TARGET
[20:47:11.719798] [86] VFR_HUD
[20:47:11.959911] [156] RADIO
[20:47:11.962843] [156] RADIO_STATUS
[20:47:12.282932] [87] VFR_HUD
[20:47:12.957006] [157] RADIO
[20:47:12.959983] [157] RADIO_STATUS
[20:47:13.077026] [89] VFR_HUD
[20:47:13.546147] [90] HEARTBEAT
[20:47:13.554077] [91] ATTITUDE_TARGET
[20:47:13.892091] [92] VFR_HUD
[20:47:14.013181] [158] RADIO
[20:47:14.016119] [158] RADIO_STATUS
[20:47:14.687227] [94] VFR_HUD
[20:47:14.921233] [159] RADIO
[20:47:14.924201] [159] RADIO_STATUS
[20:47:15.504259] [95] HEARTBEAT
[20:47:15.510445] [96] SYS_STATUS
[20:47:15.945321] [160] RADIO
[20:47:15.948258] [160] RADIO_STATUS
[20:47:16.296418] [100] VFR_HUD
[20:47:16.521381] [101] HEARTBEAT
[20:47:16.990382] [161] RADIO
[20:47:16.993344] [161] RADIO_STATUS
[20:47:17.441481] [103] HEARTBEAT
[20:47:17.464451] [104] ATTITUDE_TARGET
[20:47:18.015492] [162] RADIO
[20:47:18.018550] [162] RADIO_STATUS
[20:47:18.486671] [106] HEARTBEAT
[20:47:18.715599] [107] VFR_HUD
[20:47:18.934629] [163] RADIO
[20:47:18.937628] [163] RADIO_STATUS
[20:47:19.522695] [108] HEARTBEAT
[20:47:19.529715] [109] SYS_STATUS
[20:47:19.644725] [110] BATTERY_STATUS
[20:47:19.761883] [111] ATTITUDE_TARGET
[20:47:19.766775] [112] VFR_HUD
[20:47:20.007795] [164] RADIO
[20:47:20.010739] [164] RADIO_STATUS
[20:47:20.325867] [113] VFR_HUD
[20:47:20.430859] [114] HEARTBEAT
[20:47:21.004854] [165] RADIO
[20:47:21.007830] [165] RADIO_STATUS
[20:47:21.042861] [115] VFR_HUD
[20:47:21.490078] [116] HEARTBEAT
[20:47:21.496938] [117] ATTITUDE_TARGET
[20:47:21.939951] [118] VFR_HUD
[20:47:22.060972] [166] RADIO
[20:47:22.063948] [166] RADIO_STATUS
[20:47:22.735047] [120] VFR_HUD
[20:47:22.964034] [167] RADIO
[20:47:22.968408] [167] RADIO_STATUS
[20:47:23.557253] [121] HEARTBEAT
[20:47:23.564198] [122] SYS_STATUS
[20:47:23.604177] [123] BATTERY_STATUS
[20:47:23.611154] [124] ATTITUDE_TARGET
[20:47:23.616129] [125] VFR_HUD
[20:47:23.995251] [168] RADIO
[20:47:23.998225] [168] RADIO_STATUS
[20:47:24.346271] [126] VFR_HUD
[20:47:24.467306] [127] HEARTBEAT
[20:47:25.035289] [169] RADIO
[20:47:25.039218] [169] RADIO_STATUS
[20:47:25.265374] [128] VFR_HUD
[20:47:25.505486] [129] HEARTBEAT
[20:47:25.513670] [130] ATTITUDE_TARGET
[20:47:25.845414] [131] VFR_HUD
[20:47:26.064484] [170] RADIO
[20:47:26.067423] [170] RADIO_STATUS
[20:47:26.536619] [132] HEARTBEAT
[20:47:26.645512] [133] VFR_HUD
[20:47:26.984621] [171] RADIO
[20:47:26.987544] [171] RADIO_STATUS
[20:47:27.590737] [136] BATTERY_STATUS
[20:47:27.592590] [137] EXTENDED_SYS_STATE
[20:47:27.600642] [138] ATTITUDE_TARGET
[20:47:27.605694] [139] VFR_HUD
[20:47:27.608622] [140] SYSTEM_TIME
[20:47:28.024712] [172] RADIO
[20:47:28.027750] [172] RADIO_STATUS
[20:47:28.480827] [142] HEARTBEAT
[20:47:29.053844] [173] RADIO
[20:47:29.056859] [173] RADIO_STATUS
[20:47:29.092911] [143] VFR_HUD
[20:47:29.533907] [144] HEARTBEAT
[20:47:29.541864] [145] ATTITUDE_TARGET
[20:47:29.863892] [146] VFR_HUD
[20:47:29.973834] [174] RADIO
[20:47:29.976842] [174] RADIO_STATUS
[20:47:30.439955] [147] HEARTBEAT
[20:47:30.679018] [148] VFR_HUD
[20:47:31.013125] [175] RADIO
[20:47:31.016022] [175] RADIO_STATUS
[20:47:31.481110] [149] HEARTBEAT
[20:47:31.488192] [150] SYS_STATUS
[20:47:31.608163] [151] BATTERY_STATUS
[20:47:32.043174] [176] RADIO
[20:47:32.046117] [176] RADIO_STATUS
[20:47:32.289224] [154] VFR_HUD
[20:47:32.509325] [155] HEARTBEAT
[20:47:33.083504] [156] VFR_HUD
[20:47:33.110273] [177] RADIO
[20:47:33.113358] [177] RADIO_STATUS
[20:47:33.552367] [157] HEARTBEAT
[20:47:33.560377] [158] ATTITUDE_TARGET
[20:47:33.893379] [159] VFR_HUD
[20:47:34.113021] [178] RADIO
[20:47:34.115359] [178] RADIO_STATUS
[20:47:34.458495] [160] HEARTBEAT
[20:47:34.693503] [161] VFR_HUD
[20:47:35.032527] [179] RADIO
[20:47:35.035535] [179] RADIO_STATUS
[20:47:35.635651] [164] BATTERY_STATUS
[20:47:35.643612] [165] ATTITUDE_TARGET
[20:47:35.673720] [166] VFR_HUD
[20:47:36.071666] [180] RADIO
[20:47:36.074678] [180] RADIO_STATUS
[20:47:36.527733] [168] HEARTBEAT
[20:47:37.100802] [181] RADIO
[20:47:37.103734] [181] RADIO_STATUS
[20:47:37.221816] [169] VFR_HUD
[20:47:37.580847] [170] HEARTBEAT
[20:47:37.587825] [171] ATTITUDE_TARGET
[20:47:37.911910] [172] VFR_HUD
[20:47:38.021003] [182] RADIO
[20:47:38.023982] [182] RADIO_STATUS
[20:47:38.487013] [173] HEARTBEAT
[20:47:38.721022] [174] VFR_HUD
[20:47:39.066001] [183] RADIO
[20:47:39.069022] [183] RADIO_STATUS
[20:47:39.529140] [175] HEARTBEAT
[20:47:39.536133] [176] SYS_STATUS
[20:47:39.650243] [177] BATTERY_STATUS
[20:47:39.997204] [178] ATTITUDE_TARGET
[20:47:40.002176] [179] VFR_HUD
[20:47:40.090166] [184] RADIO
[20:47:40.093128] [184] RADIO_STATUS
[20:47:40.336555] [180] VFR_HUD
[20:47:40.448268] [181] HEARTBEAT
[20:47:41.131430] [182] VFR_HUD
[20:47:41.163321] [185] RADIO
[20:47:41.166350] [185] RADIO_STATUS
[20:47:41.495453] [183] HEARTBEAT
[20:47:41.503383] [184] ATTITUDE_TARGET
[20:47:41.946493] [185] VFR_HUD
[20:47:42.160429] [186] RADIO
[20:47:42.163368] [186] RADIO_STATUS
[20:47:42.506520] [186] HEARTBEAT
[20:47:42.740513] [187] VFR_HUD
[20:47:43.079548] [187] RADIO
[20:47:43.082500] [187] RADIO_STATUS
[20:47:44.124674] [188] RADIO
[20:47:44.127659] [188] RADIO_STATUS
[20:47:44.480786] [193] VFR_HUD
[20:47:44.483815] [194] HEARTBEAT
[20:47:45.044802] [195] VFR_HUD
[20:47:45.071812] [189] RADIO
[20:47:45.074801] [189] RADIO_STATUS
[20:47:45.628966] [196] HEARTBEAT
[20:47:45.636011] [197] ATTITUDE_TARGET
[20:47:46.068932] [190] RADIO
[20:47:46.071904] [190] RADIO_STATUS
[20:47:46.540072] [199] HEARTBEAT
[20:47:47.113196] [191] RADIO
[20:47:47.116072] [191] RADIO_STATUS
[20:47:47.472222] [201] HEARTBEAT
[20:47:47.478122] [202] SYS_STATUS
[20:47:47.512160] [203] BATTERY_STATUS
[20:47:47.514157] [204] EXTENDED_SYS_STATE
[20:47:47.522111] [205] ATTITUDE_TARGET
[20:47:47.527304] [206] VFR_HUD
[20:47:47.530173] [207] SYSTEM_TIME
[20:47:48.138259] [192] RADIO
[20:47:48.141223] [192] RADIO_STATUS
[20:47:48.259402] [208] VFR_HUD
[20:47:48.484258] [209] HEARTBEAT
[20:47:49.073340] [210] VFR_HUD
[20:47:49.194335] [193] RADIO
[20:47:49.197284] [193] RADIO_STATUS
[20:47:49.542418] [211] HEARTBEAT
[20:47:49.550398] [212] ATTITUDE_TARGET
[20:47:49.868392] [213] VFR_HUD
[20:47:50.207538] [194] RADIO
[20:47:50.210397] [194] RADIO_STATUS
[20:47:50.683511] [215] VFR_HUD
[20:47:51.127515] [195] RADIO
[20:47:51.130498] [195] RADIO_STATUS
[20:47:51.485620] [216] HEARTBEAT
[20:47:51.491578] [217] SYS_STATUS
[20:47:51.724704] [219] ATTITUDE_TARGET
[20:47:51.728593] [220] VFR_HUD
[20:47:52.166705] [196] RADIO
[20:47:52.169789] [196] RADIO_STATUS
[20:47:52.287693] [221] VFR_HUD
[20:47:52.512762] [222] HEARTBEAT
[20:47:53.087783] [223] VFR_HUD
[20:47:53.114845] [197] RADIO
[20:47:53.117954] [197] RADIO_STATUS
[20:47:53.432845] [224] HEARTBEAT
[20:47:53.455815] [225] ATTITUDE_TARGET
[20:47:54.116901] [198] RADIO
[20:47:54.119896] [198] RADIO_STATUS
[20:47:54.462974] [227] HEARTBEAT
[20:47:55.156081] [199] RADIO
[20:47:55.159077] [199] RADIO_STATUS
[20:47:55.514171] [229] HEARTBEAT
[20:47:55.521030] [230] SYS_STATUS
[20:47:55.640034] [231] BATTERY_STATUS
[20:47:55.648649] [232] ATTITUDE_TARGET
[20:47:55.678028] [233] VFR_HUD
[20:47:56.186251] [200] RADIO
[20:47:56.189067] [200] RADIO_STATUS
[20:47:56.306189] [234] VFR_HUD
[20:47:56.532143] [235] HEARTBEAT
[20:47:57.116172] [236] VFR_HUD
[20:47:57.226197] [201] RADIO
[20:47:57.229156] [201] RADIO_STATUS
[20:47:57.465241] [237] HEARTBEAT
[20:47:57.473216] [238] ATTITUDE_TARGET
[20:47:57.916250] [239] VFR_HUD
[20:47:58.255277] [202] RADIO
[20:47:58.258243] [202] RADIO_STATUS
[20:47:58.731400] [241] VFR_HUD
[20:47:59.175415] [203] RADIO
[20:47:59.178363] [203] RADIO_STATUS
[20:47:59.533524] [242] HEARTBEAT
[20:47:59.540426] [243] SYS_STATUS
[20:47:59.772459] [245] ATTITUDE_TARGET
[20:47:59.777483] [246] VFR_HUD
[20:48:00.214485] [204] RADIO
[20:48:00.217469] [204] RADIO_STATUS
[20:48:00.340466] [247] VFR_HUD
[20:48:01.135658] [249] VFR_HUD
[20:48:01.162708] [205] RADIO
[20:48:01.165924] [205] RADIO_STATUS
[20:48:01.494699] [250] HEARTBEAT
[20:48:01.502664] [251] ATTITUDE_TARGET
[20:48:02.054790] [252] VFR_HUD
[20:48:02.164825] [206] RADIO
[20:48:02.166817] [206] RADIO_STATUS
[20:48:02.510848] [253] HEARTBEAT
[20:48:03.204070] [207] RADIO
[20:48:03.206920] [207] RADIO_STATUS
[20:48:03.429916] [255] HEARTBEAT
[20:48:03.449932] [0] SYS_STATUS
[20:48:03.498917] [1] BATTERY_STATUS
[20:48:03.505895] [2] ATTITUDE_TARGET
[20:48:03.511053] [3] VFR_HUD
[20:48:04.235084] [208] RADIO
[20:48:04.238005] [208] RADIO_STATUS
[20:48:04.487015] [4] VFR_HUD
[20:48:04.489034] [5] HEARTBEAT
[20:48:05.275137] [209] RADIO
[20:48:05.278112] [209] RADIO_STATUS
[20:48:05.515303] [7] HEARTBEAT
[20:48:05.522260] [8] ATTITUDE_TARGET
[20:48:05.860230] [9] VFR_HUD
[20:48:06.304341] [210] RADIO
[20:48:06.307302] [210] RADIO_STATUS
[20:48:06.655354] [11] VFR_HUD
[20:48:07.224382] [211] RADIO
[20:48:07.227439] [211] RADIO_STATUS
[20:48:07.477457] [12] HEARTBEAT
[20:48:07.484404] [13] SYS_STATUS
[20:48:07.518419] [14] BATTERY_STATUS
[20:48:07.520349] [15] EXTENDED_SYS_STATE
[20:48:07.528408] [16] ATTITUDE_TARGET
[20:48:07.533358] [17] VFR_HUD
[20:48:07.536364] [18] SYSTEM_TIME
[20:48:08.265468] [19] VFR_HUD
[20:48:08.292509] [212] RADIO
[20:48:08.294672] [212] RADIO_STATUS
[20:48:09.079640] [21] VFR_HUD
[20:48:09.201408] [213] RADIO
[20:48:09.203636] [213] RADIO_STATUS
[20:48:09.548669] [22] HEARTBEAT
[20:48:09.556689] [23] ATTITUDE_TARGET
[20:48:09.874955] [24] VFR_HUD
[20:48:10.213853] [214] RADIO
[20:48:10.216855] [214] RADIO_STATUS
[20:48:10.454860] [25] HEARTBEAT
[20:48:10.684039] [26] VFR_HUD
[20:48:11.258883] [215] RADIO
[20:48:11.261878] [215] RADIO_STATUS
[20:48:11.491932] [27] HEARTBEAT
[20:48:11.497891] [28] SYS_STATUS
[20:48:11.617941] [29] BATTERY_STATUS
[20:48:11.730942] [30] ATTITUDE_TARGET
[20:48:11.735908] [31] VFR_HUD
[20:48:12.282951] [216] RADIO
[20:48:12.285946] [216] RADIO_STATUS
[20:48:12.403972] [32] VFR_HUD
[20:48:12.524031] [33] HEARTBEAT
[20:48:13.203124] [217] RADIO
[20:48:13.206029] [217] RADIO_STATUS
[20:48:13.562144] [35] HEARTBEAT
[20:48:13.570101] [36] ATTITUDE_TARGET
[20:48:13.904298] [37] VFR_HUD
[20:48:14.352397] [218] RADIO
[20:48:14.355221] [218] RADIO_STATUS
[20:48:14.468225] [38] HEARTBEAT
[20:48:14.704006] [39] VFR_HUD
[20:48:15.272313] [219] RADIO
[20:48:15.275261] [219] RADIO_STATUS
[20:48:15.520326] [40] HEARTBEAT
[20:48:15.526308] [41] SYS_STATUS
[20:48:15.645338] [42] BATTERY_STATUS
[20:48:15.653342] [43] ATTITUDE_TARGET
[20:48:15.683479] [44] VFR_HUD
[20:48:16.312733] [45] VFR_HUD
[20:48:16.344386] [220] RADIO
[20:48:16.347639] [220] RADIO_STATUS
[20:48:17.127655] [47] VFR_HUD
[20:48:17.243498] [221] RADIO
[20:48:17.246482] [221] RADIO_STATUS
[20:48:17.471722] [48] HEARTBEAT
[20:48:17.481056] [49] ATTITUDE_TARGET
[20:48:17.921548] [50] VFR_HUD
[20:48:18.261650] [222] RADIO
[20:48:18.264519] [222] RADIO_STATUS
[20:48:18.502640] [51] HEARTBEAT
[20:48:18.736602] [52] VFR_HUD
[20:48:19.306681] [223] RADIO
[20:48:19.308664] [223] RADIO_STATUS
[20:48:19.540216] [53] HEARTBEAT
[20:48:19.545727] [54] SYS_STATUS
[20:48:19.665763] [55] BATTERY_STATUS
[20:48:19.777814] [56] ATTITUDE_TARGET
[20:48:19.782765] [57] VFR_HUD
[20:48:20.330827] [224] RADIO
[20:48:20.333798] [224] RADIO_STATUS
[20:48:20.446880] [59] HEARTBEAT
[20:48:21.255842] [225] RADIO
[20:48:21.258821] [225] RADIO_STATUS
[20:48:21.610027] [61] HEARTBEAT
[20:48:21.617911] [62] ATTITUDE_TARGET
[20:48:21.950960] [63] VFR_HUD
[20:48:22.400003] [226] RADIO
[20:48:22.403003] [226] RADIO_STATUS
[20:48:22.515991] [64] HEARTBEAT
[20:48:23.320054] [227] RADIO
[20:48:23.322999] [227] RADIO_STATUS
[20:48:23.569173] [68] BATTERY_STATUS
[20:48:23.687109] [69] ATTITUDE_TARGET
[20:48:23.692115] [70] VFR_HUD
[20:48:24.255211] [71] VFR_HUD
[20:48:24.371167] [228] RADIO
[20:48:24.374152] [228] RADIO_STATUS
[20:48:24.484195] [72] HEARTBEAT
[20:48:25.050321] [73] VFR_HUD
[20:48:25.279337] [229] RADIO
[20:48:25.282262] [229] RADIO_STATUS
[20:48:25.519339] [74] HEARTBEAT
[20:48:25.526389] [75] ATTITUDE_TARGET
[20:48:25.864456] [76] VFR_HUD
[20:48:26.308426] [230] RADIO
[20:48:26.311609] [230] RADIO_STATUS
[20:48:26.544498] [77] HEARTBEAT
[20:48:26.659467] [78] VFR_HUD
[20:48:27.348547] [231] RADIO
[20:48:27.351521] [231] RADIO_STATUS
[20:48:27.481599] [79] HEARTBEAT
[20:48:27.488566] [80] SYS_STATUS
[20:48:27.523598] [81] BATTERY_STATUS
[20:48:27.524538] [82] EXTENDED_SYS_STATE
[20:48:27.532561] [83] ATTITUDE_TARGET
[20:48:27.537567] [84] VFR_HUD
[20:48:27.541591] [85] SYSTEM_TIME
[20:48:28.269743] [86] VFR_HUD
[20:48:28.296665] [232] RADIO
[20:48:28.299584] [232] RADIO_STATUS
[20:48:28.494896] [87] HEARTBEAT
[20:48:29.078776] [88] VFR_HUD
[20:48:29.298883] [233] RADIO
[20:48:29.300807] [233] RADIO_STATUS
[20:48:29.657875] [89] HEARTBEAT
[20:48:29.665884] [90] ATTITUDE_TARGET
[20:48:29.878887] [91] VFR_HUD
[20:48:30.447901] [234] RADIO
[20:48:30.450929] [234] RADIO_STATUS
[20:48:30.482015] [92] HEARTBEAT
[20:48:31.368110] [235] RADIO
[20:48:31.371005] [235] RADIO_STATUS
[20:48:31.617133] [96] BATTERY_STATUS
[20:48:31.735103] [97] ATTITUDE_TARGET
[20:48:31.740050] [98] VFR_HUD
[20:48:32.298086] [99] VFR_HUD
[20:48:32.407159] [236] RADIO
[20:48:32.410071] [236] RADIO_STATUS
[20:48:32.528308] [100] HEARTBEAT
[20:48:33.098217] [101] VFR_HUD
[20:48:33.330299] [237] RADIO
[20:48:33.333200] [237] RADIO_STATUS
[20:48:33.462275] [102] HEARTBEAT
[20:48:33.470356] [103] ATTITUDE_TARGET
[20:48:33.907349] [104] VFR_HUD
[20:48:34.357373] [238] RADIO
[20:48:34.359270] [238] RADIO_STATUS
[20:48:34.473640] [105] HEARTBEAT
[20:48:34.707399] [106] VFR_HUD
[20:48:35.396466] [239] RADIO
[20:48:35.399442] [239] RADIO_STATUS
[20:48:35.529471] [107] HEARTBEAT
[20:48:35.536472] [108] SYS_STATUS
[20:48:35.576507] [109] BATTERY_STATUS
[20:48:35.584763] [110] ATTITUDE_TARGET
[20:48:35.588469] [111] VFR_HUD
[20:48:36.321552] [240] RADIO
[20:48:36.324502] [240] RADIO_STATUS
[20:48:36.552552] [112] VFR_HUD
[20:48:36.555541] [113] HEARTBEAT
[20:48:37.131619] [114] VFR_HUD
[20:48:37.345615] [241] RADIO
[20:48:37.348581] [241] RADIO_STATUS
[20:48:37.475647] [115] HEARTBEAT
[20:48:37.483775] [116] ATTITUDE_TARGET
[20:48:37.926723] [117] VFR_HUD
[20:48:38.495885] [242] RADIO
[20:48:38.498773] [242] RADIO_STATUS
[20:48:38.529845] [118] HEARTBEAT
[20:48:39.414942] [243] RADIO
[20:48:39.417897] [243] RADIO_STATUS
[20:48:39.669973] [122] BATTERY_STATUS
[20:48:39.781980] [123] ATTITUDE_TARGET
[20:48:39.786940] [124] VFR_HUD
[20:48:40.335019] [244] RADIO
[20:48:40.338055] [244] RADIO_STATUS
[20:48:40.461114] [125] VFR_HUD
[20:48:40.463998] [126] HEARTBEAT
[20:48:41.380119] [245] RADIO
[20:48:41.383077] [245] RADIO_STATUS
[20:48:41.504182] [128] HEARTBEAT
[20:48:41.512149] [129] ATTITUDE_TARGET
[20:48:42.404215] [246] RADIO
[20:48:42.407199] [246] RADIO_STATUS
[20:48:42.520310] [131] HEARTBEAT
[20:48:42.650410] [132] VFR_HUD
[20:48:43.452408] [133] HEARTBEAT
[20:48:43.459393] [134] SYS_STATUS
[20:48:43.472407] [247] RADIO
[20:48:43.475312] [247] RADIO_STATUS
[20:48:43.574414] [135] BATTERY_STATUS
[20:48:43.691493] [136] ATTITUDE_TARGET
[20:48:43.696452] [137] VFR_HUD
[20:48:44.259483] [138] VFR_HUD
[20:48:44.380446] [248] RADIO
[20:48:44.383445] [248] RADIO_STATUS
[20:48:45.054547] [140] VFR_HUD
[20:48:45.393727] [249] RADIO
[20:48:45.396587] [249] RADIO_STATUS
[20:48:45.523653] [141] HEARTBEAT
[20:48:45.534781] [142] ATTITUDE_TARGET
[20:48:45.869672] [143] VFR_HUD
[20:48:46.543719] [250] RADIO
[20:48:46.549290] [250] RADIO_STATUS
[20:48:46.663733] [145] VFR_HUD
[20:48:47.462819] [251] RADIO
[20:48:47.465877] [251] RADIO_STATUS
[20:48:47.715951] [148] BATTERY_STATUS
[20:48:47.717938] [149] EXTENDED_SYS_STATE
[20:48:47.836961] [150] ATTITUDE_TARGET
[20:48:47.841818] [151] VFR_HUD
[20:48:47.844850] [152] SYSTEM_TIME
[20:48:48.273936] [153] VFR_HUD
[20:48:48.382929] [252] RADIO
[20:48:48.386125] [252] RADIO_STATUS
[20:48:48.498999] [154] HEARTBEAT
[20:48:49.422090] [253] RADIO
[20:48:49.425060] [253] RADIO_STATUS
[20:48:49.552108] [156] HEARTBEAT
[20:48:49.560083] [157] ATTITUDE_TARGET
[20:48:50.452169] [254] RADIO
[20:48:50.455192] [254] RADIO_STATUS
[20:48:50.486269] [159] HEARTBEAT
[20:48:50.693367] [160] VFR_HUD
[20:48:51.500330] [161] HEARTBEAT
[20:48:51.507317] [162] SYS_STATUS
[20:48:51.520277] [255] RADIO
[20:48:51.523341] [255] RADIO_STATUS
[20:48:51.622345] [163] BATTERY_STATUS
[20:48:51.739343] [164] ATTITUDE_TARGET
[20:48:51.744305] [165] VFR_HUD
[20:48:52.302427] [166] VFR_HUD
[20:48:52.413112] [0] RADIO
[20:48:52.414392] [0] RADIO_STATUS
[20:48:53.102693] [168] VFR_HUD
[20:48:53.441550] [1] RADIO
[20:48:53.444563] [1] RADIO_STATUS
[20:48:53.489558] [169] HEARTBEAT
[20:48:53.497556] [170] ATTITUDE_TARGET
[20:48:53.917577] [171] VFR_HUD
[20:48:54.590679] [2] RADIO
[20:48:54.593876] [2] RADIO_STATUS
[20:48:54.711698] [173] VFR_HUD
[20:48:55.510825] [3] RADIO
[20:48:55.513775] [3] RADIO_STATUS
[20:48:55.570840] [174] HEARTBEAT
[20:48:55.577050] [175] SYS_STATUS
[20:48:55.584831] [176] BATTERY_STATUS
[20:48:55.596859] [177] ATTITUDE_TARGET
[20:48:55.601801] [178] VFR_HUD
[20:48:56.320940] [179] VFR_HUD
[20:48:56.442021] [180] HEARTBEAT
[20:48:56.551077] [4] RADIO
[20:48:56.552895] [4] RADIO_STATUS
[20:48:57.240979] [181] VFR_HUD
[20:48:57.480032] [182] HEARTBEAT
[20:48:57.488055] [183] ATTITUDE_TARGET
[20:48:57.580165] [5] RADIO
[20:48:57.583107] [5] RADIO_STATUS
[20:48:58.500168] [6] RADIO
[20:48:58.503202] [6] RADIO_STATUS
[20:48:58.534218] [185] HEARTBEAT
[20:48:58.740231] [186] VFR_HUD
[20:48:59.548275] [187] HEARTBEAT
[20:48:59.554244] [188] SYS_STATUS
[20:48:59.649266] [7] RADIO
[20:48:59.652240] [7] RADIO_STATUS
[20:48:59.719271] [189] BATTERY_STATUS
[20:48:59.727313] [190] ATTITUDE_TARGET
[20:48:59.732266] [191] VFR_HUD
[20:49:00.466376] [192] VFR_HUD
[20:49:00.468342] [193] HEARTBEAT
[20:49:00.569492] [8] RADIO
[20:49:00.572474] [8] RADIO_STATUS
[20:49:01.045435] [194] VFR_HUD
[20:49:01.489463] [9] RADIO
[20:49:01.492411] [9] RADIO_STATUS
[20:49:01.536520] [195] HEARTBEAT
[20:49:01.544517] [196] ATTITUDE_TARGET
[20:49:01.839510] [197] VFR_HUD
[20:49:02.638594] [10] RADIO
[20:49:02.641571] [10] RADIO_STATUS
[20:49:02.677633] [199] VFR_HUD
[20:49:03.456686] [200] HEARTBEAT
[20:49:03.463684] [201] SYS_STATUS
[20:49:03.476659] [11] RADIO
[20:49:03.479647] [11] RADIO_STATUS
[20:49:03.583695] [202] BATTERY_STATUS
[20:49:03.814708] [203] ATTITUDE_TARGET
[20:49:03.819787] [204] VFR_HUD
[20:49:04.263977] [205] VFR_HUD
[20:49:04.478123] [12] RADIO
[20:49:04.480811] [12] RADIO_STATUS
[20:49:04.594038] [206] HEARTBEAT
[20:49:05.058885] [207] VFR_HUD
[20:49:05.528003] [208] HEARTBEAT
[20:49:05.535932] [209] ATTITUDE_TARGET
[20:49:05.545910] [13] RADIO
[20:49:05.548882] [13] RADIO_STATUS
[20:49:05.868961] [210] VFR_HUD
[20:49:06.434069] [211] HEARTBEAT
[20:49:06.548189] [14] RADIO
[20:49:06.551024] [14] RADIO_STATUS
[20:49:06.668072] [212] VFR_HUD
[20:49:07.614394] [215] BATTERY_STATUS
[20:49:07.615201] [216] EXTENDED_SYS_STATE
[20:49:07.623351] [217] ATTITUDE_TARGET
[20:49:07.633833] [218] VFR_HUD
[20:49:07.633966] [219] SYSTEM_TIME
[20:49:07.659203] [15] RADIO
[20:49:07.662305] [15] RADIO_STATUS
[20:49:08.503370] [221] HEARTBEAT
[20:49:08.535317] [16] RADIO
[20:49:08.538329] [16] RADIO_STATUS
[20:49:09.087382] [222] VFR_HUD
[20:49:09.536542] [17] RADIO
[20:49:09.539438] [17] RADIO_STATUS
[20:49:09.666431] [223] HEARTBEAT
[20:49:09.674474] [224] ATTITUDE_TARGET
[20:49:09.887607] [225] VFR_HUD
[20:49:10.462543] [226] HEARTBEAT
[20:49:10.686599] [18] RADIO
[20:49:10.689546] [18] RADIO_STATUS
[20:49:10.724617] [227] VFR_HUD
[20:49:11.504786] [228] HEARTBEAT
[20:49:11.511635] [229] SYS_STATUS
[20:49:11.524621] [19] RADIO
[20:49:11.526632] [19] RADIO_STATUS
[20:49:11.626844] [230] BATTERY_STATUS
[20:49:11.972934] [231] ATTITUDE_TARGET
[20:49:11.977728] [232] VFR_HUD
[20:49:12.313954] [233] VFR_HUD
[20:49:12.525818] [20] RADIO
[20:49:12.528809] [20] RADIO_STATUS
[20:49:12.641841] [234] HEARTBEAT
[20:49:13.106881] [235] VFR_HUD
[20:49:13.471137] [236] HEARTBEAT
[20:49:13.479027] [237] ATTITUDE_TARGET
[20:49:13.570864] [21] RADIO
[20:49:13.573855] [21] RADIO_STATUS
[20:49:13.921976] [238] VFR_HUD
[20:49:14.481059] [239] HEARTBEAT
[20:49:14.595180] [22] RADIO
[20:49:14.598013] [22] RADIO_STATUS
[20:49:14.716095] [240] VFR_HUD
[20:49:15.640165] [23] RADIO
[20:49:15.643118] [23] RADIO_STATUS
[20:49:16.456269] [246] VFR_HUD
[20:49:16.459321] [247] HEARTBEAT
[20:49:16.571226] [24] RADIO
[20:49:16.574189] [24] RADIO_STATUS
[20:49:17.135266] [248] VFR_HUD
[20:49:17.584400] [25] RADIO
[20:49:17.587430] [25] RADIO_STATUS
[20:49:17.713431] [249] HEARTBEAT
[20:49:17.721416] [250] ATTITUDE_TARGET
[20:49:17.934425] [251] VFR_HUD
[20:49:18.515526] [252] HEARTBEAT
[20:49:18.733488] [26] RADIO
[20:49:18.736664] [26] RADIO_STATUS
[20:49:18.774717] [253] VFR_HUD
[20:49:19.450575] [254] HEARTBEAT
[20:49:19.453784] [255] SYS_STATUS
[20:49:19.493640] [0] BATTERY_STATUS
[20:49:19.500610] [1] ATTITUDE_TARGET
[20:49:19.505625] [2] VFR_HUD
[20:49:19.543622] [27] RADIO
[20:49:19.546575] [27] RADIO_STATUS
[20:49:20.470332] [3] VFR_HUD
[20:49:20.472647] [4] HEARTBEAT
[20:49:20.573741] [28] RADIO
[20:49:20.576667] [28] RADIO_STATUS
[20:49:21.048772] [5] VFR_HUD
[20:49:21.517857] [6] HEARTBEAT
[20:49:21.525864] [7] ATTITUDE_TARGET
[20:49:21.613902] [29] RADIO
[20:49:21.615777] [29] RADIO_STATUS
[20:49:21.843868] [8] VFR_HUD
[20:49:22.528986] [9] HEARTBEAT
[20:49:22.642887] [30] RADIO
[20:49:22.645924] [30] RADIO_STATUS
[20:49:22.680957] [10] VFR_HUD
[20:49:23.461026] [11] HEARTBEAT
[20:49:23.468028] [12] SYS_STATUS
[20:49:23.568032] [31] RADIO
[20:49:23.570988] [31] RADIO_STATUS
[20:49:24.499170] [16] VFR_HUD
[20:49:24.501102] [17] HEARTBEAT
[20:49:24.618125] [32] RADIO
[20:49:24.621117] [32] RADIO_STATUS
[20:49:25.063204] [18] VFR_HUD
[20:49:25.632255] [33] RADIO
[20:49:25.634232] [33] RADIO_STATUS
[20:49:25.679455] [19] HEARTBEAT
[20:49:25.687294] [20] ATTITUDE_TARGET
[20:49:26.438439] [22] HEARTBEAT
[20:49:26.781395] [34] RADIO
[20:49:26.784346] [34] RADIO_STATUS
[20:49:27.489518] [24] HEARTBEAT
[20:49:27.496547] [25] SYS_STATUS
[20:49:27.618579] [26] BATTERY_STATUS
[20:49:27.619510] [27] EXTENDED_SYS_STATE
[20:49:27.627527] [28] ATTITUDE_TARGET
[20:49:27.632502] [29] VFR_HUD
[20:49:27.635531] [30] SYSTEM_TIME
[20:49:27.658543] [35] RADIO
[20:49:27.661498] [35] RADIO_STATUS
[20:49:28.281598] [31] VFR_HUD
[20:49:28.507652] [32] HEARTBEAT
[20:49:28.620604] [36] RADIO
[20:49:28.623581] [36] RADIO_STATUS
[20:49:29.091627] [33] VFR_HUD
[20:49:29.427704] [34] HEARTBEAT
[20:49:29.449925] [35] ATTITUDE_TARGET
[20:49:29.660723] [37] RADIO
[20:49:29.663722] [37] RADIO_STATUS
[20:49:29.891728] [36] VFR_HUD
[20:49:30.690841] [38] RADIO
[20:49:30.693816] [38] RADIO_STATUS
[20:49:30.728877] [38] VFR_HUD
[20:49:31.508860] [39] HEARTBEAT
[20:49:31.515074] [40] SYS_STATUS
[20:49:31.609835] [39] RADIO
[20:49:31.612827] [39] RADIO_STATUS
[20:49:32.315987] [44] VFR_HUD
[20:49:32.656229] [40] RADIO
[20:49:32.658091] [40] RADIO_STATUS
[20:49:33.111111] [46] VFR_HUD
[20:49:33.470212] [47] HEARTBEAT
[20:49:33.478127] [48] ATTITUDE_TARGET
[20:49:33.680104] [41] RADIO
[20:49:33.683060] [41] RADIO_STATUS
[20:49:34.486280] [50] HEARTBEAT
[20:49:34.830199] [42] RADIO
[20:49:34.833254] [42] RADIO_STATUS
[20:49:35.538414] [52] HEARTBEAT
[20:49:35.544327] [53] SYS_STATUS
[20:49:35.663311] [54] BATTERY_STATUS
[20:49:35.671290] [55] ATTITUDE_TARGET
[20:49:35.701298] [56] VFR_HUD
[20:49:35.729326] [43] RADIO
[20:49:35.732286] [43] RADIO_STATUS
[20:49:36.330452] [57] VFR_HUD
[20:49:36.451440] [58] HEARTBEAT
[20:49:36.669465] [44] RADIO
[20:49:36.672419] [44] RADIO_STATUS
[20:49:37.140480] [59] VFR_HUD
[20:49:37.489692] [60] HEARTBEAT
[20:49:37.496577] [61] ATTITUDE_TARGET
[20:49:37.714564] [45] RADIO
[20:49:37.717531] [45] RADIO_STATUS
[20:49:37.834574] [62] VFR_HUD
[20:49:38.629755] [64] VFR_HUD
[20:49:38.661758] [46] RADIO
[20:49:38.664710] [46] RADIO_STATUS
[20:49:39.452798] [65] HEARTBEAT
[20:49:39.458807] [66] SYS_STATUS
[20:49:39.498854] [67] BATTERY_STATUS
[20:49:39.506810] [68] ATTITUDE_TARGET
[20:49:39.510807] [69] VFR_HUD
[20:49:39.658895] [47] RADIO
[20:49:39.661916] [47] RADIO_STATUS
[20:49:40.594875] [70] VFR_HUD
[20:49:40.597884] [71] HEARTBEAT
[20:49:40.703901] [48] RADIO
[20:49:40.706923] [48] RADIO_STATUS
[20:49:41.054886] [72] VFR_HUD
[20:49:41.523986] [73] HEARTBEAT
[20:49:41.530936] [74] ATTITUDE_TARGET
[20:49:41.728033] [49] RADIO
[20:49:41.730961] [49] RADIO_STATUS
[20:49:41.848994] [75] VFR_HUD
[20:49:42.429117] [76] HEARTBEAT
[20:49:42.658106] [77] VFR_HUD
[20:49:42.878084] [50] RADIO
[20:49:42.880107] [50] RADIO_STATUS
[20:49:43.466242] [78] HEARTBEAT
[20:49:43.473213] [79] SYS_STATUS
[20:49:43.592227] [80] BATTERY_STATUS
[20:49:43.705267] [81] ATTITUDE_TARGET
[20:49:43.710233] [82] VFR_HUD
[20:49:43.715291] [51] RADIO
[20:49:43.718191] [51] RADIO_STATUS
[20:49:44.498521] [84] HEARTBEAT
[20:49:44.717403] [52] RADIO
[20:49:44.720372] [52] RADIO_STATUS
[20:49:45.537493] [86] HEARTBEAT
[20:49:45.544566] [87] ATTITUDE_TARGET
[20:49:45.757490] [53] RADIO
[20:49:45.759459] [53] RADIO_STATUS
[20:49:45.877719] [88] VFR_HUD
[20:49:46.443579] [89] HEARTBEAT
[20:49:46.677671] [90] VFR_HUD
[20:49:46.704569] [54] RADIO
[20:49:46.707594] [54] RADIO_STATUS
[20:49:47.494695] [91] HEARTBEAT
[20:49:47.501664] [92] SYS_STATUS
[20:49:47.622658] [93] BATTERY_STATUS
[20:49:47.624649] [94] EXTENDED_SYS_STATE
[20:49:47.632699] [95] ATTITUDE_TARGET
[20:49:47.637650] [96] VFR_HUD
[20:49:47.640635] [97] SYSTEM_TIME
[20:49:47.706667] [55] RADIO
[20:49:47.708623] [55] RADIO_STATUS
[20:49:48.286727] [98] VFR_HUD
[20:49:48.745772] [56] RADIO
[20:49:48.748696] [56] RADIO_STATUS
[20:49:49.101838] [100] VFR_HUD
[20:49:49.445897] [101] HEARTBEAT
[20:49:49.453822] [102] ATTITUDE_TARGET
[20:49:49.775861] [57] RADIO
[20:49:49.778798] [57] RADIO_STATUS
[20:49:49.896908] [103] VFR_HUD
[20:49:50.472210] [104] HEARTBEAT
[20:49:50.711098] [105] VFR_HUD
[20:49:50.924993] [58] RADIO
[20:49:50.927955] [58] RADIO_STATUS
[20:49:51.513059] [106] HEARTBEAT
[20:49:51.520025] [107] SYS_STATUS
[20:49:51.640096] [108] BATTERY_STATUS
[20:49:51.752085] [109] ATTITUDE_TARGET
[20:49:51.757029] [110] VFR_HUD
[20:49:51.763011] [59] RADIO
[20:49:51.766002] [59] RADIO_STATUS
[20:49:52.425170] [111] VFR_HUD
[20:49:52.432183] [112] HEARTBEAT
[20:49:52.765193] [60] RADIO
[20:49:52.768248] [60] RADIO_STATUS
[20:49:53.584337] [114] HEARTBEAT
[20:49:53.592292] [115] ATTITUDE_TARGET
[20:49:53.804277] [61] RADIO
[20:49:53.807343] [61] RADIO_STATUS
[20:49:53.925378] [116] VFR_HUD
[20:49:54.490388] [117] HEARTBEAT
[20:49:54.725401] [118] VFR_HUD
[20:49:54.752391] [62] RADIO
[20:49:54.755337] [62] RADIO_STATUS
