[20:54:38.478108] [76] HEARTBEAT
[20:54:38.713221] [77] VFR_HUD
[20:54:38.947100] [52] RADIO
[20:54:38.950086] [52] RADIO_STATUS
[20:54:39.535176] [78] HEARTBEAT
[20:54:39.542152] [79] SYS_STATUS
[20:54:39.581411] [80] BATTERY_STATUS
[20:54:39.589220] [81] ATTITUDE_TARGET
[20:54:39.594361] [82] VFR_HUD
[20:54:39.866262] [53] RADIO
[20:54:39.869196] [53] RADIO_STATUS
[20:54:40.453324] [83] VFR_HUD
[20:54:40.455310] [84] HEARTBEAT
[20:54:40.891388] [54] RADIO
[20:54:40.894417] [54] RADIO_STATUS
[20:54:41.017372] [85] VFR_HUD
[20:54:41.481399] [86] HEARTBEAT
[20:54:41.489449] [87] ATTITUDE_TARGET
[20:54:41.821432] [88] VFR_HUD
[20:54:41.936452] [55] RADIO
[20:54:41.939436] [55] RADIO_STATUS
[20:54:42.512546] [89] HEARTBEAT
[20:54:42.621526] [90] VFR_HUD
[20:54:42.960672] [56] RADIO
[20:54:42.963491] [56] RADIO_STATUS
[20:54:43.443646] [91] HEARTBEAT
[20:54:43.450662] [92] SYS_STATUS
[20:54:43.490674] [93] BATTERY_STATUS
[20:54:43.497671] [94] ATTITUDE_TARGET
[20:54:43.502638] [95] VFR_HUD
[20:54:44.005744] [57] RADIO
[20:54:44.008662] [57] RADIO_STATUS
[20:54:44.466744] [96] VFR_HUD
[20:54:44.469686] [97] HEARTBEAT
[20:54:44.925845] [58] RADIO
[20:54:44.928815] [58] RADIO_STATUS
[20:54:45.045861] [98] VFR_HUD
[20:54:45.514988] [99] HEARTBEAT
[20:54:45.522762] [100] ATTITUDE_TARGET
[20:54:45.840964] [101] VFR_HUD
[20:54:45.950639] [59] RADIO
[20:54:45.952842] [59] RADIO_STATUS
[20:54:46.415942] [102] HEARTBEAT
[20:54:46.655103] [103] VFR_HUD
[20:54:46.995049] [60] RADIO
[20:54:46.997942] [60] RADIO_STATUS
[20:54:47.458036] [104] HEARTBEAT
[20:54:47.464036] [105] SYS_STATUS
[20:54:47.587018] [106] BATTERY_STATUS
[20:54:47.588996] [107] EXTENDED_SYS_STATE
[20:54:47.621134] [108] ATTITUDE_TARGET
[20:54:47.626001] [109] VFR_HUD
[20:54:47.629070] [110] SYSTEM_TIME
[20:54:48.019142] [61] RADIO
[20:54:48.022045] [61] RADIO_STATUS
[20:54:48.260145] [111] VFR_HUD
[20:54:48.485288] [112] HEARTBEAT
[20:54:48.939342] [62] RADIO
[20:54:48.942158] [62] RADIO_STATUS
[20:54:49.059259] [113] VFR_HUD
[20:54:49.529278] [114] HEARTBEAT
[20:54:49.536301] [115] ATTITUDE_TARGET
[20:54:49.869413] [116] VFR_HUD
[20:54:49.979366] [63] RADIO
[20:54:49.981322] [63] RADIO_STATUS
[20:54:50.435428] [117] HEARTBEAT
[20:54:50.669394] [118] VFR_HUD
[20:54:51.008487] [64] RADIO
[20:54:51.011836] [64] RADIO_STATUS
[20:54:51.486547] [119] HEARTBEAT
[20:54:51.493823] [120] SYS_STATUS
[20:54:51.612482] [121] BATTERY_STATUS
[20:54:51.620535] [122] ATTITUDE_TARGET
[20:54:51.650614] [123] VFR_HUD
[20:54:52.053632] [65] RADIO
[20:54:52.056641] [65] RADIO_STATUS
[20:54:52.279587] [124] VFR_HUD
[20:54:52.504748] [125] HEARTBEAT
[20:54:52.967705] [66] RADIO
[20:54:52.970695] [66] RADIO_STATUS
[20:54:53.088813] [126] VFR_HUD
[20:54:53.437882] [127] HEARTBEAT
[20:54:53.445745] [128] ATTITUDE_TARGET
[20:54:53.888872] [129] VFR_HUD
[20:54:53.997873] [67] RADIO
[20:54:54.000880] [67] RADIO_STATUS
[20:54:54.463938] [130] HEARTBEAT
[20:54:54.703963] [131] VFR_HUD
[20:54:55.037876] [68] RADIO
[20:54:55.040843] [68] RADIO_STATUS
[20:54:55.505923] [132] HEARTBEAT
[20:54:55.512911] [133] SYS_STATUS
[20:54:55.627005] [134] BATTERY_STATUS
[20:54:55.745035] [135] ATTITUDE_TARGET
[20:54:55.750051] [136] VFR_HUD
[20:54:56.068141] [69] RADIO
[20:54:56.070954] [69] RADIO_STATUS
[20:54:56.313120] [137] VFR_HUD
[20:54:56.425092] [138] HEARTBEAT
[20:54:56.987103] [70] RADIO
[20:54:56.990058] [70] RADIO_STATUS
[20:54:57.108183] [139] VFR_HUD
[20:54:57.467108] [140] HEARTBEAT
[20:54:57.475239] [141] ATTITUDE_TARGET
[20:54:57.923227] [142] VFR_HUD
[20:54:58.038327] [71] RADIO
[20:54:58.041205] [71] RADIO_STATUS
[20:54:58.483349] [143] HEARTBEAT
[20:54:58.717308] [144] VFR_HUD
[20:54:59.056407] [72] RADIO
[20:54:59.059390] [72] RADIO_STATUS
[20:54:59.534964] [145] HEARTBEAT
[20:54:59.541386] [146] SYS_STATUS
[20:54:59.660447] [147] BATTERY_STATUS
[20:54:59.668476] [148] ATTITUDE_TARGET
[20:54:59.698488] [149] VFR_HUD
[20:54:59.981438] [73] RADIO
[20:54:59.984390] [73] RADIO_STATUS
[20:55:00.327451] [150] VFR_HUD
[20:55:00.447448] [151] HEARTBEAT
[20:55:01.016652] [152] VFR_HUD
[20:55:01.044601] [74] RADIO
[20:55:01.046486] [74] RADIO_STATUS
[20:55:01.485760] [153] HEARTBEAT
[20:55:01.493860] [154] ATTITUDE_TARGET
[20:55:01.831629] [155] VFR_HUD
[20:55:02.045793] [75] RADIO
[20:55:02.048698] [75] RADIO_STATUS
[20:55:02.517705] [156] HEARTBEAT
[20:55:02.626659] [157] VFR_HUD
[20:55:03.084775] [76] RADIO
[20:55:03.087651] [76] RADIO_STATUS
[20:55:04.009837] [77] RADIO
[20:55:04.012766] [77] RADIO_STATUS
[20:55:04.470894] [163] VFR_HUD
[20:55:04.473820] [164] HEARTBEAT
[20:55:05.033950] [78] RADIO
[20:55:05.037045] [78] RADIO_STATUS
[20:55:06.184065] [79] RADIO
[20:55:06.187129] [79] RADIO_STATUS
[20:55:06.425070] [169] HEARTBEAT
[20:55:07.104352] [80] RADIO
[20:55:07.107077] [80] RADIO_STATUS
[20:55:07.462119] [171] HEARTBEAT
[20:55:07.469109] [172] SYS_STATUS
[20:55:07.592119] [173] BATTERY_STATUS
[20:55:07.593110] [174] EXTENDED_SYS_STATE
[20:55:07.625134] [175] ATTITUDE_TARGET
[20:55:07.630252] [176] VFR_HUD
[20:55:07.634106] [177] SYSTEM_TIME
[20:55:08.029344] [81] RADIO
[20:55:08.032157] [81] RADIO_STATUS
[20:55:08.264182] [178] VFR_HUD
[20:55:09.075269] [180] VFR_HUD
[20:55:09.096266] [82] RADIO
[20:55:09.099317] [82] RADIO_STATUS
[20:55:09.533391] [181] HEARTBEAT
[20:55:09.541394] [182] ATTITUDE_TARGET
[20:55:09.873335] [183] VFR_HUD
[20:55:10.092467] [83] RADIO
[20:55:10.095457] [83] RADIO_STATUS
[20:55:10.673496] [185] VFR_HUD
[20:55:11.137549] [84] RADIO
[20:55:11.140425] [84] RADIO_STATUS
[20:55:11.490504] [186] HEARTBEAT
[20:55:11.497881] [187] SYS_STATUS
[20:55:12.162770] [85] RADIO
[20:55:12.165572] [85] RADIO_STATUS
[20:55:12.283555] [191] VFR_HUD
[20:55:12.509803] [192] HEARTBEAT
[20:55:13.081659] [86] RADIO
[20:55:13.084639] [86] RADIO_STATUS
[20:55:14.126747] [87] RADIO
[20:55:14.129680] [87] RADIO_STATUS
[20:55:14.467826] [197] HEARTBEAT
[20:55:14.812930] [198] VFR_HUD
[20:55:15.150907] [88] RADIO
[20:55:15.153819] [88] RADIO_STATUS
[20:55:15.636008] [201] BATTERY_STATUS
[20:55:15.747977] [202] ATTITUDE_TARGET
[20:55:15.752931] [203] VFR_HUD
[20:55:16.071008] [89] RADIO
[20:55:16.074081] [89] RADIO_STATUS
[20:55:16.317038] [204] VFR_HUD
[20:55:16.428037] [205] HEARTBEAT
[20:55:17.111169] [206] VFR_HUD
[20:55:17.143110] [90] RADIO
[20:55:17.146222] [90] RADIO_STATUS
[20:55:17.470170] [207] HEARTBEAT
[20:55:17.478122] [208] ATTITUDE_TARGET
[20:55:17.920382] [209] VFR_HUD
[20:55:18.139254] [91] RADIO
[20:55:18.142128] [91] RADIO_STATUS
[20:55:18.720354] [211] VFR_HUD
[20:55:19.185554] [92] RADIO
[20:55:19.187355] [92] RADIO_STATUS
[20:55:19.538340] [212] HEARTBEAT
[20:55:19.544359] [213] SYS_STATUS
[20:55:20.099432] [93] RADIO
[20:55:20.102388] [93] RADIO_STATUS
[20:55:20.225432] [217] VFR_HUD
[20:55:21.020584] [219] VFR_HUD
[20:55:21.129554] [94] RADIO
[20:55:21.132504] [94] RADIO_STATUS
[20:55:21.489584] [220] HEARTBEAT
[20:55:21.496538] [221] ATTITUDE_TARGET
[20:55:21.834595] [222] VFR_HUD
[20:55:22.169836] [95] RADIO
[20:55:22.171607] [95] RADIO_STATUS
[20:55:22.523757] [223] HEARTBEAT
[20:55:22.628915] [224] VFR_HUD
[20:55:23.197840] [96] RADIO
[20:55:23.200810] [96] RADIO_STATUS
[20:55:24.347901] [97] RADIO
[20:55:24.350824] [97] RADIO_STATUS
[20:55:24.427147] [230] VFR_HUD
[20:55:24.429871] [231] HEARTBEAT
[20:55:25.158313] [98] RADIO
[20:55:25.160977] [98] RADIO_STATUS
[20:55:25.523168] [233] HEARTBEAT
[20:55:25.531153] [234] ATTITUDE_TARGET
[20:55:25.860027] [235] VFR_HUD
[20:55:26.188198] [99] RADIO
[20:55:26.191111] [99] RADIO_STATUS
[20:55:26.429151] [236] HEARTBEAT
[20:55:26.658168] [237] VFR_HUD
[20:55:27.337396] [100] RADIO
[20:55:27.340221] [100] RADIO_STATUS
[20:55:28.146467] [101] RADIO
[20:55:28.149379] [101] RADIO_STATUS
[20:55:28.267402] [245] VFR_HUD
[20:55:29.067488] [247] VFR_HUD
[20:55:29.176514] [102] RADIO
[20:55:29.179504] [102] RADIO_STATUS
[20:55:29.431499] [248] HEARTBEAT
[20:55:29.439494] [249] ATTITUDE_TARGET
[20:55:29.877622] [250] VFR_HUD
[20:55:30.325707] [103] RADIO
[20:55:30.328639] [103] RADIO_STATUS
[20:55:30.451666] [251] HEARTBEAT
[20:55:30.676604] [252] VFR_HUD
[20:55:31.244755] [104] RADIO
[20:55:31.247756] [104] RADIO_STATUS
[20:55:32.164834] [105] RADIO
[20:55:32.167814] [105] RADIO_STATUS
[20:55:32.233840] [255] BATTERY_STATUS
[20:55:32.241809] [0] ATTITUDE_TARGET
[20:55:32.248684] [1] VFR_HUD
[20:55:32.250848] [2] VFR_HUD
[20:55:32.509878] [3] HEARTBEAT
[20:55:33.204157] [4] VFR_HUD
[20:55:33.214983] [106] RADIO
[20:55:33.217962] [106] RADIO_STATUS
[20:55:33.568009] [5] HEARTBEAT
[20:55:33.575970] [6] ATTITUDE_TARGET
[20:55:33.893979] [7] VFR_HUD
[20:55:34.233082] [107] RADIO
[20:55:34.236013] [107] RADIO_STATUS
[20:55:34.478105] [8] HEARTBEAT
[20:55:34.709130] [9] VFR_HUD
[20:55:35.382178] [108] RADIO
[20:55:35.385268] [108] RADIO_STATUS
[20:55:35.637224] [12] BATTERY_STATUS
[20:55:35.869275] [13] ATTITUDE_TARGET
[20:55:35.873234] [14] VFR_HUD
[20:55:36.197309] [109] RADIO
[20:55:36.200222] [109] RADIO_STATUS
[20:55:36.313773] [15] VFR_HUD
[20:55:36.418335] [16] HEARTBEAT
[20:55:37.112352] [17] VFR_HUD
[20:55:37.221390] [110] RADIO
[20:55:37.223312] [110] RADIO_STATUS
[20:55:37.470407] [18] HEARTBEAT
[20:55:37.478424] [19] ATTITUDE_TARGET
[20:55:37.921503] [20] VFR_HUD
[20:55:38.370577] [111] RADIO
[20:55:38.373571] [111] RADIO_STATUS
[20:55:38.486510] [21] HEARTBEAT
[20:55:38.616540] [22] VFR_HUD
[20:55:39.289605] [112] RADIO
[20:55:39.292622] [112] RADIO_STATUS
[20:55:39.663693] [25] BATTERY_STATUS
[20:55:39.671644] [26] ATTITUDE_TARGET
[20:55:40.208751] [113] RADIO
[20:55:40.211676] [113] RADIO_STATUS
[20:55:40.246731] [28] VFR_HUD
[20:55:40.444781] [29] HEARTBEAT
[20:55:41.252881] [114] RADIO
[20:55:41.255833] [114] RADIO_STATUS
[20:55:41.606925] [31] HEARTBEAT
[20:55:41.614871] [32] ATTITUDE_TARGET
[20:55:41.937978] [33] VFR_HUD
[20:55:42.276988] [115] RADIO
[20:55:42.279992] [115] RADIO_STATUS
[20:55:42.513176] [34] HEARTBEAT
[20:55:43.322148] [116] RADIO
[20:55:43.325075] [116] RADIO_STATUS
[20:55:43.570204] [38] BATTERY_STATUS
[20:55:43.578278] [39] ATTITUDE_TARGET
[20:55:43.608115] [40] VFR_HUD
[20:55:44.237223] [41] VFR_HUD
[20:55:44.269295] [117] RADIO
[20:55:44.272234] [117] RADIO_STATUS
[20:55:44.471260] [42] HEARTBEAT
[20:55:45.046515] [43] VFR_HUD
[20:55:45.265333] [118] RADIO
[20:55:45.268327] [118] RADIO_STATUS
[20:55:45.515387] [44] HEARTBEAT
[20:55:45.523405] [45] ATTITUDE_TARGET
[20:55:45.846420] [46] VFR_HUD
[20:55:46.310673] [119] RADIO
[20:55:46.313442] [119] RADIO_STATUS
[20:55:46.656545] [48] VFR_HUD
[20:55:47.335600] [120] RADIO
[20:55:47.338532] [120] RADIO_STATUS
[20:55:47.463589] [49] HEARTBEAT
[20:55:47.470598] [50] SYS_STATUS
[20:55:47.709654] [53] ATTITUDE_TARGET
[20:55:47.714553] [54] VFR_HUD
[20:55:47.717580] [55] SYSTEM_TIME
[20:55:48.257579] [121] RADIO
[20:55:48.258653] [121] RADIO_STATUS
[20:55:48.506755] [57] HEARTBEAT
[20:55:49.295864] [122] RADIO
[20:55:49.298786] [122] RADIO_STATUS
[20:55:49.985901] [61] VFR_HUD
[20:55:50.324993] [123] RADIO
[20:55:50.328046] [123] RADIO_STATUS
[20:55:50.441910] [62] HEARTBEAT
[20:55:51.245025] [124] RADIO
[20:55:51.247943] [124] RADIO_STATUS
[20:55:52.285180] [125] RADIO
[20:55:52.288077] [125] RADIO_STATUS
[20:55:52.521206] [69] VFR_HUD
[20:55:52.524147] [70] HEARTBEAT
[20:55:53.205253] [71] VFR_HUD
[20:55:53.314352] [126] RADIO
[20:55:53.317224] [126] RADIO_STATUS
[20:55:53.445343] [72] HEARTBEAT
[20:55:53.452288] [73] ATTITUDE_TARGET
[20:55:53.895446] [74] VFR_HUD
[20:55:54.354450] [127] RADIO
[20:55:54.357365] [127] RADIO_STATUS
[20:55:54.704474] [76] VFR_HUD
[20:55:55.383574] [128] RADIO
[20:55:55.386502] [128] RADIO_STATUS
[20:55:55.751740] [80] ATTITUDE_TARGET
[20:55:55.756542] [81] VFR_HUD
[20:55:56.303673] [129] RADIO
[20:55:56.306637] [129] RADIO_STATUS
[20:55:57.125753] [84] VFR_HUD
[20:55:57.342816] [130] RADIO
[20:55:57.345717] [130] RADIO_STATUS
[20:55:57.472800] [85] HEARTBEAT
[20:55:57.480819] [86] ATTITUDE_TARGET
[20:55:58.372941] [131] RADIO
[20:55:58.375902] [131] RADIO_STATUS
[20:55:58.489373] [88] HEARTBEAT
[20:55:59.293077] [132] RADIO
[20:55:59.296053] [132] RADIO_STATUS
[20:55:59.409317] [90] HEARTBEAT
[20:55:59.429162] [91] SYS_STATUS
[20:55:59.660244] [93] ATTITUDE_TARGET
[20:55:59.665141] [94] VFR_HUD
[20:56:00.441252] [133] RADIO
[20:56:00.444199] [133] RADIO_STATUS
[20:56:00.557282] [96] HEARTBEAT
[20:56:01.360400] [134] RADIO
[20:56:01.363317] [134] RADIO_STATUS
[20:56:01.490420] [98] HEARTBEAT
[20:56:01.498343] [99] ATTITUDE_TARGET
[20:56:02.510516] [135] RADIO
[20:56:02.513532] [135] RADIO_STATUS
[20:56:02.635518] [101] HEARTBEAT
[20:56:02.639443] [102] VFR_HUD
[20:56:03.430574] [136] RADIO
[20:56:03.433483] [136] RADIO_STATUS
[20:56:03.558732] [103] HEARTBEAT
[20:56:03.565633] [104] SYS_STATUS
[20:56:04.240715] [108] VFR_HUD
[20:56:04.350695] [137] RADIO
[20:56:04.353595] [137] RADIO_STATUS
[20:56:05.051874] [110] VFR_HUD
[20:56:05.500783] [138] RADIO
[20:56:05.503709] [138] RADIO_STATUS
[20:56:05.754809] [111] HEARTBEAT
[20:56:05.762769] [112] ATTITUDE_TARGET
[20:56:05.850756] [113] VFR_HUD
[20:56:06.419843] [139] RADIO
[20:56:06.422751] [139] RADIO_STATUS
[20:56:06.536890] [114] HEARTBEAT
[20:56:06.660871] [115] VFR_HUD
[20:56:07.339985] [140] RADIO
[20:56:07.342845] [140] RADIO_STATUS
[20:56:07.714092] [120] ATTITUDE_TARGET
[20:56:07.718950] [121] VFR_HUD
[20:56:07.721951] [122] SYSTEM_TIME
[20:56:08.379024] [123] VFR_HUD
[20:56:08.395058] [141] RADIO
[20:56:08.398027] [141] RADIO_STATUS
[20:56:08.494217] [124] HEARTBEAT
[20:56:09.408221] [142] RADIO
[20:56:09.411135] [142] RADIO_STATUS
[20:56:09.988359] [128] VFR_HUD
[20:56:10.327345] [143] RADIO
[20:56:10.330308] [143] RADIO_STATUS
[20:56:10.443366] [129] HEARTBEAT
[20:56:10.689359] [130] VFR_HUD
[20:56:11.476480] [144] RADIO
[20:56:11.479387] [144] RADIO_STATUS
[20:56:11.535498] [131] HEARTBEAT
[20:56:11.542405] [132] SYS_STATUS
[20:56:11.550445] [133] BATTERY_STATUS
[20:56:11.562391] [134] ATTITUDE_TARGET
[20:56:11.567401] [135] VFR_HUD
[20:56:12.286497] [136] VFR_HUD
[20:56:12.396543] [145] RADIO
[20:56:12.398639] [145] RADIO_STATUS
[20:56:12.430544] [137] HEARTBEAT
[20:56:13.096567] [138] VFR_HUD
[20:56:13.444675] [139] HEARTBEAT
[20:56:13.452605] [140] ATTITUDE_TARGET
[20:56:13.544646] [146] RADIO
[20:56:13.546565] [146] RADIO_STATUS
[20:56:13.894667] [141] VFR_HUD
[20:56:14.353822] [147] RADIO
[20:56:14.356894] [147] RADIO_STATUS
[20:56:14.704818] [143] VFR_HUD
[20:56:15.383859] [148] RADIO
[20:56:15.386833] [148] RADIO_STATUS
[20:56:15.429903] [144] HEARTBEAT
[20:56:15.436834] [145] SYS_STATUS
[20:56:16.430079] [149] VFR_HUD
[20:56:16.432980] [150] HEARTBEAT
[20:56:16.534047] [149] RADIO
[20:56:16.536954] [149] RADIO_STATUS
[20:56:17.454171] [150] RADIO
[20:56:17.458020] [150] RADIO_STATUS
[20:56:18.034189] [154] VFR_HUD
[20:56:18.373282] [151] RADIO
[20:56:18.376172] [151] RADIO_STATUS
[20:56:18.489252] [155] HEARTBEAT
[20:56:18.723350] [156] VFR_HUD
[20:56:19.522391] [152] RADIO
[20:56:19.525352] [152] RADIO_STATUS
[20:56:19.592409] [159] BATTERY_STATUS
[20:56:19.600382] [160] ATTITUDE_TARGET
[20:56:19.605351] [161] VFR_HUD
[20:56:20.444521] [153] RADIO
[20:56:20.446458] [153] RADIO_STATUS
[20:56:20.695544] [162] VFR_HUD
[20:56:20.698494] [163] HEARTBEAT
[20:56:21.035569] [164] VFR_HUD
[20:56:21.593673] [154] RADIO
[20:56:21.596591] [154] RADIO_STATUS
[20:56:21.834733] [167] VFR_HUD
[20:56:22.403765] [155] RADIO
[20:56:22.406733] [155] RADIO_STATUS
[20:56:22.645916] [169] VFR_HUD
[20:56:23.432900] [156] RADIO
[20:56:23.435817] [156] RADIO_STATUS
[20:56:23.799904] [173] ATTITUDE_TARGET
[20:56:23.804851] [174] VFR_HUD
[20:56:24.242061] [175] VFR_HUD
[20:56:24.476028] [176] HEARTBEAT
[20:56:24.581124] [157] RADIO
[20:56:24.583928] [157] RADIO_STATUS
[20:56:25.051005] [177] VFR_HUD
[20:56:25.391062] [158] RADIO
[20:56:25.393025] [158] RADIO_STATUS
[20:56:25.630099] [178] HEARTBEAT
[20:56:25.638110] [179] ATTITUDE_TARGET
[20:56:25.863079] [180] VFR_HUD
[20:56:26.420240] [159] RADIO
[20:56:26.423155] [159] RADIO_STATUS
[20:56:26.537214] [181] HEARTBEAT
[20:56:26.771226] [182] VFR_HUD
[20:56:27.569317] [160] RADIO
[20:56:27.572308] [160] RADIO_STATUS
[20:56:27.610834] [185] BATTERY_STATUS
[20:56:28.489446] [161] RADIO
[20:56:28.492416] [161] RADIO_STATUS
[20:56:28.740558] [190] VFR_HUD
[20:56:28.743518] [191] HEARTBEAT
[20:56:29.070519] [192] VFR_HUD
[20:56:29.408591] [162] RADIO
[20:56:29.412721] [162] RADIO_STATUS
[20:56:29.538612] [193] HEARTBEAT
[20:56:29.545604] [194] ATTITUDE_TARGET
[20:56:29.883578] [195] VFR_HUD
[20:56:30.444885] [196] HEARTBEAT
[20:56:30.557794] [163] RADIO
[20:56:30.560632] [163] RADIO_STATUS
[20:56:30.678705] [197] VFR_HUD
[20:56:31.477935] [164] RADIO
[20:56:31.481047] [164] RADIO_STATUS
[20:56:31.605817] [198] HEARTBEAT
[20:56:31.612858] [199] SYS_STATUS
[20:56:31.844892] [201] ATTITUDE_TARGET
[20:56:31.849828] [202] VFR_HUD
[20:56:32.286901] [203] VFR_HUD
[20:56:32.515037] [165] RADIO
[20:56:32.518046] [165] RADIO_STATUS
[20:56:33.096063] [205] VFR_HUD
[20:56:33.444184] [206] HEARTBEAT
[20:56:33.452076] [207] ATTITUDE_TARGET
[20:56:33.462133] [166] RADIO
[20:56:33.465162] [166] RADIO_STATUS
[20:56:33.895142] [208] VFR_HUD
[20:56:34.464178] [167] RADIO
[20:56:34.467146] [167] RADIO_STATUS
[20:56:34.498250] [209] HEARTBEAT
[20:56:34.704283] [210] VFR_HUD
[20:56:35.512441] [211] HEARTBEAT
[20:56:35.518434] [212] SYS_STATUS
[20:56:35.531345] [168] RADIO
[20:56:35.534369] [168] RADIO_STATUS
[20:56:35.633297] [213] BATTERY_STATUS
[20:56:35.751366] [214] ATTITUDE_TARGET
[20:56:35.756334] [215] VFR_HUD
[20:56:36.314396] [216] VFR_HUD
[20:56:36.419424] [217] HEARTBEAT
[20:56:36.451432] [169] RADIO
[20:56:36.454378] [169] RADIO_STATUS
[20:56:37.009539] [218] VFR_HUD
[20:56:37.453578] [170] RADIO
[20:56:37.456531] [170] RADIO_STATUS
[20:56:37.501582] [219] HEARTBEAT
[20:56:37.508549] [220] ATTITUDE_TARGET
[20:56:37.928827] [221] VFR_HUD
[20:56:38.489725] [222] HEARTBEAT
[20:56:38.520682] [171] RADIO
[20:56:38.523670] [171] RADIO_STATUS
[20:56:38.723720] [223] VFR_HUD
[20:56:39.422388] [224] HEARTBEAT
[20:56:39.427815] [225] SYS_STATUS
[20:56:39.522876] [172] RADIO
[20:56:39.525917] [172] RADIO_STATUS
[20:56:39.592839] [226] BATTERY_STATUS
[20:56:39.599851] [227] ATTITUDE_TARGET
[20:56:39.605030] [228] VFR_HUD
[20:56:40.442921] [173] RADIO
[20:56:40.445877] [173] RADIO_STATUS
[20:56:40.486897] [229] VFR_HUD
[20:56:40.489876] [230] HEARTBEAT
[20:56:41.022952] [231] VFR_HUD
[20:56:41.492063] [232] HEARTBEAT
[20:56:41.500131] [233] ATTITUDE_TARGET
[20:56:41.592070] [174] RADIO
[20:56:41.595017] [174] RADIO_STATUS
[20:56:41.833037] [234] VFR_HUD
[20:56:42.512228] [175] RADIO
[20:56:42.515093] [175] RADIO_STATUS
[20:56:42.546182] [235] HEARTBEAT
[20:56:42.633184] [236] VFR_HUD
[20:56:43.450326] [237] HEARTBEAT
[20:56:43.457283] [238] SYS_STATUS
[20:56:43.575341] [239] BATTERY_STATUS
[20:56:43.583232] [240] ATTITUDE_TARGET
[20:56:43.613235] [241] VFR_HUD
[20:56:43.641355] [176] RADIO
[20:56:43.644208] [176] RADIO_STATUS
[20:56:44.242428] [242] VFR_HUD
[20:56:44.468408] [243] HEARTBEAT
[20:56:44.581435] [177] RADIO
[20:56:44.584312] [177] RADIO_STATUS
[20:56:45.057588] [244] VFR_HUD
[20:56:45.501623] [178] RADIO
[20:56:45.504495] [178] RADIO_STATUS
[20:56:45.549590] [245] HEARTBEAT
[20:56:45.556530] [246] ATTITUDE_TARGET
[20:56:45.851563] [247] VFR_HUD
[20:56:46.427644] [248] HEARTBEAT
[20:56:46.540638] [179] RADIO
[20:56:46.543614] [179] RADIO_STATUS
[20:56:46.666690] [249] VFR_HUD
[20:56:47.469935] [250] HEARTBEAT
[20:56:47.475777] [251] SYS_STATUS
[20:56:47.570814] [180] RADIO
[20:56:47.573771] [180] RADIO_STATUS
[20:56:47.634880] [252] BATTERY_STATUS
[20:56:47.636891] [253] EXTENDED_SYS_STATE
[20:56:47.645930] [254] ATTITUDE_TARGET
[20:56:47.649854] [255] VFR_HUD
[20:56:47.652742] [0] SYSTEM_TIME
[20:56:48.277150] [1] VFR_HUD
[20:56:48.490890] [181] RADIO
[20:56:48.494151] [181] RADIO_STATUS
[20:56:48.606975] [2] HEARTBEAT
[20:56:49.071088] [3] VFR_HUD
[20:56:49.430076] [4] HEARTBEAT
[20:56:49.438017] [5] ATTITUDE_TARGET
[20:56:49.640039] [182] RADIO
[20:56:49.643178] [182] RADIO_STATUS
[20:56:49.881099] [6] VFR_HUD
[20:56:50.446354] [7] HEARTBEAT
[20:56:50.560349] [183] RADIO
[20:56:50.563110] [183] RADIO_STATUS
[20:56:50.680379] [8] VFR_HUD
[20:56:51.498327] [9] HEARTBEAT
[20:56:51.504487] [10] SYS_STATUS
[20:56:51.623208] [11] BATTERY_STATUS
[20:56:51.631453] [12] ATTITUDE_TARGET
[20:56:51.661349] [13] VFR_HUD
[20:56:51.683273] [184] RADIO
[20:56:51.686168] [184] RADIO_STATUS
[20:56:52.290335] [14] VFR_HUD
[20:56:52.405346] [15] HEARTBEAT
[20:56:52.519339] [185] RADIO
[20:56:52.522246] [185] RADIO_STATUS
[20:56:53.100424] [16] VFR_HUD
[20:56:53.449418] [17] HEARTBEAT
[20:56:53.457390] [18] ATTITUDE_TARGET
[20:56:53.549397] [186] RADIO
[20:56:53.552423] [186] RADIO_STATUS
[20:56:53.899436] [19] VFR_HUD
[20:56:54.475577] [20] HEARTBEAT
[20:56:54.588608] [187] RADIO
[20:56:54.591739] [187] RADIO_STATUS
[20:56:54.709823] [21] VFR_HUD
[20:56:55.517715] [22] HEARTBEAT
[20:56:55.523649] [23] SYS_STATUS
[20:56:55.536724] [188] RADIO
[20:56:55.539593] [188] RADIO_STATUS
[20:56:55.638643] [24] BATTERY_STATUS
[20:56:55.756754] [25] ATTITUDE_TARGET
[20:56:55.760747] [26] VFR_HUD
[20:56:56.324772] [27] VFR_HUD
[20:56:56.436770] [28] HEARTBEAT
[20:56:56.538842] [189] RADIO
[20:56:56.541736] [189] RADIO_STATUS
[20:56:57.008823] [29] VFR_HUD
[20:56:57.484024] [30] HEARTBEAT
[20:56:57.491874] [31] ATTITUDE_TARGET
[20:56:57.583978] [190] RADIO
[20:56:57.586995] [190] RADIO_STATUS
[20:56:57.934060] [32] VFR_HUD
[20:56:58.495148] [33] HEARTBEAT
[20:56:58.608090] [191] RADIO
[20:56:58.611115] [191] RADIO_STATUS
[20:56:58.729020] [34] VFR_HUD
[20:56:59.426204] [35] HEARTBEAT
[20:56:59.433110] [36] SYS_STATUS
[20:56:59.553163] [37] BATTERY_STATUS
[20:56:59.665119] [38] ATTITUDE_TARGET
[20:56:59.670165] [39] VFR_HUD
[20:56:59.678049] [192] RADIO
[20:56:59.679300] [192] RADIO_STATUS
[20:57:00.228199] [40] VFR_HUD
[20:57:00.459269] [41] HEARTBEAT
[20:57:00.573323] [193] RADIO
[20:57:00.576235] [193] RADIO_STATUS
[20:57:01.028276] [42] VFR_HUD
[20:57:01.497438] [43] HEARTBEAT
[20:57:01.505330] [44] ATTITUDE_TARGET
[20:57:01.597522] [194] RADIO
[20:57:01.600319] [194] RADIO_STATUS
[20:57:01.838372] [45] VFR_HUD
[20:57:02.403565] [46] HEARTBEAT
[20:57:02.638468] [47] VFR_HUD
[20:57:02.670620] [195] RADIO
[20:57:02.673420] [195] RADIO_STATUS
[20:57:03.460644] [48] HEARTBEAT
[20:57:03.467597] [49] SYS_STATUS
[20:57:03.506702] [50] BATTERY_STATUS
[20:57:03.514680] [51] ATTITUDE_TARGET
[20:57:03.519690] [52] VFR_HUD
[20:57:03.562737] [196] RADIO
[20:57:03.565530] [196] RADIO_STATUS
[20:57:04.483915] [53] VFR_HUD
[20:57:04.486785] [54] HEARTBEAT
[20:57:04.589934] [197] RADIO
[20:57:04.590070] [197] RADIO_STATUS
[20:57:05.063042] [55] VFR_HUD
[20:57:05.531837] [56] HEARTBEAT
[20:57:05.539841] [57] ATTITUDE_TARGET
[20:57:05.631980] [198] RADIO
[20:57:05.634759] [198] RADIO_STATUS
[20:57:05.856920] [58] VFR_HUD
[20:57:06.433074] [59] HEARTBEAT
[20:57:06.657168] [199] RADIO
[20:57:06.660047] [199] RADIO_STATUS
[20:57:06.695028] [60] VFR_HUD
[20:57:07.475245] [61] HEARTBEAT
[20:57:07.481051] [62] SYS_STATUS
[20:57:07.581226] [200] RADIO
[20:57:07.584174] [200] RADIO_STATUS
[20:57:07.641122] [63] BATTERY_STATUS
[20:57:07.642050] [64] EXTENDED_SYS_STATE
[20:57:07.650074] [65] ATTITUDE_TARGET
[20:57:07.655060] [66] VFR_HUD
[20:57:07.658089] [67] SYSTEM_TIME
[20:57:08.277228] [68] VFR_HUD
[20:57:08.502216] [69] HEARTBEAT
[20:57:08.616226] [201] RADIO
[20:57:08.619127] [201] RADIO_STATUS
[20:57:09.076258] [70] VFR_HUD
[20:57:09.435449] [71] HEARTBEAT
[20:57:09.443790] [72] ATTITUDE_TARGET
[20:57:09.645539] [202] RADIO
[20:57:09.648319] [202] RADIO_STATUS
[20:57:09.886336] [73] VFR_HUD
[20:57:10.451426] [74] HEARTBEAT
[20:57:10.686561] [75] VFR_HUD
[20:57:10.713573] [203] RADIO
[20:57:10.716417] [203] RADIO_STATUS
[20:57:11.503655] [76] HEARTBEAT
[20:57:11.509546] [77] SYS_STATUS
[20:57:11.628561] [78] BATTERY_STATUS
[20:57:11.636518] [79] ATTITUDE_TARGET
[20:57:11.666560] [80] VFR_HUD
[20:57:11.688615] [204] RADIO
[20:57:11.691524] [204] RADIO_STATUS
[20:57:12.295658] [81] VFR_HUD
[20:57:12.410741] [82] HEARTBEAT
[20:57:12.634773] [205] RADIO
[20:57:12.637727] [205] RADIO_STATUS
[20:57:13.105768] [83] VFR_HUD
[20:57:13.454837] [84] HEARTBEAT
[20:57:13.462911] [85] ATTITUDE_TARGET
[20:57:13.675263] [206] RADIO
[20:57:13.677834] [206] RADIO_STATUS
[20:57:13.904944] [86] VFR_HUD
[20:57:14.480962] [87] HEARTBEAT
[20:57:14.703957] [207] RADIO
[20:57:14.706839] [207] RADIO_STATUS
[20:57:14.742995] [88] VFR_HUD
[20:57:15.523078] [89] HEARTBEAT
[20:57:15.529211] [90] SYS_STATUS
[20:57:15.624134] [208] RADIO
[20:57:15.627008] [208] RADIO_STATUS
[20:57:15.665054] [91] BATTERY_STATUS
[20:57:15.692079] [92] ATTITUDE_TARGET
[20:57:15.697165] [93] VFR_HUD
[20:57:16.330113] [94] VFR_HUD
[20:57:16.442135] [95] HEARTBEAT
[20:57:16.664224] [209] RADIO
[20:57:16.667120] [209] RADIO_STATUS
[20:57:17.124257] [96] VFR_HUD
[20:57:17.484342] [97] HEARTBEAT
[20:57:17.491267] [98] ATTITUDE_TARGET
[20:57:17.694354] [210] RADIO
[20:57:17.696226] [210] RADIO_STATUS
[20:57:17.814347] [99] VFR_HUD
[20:57:18.500460] [100] HEARTBEAT
[20:57:18.624442] [101] VFR_HUD
[20:57:18.733605] [211] RADIO
[20:57:18.736420] [211] RADIO_STATUS
[20:57:19.431585] [102] HEARTBEAT
[20:57:19.438650] [103] SYS_STATUS
[20:57:19.553547] [104] BATTERY_STATUS
[20:57:19.670602] [105] ATTITUDE_TARGET
[20:57:19.675529] [106] VFR_HUD
[20:57:19.681669] [212] RADIO
[20:57:19.684595] [212] RADIO_STATUS
[20:57:20.234625] [107] VFR_HUD
[20:57:20.464795] [108] HEARTBEAT
[20:57:20.683854] [213] RADIO
[20:57:20.686721] [213] RADIO_STATUS
[20:57:21.033669] [109] VFR_HUD
[20:57:21.502753] [110] HEARTBEAT
[20:57:21.510733] [111] ATTITUDE_TARGET
[20:57:21.722795] [214] RADIO
[20:57:21.725728] [214] RADIO_STATUS
[20:57:21.848888] [112] VFR_HUD
[20:57:22.409873] [113] HEARTBEAT
[20:57:22.643894] [114] VFR_HUD
[20:57:22.676029] [215] RADIO
[20:57:22.678964] [215] RADIO_STATUS
[20:57:23.467063] [115] HEARTBEAT
[20:57:23.473217] [116] SYS_STATUS
[20:57:23.513121] [117] BATTERY_STATUS
[20:57:23.521892] [118] ATTITUDE_TARGET
[20:57:23.525000] [119] VFR_HUD
[20:57:23.673251] [216] RADIO
[20:57:23.675980] [216] RADIO_STATUS
[20:57:24.489092] [120] VFR_HUD
[20:57:24.492037] [121] HEARTBEAT
[20:57:24.717252] [217] RADIO
[20:57:24.721896] [217] RADIO_STATUS
[20:57:25.068135] [122] VFR_HUD
[20:57:25.537268] [123] HEARTBEAT
[20:57:25.548823] [124] ATTITUDE_TARGET
[20:57:25.742228] [218] RADIO
[20:57:25.745352] [218] RADIO_STATUS
[20:57:25.863432] [125] VFR_HUD
[20:57:26.443593] [126] HEARTBEAT
[20:57:26.672343] [127] VFR_HUD
[20:57:26.787408] [219] RADIO
[20:57:26.789402] [219] RADIO_STATUS
[20:57:27.479497] [128] HEARTBEAT
[20:57:27.486432] [129] SYS_STATUS
[20:57:27.609435] [130] BATTERY_STATUS
[20:57:27.611377] [131] EXTENDED_SYS_STATE
[20:57:27.643499] [132] ATTITUDE_TARGET
[20:57:27.648413] [133] VFR_HUD
[20:57:27.651386] [134] SYSTEM_TIME
[20:57:27.706483] [220] RADIO
[20:57:27.709439] [220] RADIO_STATUS
[20:57:28.281649] [135] VFR_HUD
[20:57:28.512618] [136] HEARTBEAT
[20:57:28.730635] [221] RADIO
[20:57:28.733622] [221] RADIO_STATUS
[20:57:29.081700] [137] VFR_HUD
[20:57:29.440818] [138] HEARTBEAT
[20:57:29.448767] [139] ATTITUDE_TARGET
[20:57:29.775947] [222] RADIO
[20:57:29.778796] [222] RADIO_STATUS
[20:57:29.891868] [140] VFR_HUD
[20:57:30.456886] [141] HEARTBEAT
[20:57:30.690889] [142] VFR_HUD
[20:57:30.723937] [223] RADIO
[20:57:30.725905] [223] RADIO_STATUS
[20:57:31.509073] [143] HEARTBEAT
[20:57:31.514959] [144] SYS_STATUS
[20:57:31.634079] [145] BATTERY_STATUS
[20:57:31.642012] [146] ATTITUDE_TARGET
[20:57:31.672047] [147] VFR_HUD
[20:57:31.720111] [224] RADIO
[20:57:31.723037] [224] RADIO_STATUS
[20:57:32.301083] [148] VFR_HUD
[20:57:32.416113] [149] HEARTBEAT
[20:57:32.765204] [225] RADIO
[20:57:32.768187] [225] RADIO_STATUS
[20:57:33.116262] [150] VFR_HUD
[20:57:33.460313] [151] HEARTBEAT
[20:57:33.467354] [152] ATTITUDE_TARGET
[20:57:33.790351] [226] RADIO
[20:57:33.793280] [226] RADIO_STATUS
[20:57:33.828278] [153] VFR_HUD
[20:57:34.486493] [154] HEARTBEAT
[20:57:34.725398] [155] VFR_HUD
[20:57:34.846496] [227] RADIO
[20:57:34.849458] [227] RADIO_STATUS
[20:57:35.405575] [156] HEARTBEAT
[20:57:35.425537] [157] SYS_STATUS
[20:57:35.469571] [158] BATTERY_STATUS
[20:57:35.477787] [159] ATTITUDE_TARGET
[20:57:35.481551] [160] VFR_HUD
[20:57:35.749610] [228] RADIO
[20:57:35.752496] [228] RADIO_STATUS
[20:57:36.445893] [161] VFR_HUD
[20:57:36.448959] [162] HEARTBEAT
[20:57:36.779780] [229] RADIO
[20:57:36.782676] [229] RADIO_STATUS
[20:57:37.019722] [163] VFR_HUD
[20:57:37.488778] [164] HEARTBEAT
[20:57:37.496845] [165] ATTITUDE_TARGET
[20:57:37.819758] [166] VFR_HUD
[20:57:37.851852] [230] RADIO
[20:57:37.854716] [230] RADIO_STATUS
[20:57:38.504977] [167] HEARTBEAT
[20:57:38.629891] [168] VFR_HUD
[20:57:38.738944] [231] RADIO
[20:57:38.741818] [231] RADIO_STATUS
[20:57:39.437168] [169] HEARTBEAT
[20:57:39.444058] [170] SYS_STATUS
[20:57:39.558056] [171] BATTERY_STATUS
[20:57:39.676139] [172] ATTITUDE_TARGET
[20:57:39.681091] [173] VFR_HUD
[20:57:39.768072] [232] RADIO
[20:57:39.771106] [232] RADIO_STATUS
[20:57:40.244086] [174] VFR_HUD
[20:57:40.464125] [175] HEARTBEAT
[20:57:40.808140] [233] RADIO
[20:57:40.813005] [233] RADIO_STATUS
[20:57:41.039237] [176] VFR_HUD
[20:57:41.508339] [177] HEARTBEAT
[20:57:41.516188] [178] ATTITUDE_TARGET
[20:57:41.838282] [234] RADIO
[20:57:41.841224] [234] RADIO_STATUS
[20:57:41.876244] [179] VFR_HUD
[20:57:42.414379] [180] HEARTBEAT
[20:57:42.648392] [181] VFR_HUD
[20:57:42.757403] [235] RADIO
[20:57:42.760316] [235] RADIO_STATUS
[20:57:43.471561] [182] HEARTBEAT
[20:57:43.477436] [183] SYS_STATUS
[20:57:43.517480] [184] BATTERY_STATUS
[20:57:43.525435] [185] ATTITUDE_TARGET
[20:57:43.530443] [186] VFR_HUD
[20:57:43.797508] [236] RADIO
[20:57:43.800424] [236] RADIO_STATUS
[20:57:44.493532] [187] VFR_HUD
[20:57:44.496911] [188] HEARTBEAT
[20:57:44.827816] [237] RADIO
[20:57:44.830576] [237] RADIO_STATUS
[20:57:45.067634] [189] VFR_HUD
[20:57:45.403666] [190] HEARTBEAT
[20:57:45.426688] [191] ATTITUDE_TARGET
[20:57:45.867758] [192] VFR_HUD
[20:57:45.894903] [238] RADIO
[20:57:45.897772] [238] RADIO_STATUS
[20:57:46.448898] [193] HEARTBEAT
[20:57:46.677845] [194] VFR_HUD
[20:57:46.786906] [239] RADIO
[20:57:46.789931] [239] RADIO_STATUS
[20:57:47.484999] [195] HEARTBEAT
[20:57:47.491974] [196] SYS_STATUS
[20:57:47.614991] [197] BATTERY_STATUS
[20:57:47.616943] [198] EXTENDED_SYS_STATE
[20:57:47.648912] [199] ATTITUDE_TARGET
[20:57:47.654017] [200] VFR_HUD
[20:57:47.656925] [201] SYSTEM_TIME
[20:57:47.816969] [240] RADIO
[20:57:47.820138] [240] RADIO_STATUS
[20:57:48.287193] [202] VFR_HUD
[20:57:48.518170] [203] HEARTBEAT
[20:57:48.856246] [241] RADIO
[20:57:48.859014] [241] RADIO_STATUS
[20:57:49.087044] [204] VFR_HUD
[20:57:49.451147] [205] HEARTBEAT
[20:57:49.459118] [206] ATTITUDE_TARGET
[20:57:49.886226] [242] RADIO
[20:57:49.889071] [242] RADIO_STATUS
[20:57:50.018167] [207] VFR_HUD
[20:57:50.462232] [208] HEARTBEAT
[20:57:50.697391] [209] VFR_HUD
[20:57:50.806272] [243] RADIO
[20:57:50.809233] [243] RADIO_STATUS
[20:57:51.519382] [210] HEARTBEAT
[20:57:51.526456] [211] SYS_STATUS
[20:57:51.565472] [212] BATTERY_STATUS
[20:57:51.573425] [213] ATTITUDE_TARGET
[20:57:51.578367] [214] VFR_HUD
[20:57:51.851432] [244] RADIO
[20:57:51.854366] [244] RADIO_STATUS
[20:57:52.432519] [215] VFR_HUD
[20:57:52.435473] [216] HEARTBEAT
[20:57:52.875648] [245] RADIO
[20:57:52.878505] [245] RADIO_STATUS
[20:57:53.121565] [217] VFR_HUD
[20:57:53.465598] [218] HEARTBEAT
[20:57:53.473576] [219] ATTITUDE_TARGET
[20:57:53.915659] [220] VFR_HUD
[20:57:53.949391] [246] RADIO
[20:57:53.951800] [246] RADIO_STATUS
[20:57:54.491747] [221] HEARTBEAT
[20:57:54.730767] [222] VFR_HUD
[20:57:54.851807] [247] RADIO
[20:57:54.854753] [247] RADIO_STATUS
[20:57:55.423933] [223] HEARTBEAT
[20:57:55.429872] [224] SYS_STATUS
[20:57:55.548859] [225] BATTERY_STATUS
[20:57:55.556822] [226] ATTITUDE_TARGET
[20:57:55.586949] [227] VFR_HUD
[20:57:55.864904] [248] RADIO
[20:57:55.867919] [248] RADIO_STATUS
[20:57:56.215924] [228] VFR_HUD
[20:57:56.441002] [229] HEARTBEAT
[20:57:56.910103] [249] RADIO
[20:57:56.913070] [249] RADIO_STATUS
[20:57:57.025069] [230] VFR_HUD
[20:57:57.495224] [231] HEARTBEAT
[20:57:57.502091] [232] ATTITUDE_TARGET
[20:57:57.825107] [233] VFR_HUD
[20:57:57.857130] [250] RADIO
[20:57:57.860159] [250] RADIO_STATUS
[20:57:58.511319] [234] HEARTBEAT
[20:57:58.640217] [235] VFR_HUD
[20:57:58.854219] [251] RADIO
[20:57:58.857125] [251] RADIO_STATUS
[20:57:59.442340] [236] HEARTBEAT
[20:57:59.449356] [237] SYS_STATUS
[20:57:59.563348] [238] BATTERY_STATUS
[20:57:59.681347] [239] ATTITUDE_TARGET
[20:57:59.686338] [240] VFR_HUD
[20:57:59.926416] [252] RADIO
[20:57:59.929321] [252] RADIO_STATUS
[20:58:00.249399] [241] VFR_HUD
[20:58:00.470419] [242] HEARTBEAT
[20:58:00.923494] [253] RADIO
[20:58:00.926514] [253] RADIO_STATUS
[20:58:01.044508] [243] VFR_HUD
[20:58:01.513611] [244] HEARTBEAT
[20:58:01.521682] [245] ATTITUDE_TARGET
[20:58:01.859551] [246] VFR_HUD
[20:58:01.980608] [254] RADIO
[20:58:01.982558] [254] RADIO_STATUS
[20:58:02.419664] [247] HEARTBEAT
[20:58:02.653664] [248] VFR_HUD
[20:58:02.886777] [255] RADIO
[20:58:02.889672] [255] RADIO_STATUS
[20:58:03.470916] [249] HEARTBEAT
[20:58:03.477742] [250] SYS_STATUS
[20:58:03.596937] [251] BATTERY_STATUS
[20:58:03.604928] [252] ATTITUDE_TARGET
[20:58:03.634874] [253] VFR_HUD
[20:58:03.913173] [0] RADIO
[20:58:03.915939] [0] RADIO_STATUS
[20:58:04.263864] [254] VFR_HUD
[20:58:04.488881] [255] HEARTBEAT
[20:58:04.953076] [1] RADIO
[20:58:04.956046] [1] RADIO_STATUS
[20:58:05.073919] [0] VFR_HUD
[20:58:05.423048] [1] HEARTBEAT
[20:58:05.430022] [2] ATTITUDE_TARGET
[20:58:05.873106] [3] VFR_HUD
[20:58:05.900244] [2] RADIO
[20:58:05.903053] [2] RADIO_STATUS
[20:58:06.454358] [4] HEARTBEAT
[20:58:06.683257] [5] VFR_HUD
[20:58:06.902259] [3] RADIO
[20:58:06.905149] [3] RADIO_STATUS
[20:58:07.490374] [6] HEARTBEAT
[20:58:07.497391] [7] SYS_STATUS
[20:58:07.615299] [8] BATTERY_STATUS
[20:58:07.616247] [9] EXTENDED_SYS_STATE
[20:58:07.736440] [10] ATTITUDE_TARGET
[20:58:07.741235] [11] VFR_HUD
[20:58:07.744206] [12] SYSTEM_TIME
[20:58:07.942396] [4] RADIO
[20:58:07.945321] [4] RADIO_STATUS
[20:58:08.292490] [13] VFR_HUD
[20:58:08.523414] [14] HEARTBEAT
[20:58:08.971569] [5] RADIO
[20:58:08.974417] [5] RADIO_STATUS
[20:58:09.092490] [15] VFR_HUD
[20:58:09.456645] [16] HEARTBEAT
[20:58:09.464527] [17] ATTITUDE_TARGET
[20:58:09.907670] [18] VFR_HUD
[20:58:10.023604] [6] RADIO
[20:58:10.026543] [6] RADIO_STATUS
[20:58:10.467685] [19] HEARTBEAT
[20:58:10.701647] [20] VFR_HUD
[20:58:10.931722] [7] RADIO
[20:58:10.934611] [7] RADIO_STATUS
[20:58:11.524929] [21] HEARTBEAT
[20:58:11.531746] [22] SYS_STATUS
[20:58:11.570732] [23] BATTERY_STATUS
[20:58:11.578697] [24] ATTITUDE_TARGET
[20:58:11.583675] [25] VFR_HUD
[20:58:11.960791] [8] RADIO
[20:58:11.963774] [8] RADIO_STATUS
[20:58:12.312047] [26] VFR_HUD
[20:58:12.432841] [27] HEARTBEAT
[20:58:13.001055] [9] RADIO
[20:58:13.003849] [9] RADIO_STATUS
[20:58:13.126902] [28] VFR_HUD
[20:58:13.471145] [29] HEARTBEAT
[20:58:13.478946] [30] ATTITUDE_TARGET
[20:58:13.811074] [31] VFR_HUD
[20:58:13.921112] [10] RADIO
[20:58:13.923122] [10] RADIO_STATUS
[20:58:14.502099] [32] HEARTBEAT
[20:58:14.731225] [33] VFR_HUD
[20:58:14.950123] [11] RADIO
[20:58:14.953059] [11] RADIO_STATUS
[20:58:15.428194] [34] HEARTBEAT
[20:58:15.435181] [35] SYS_STATUS
[20:58:15.554282] [36] BATTERY_STATUS
[20:58:15.562249] [37] ATTITUDE_TARGET
[20:58:15.592169] [38] VFR_HUD
[20:58:15.990244] [12] RADIO
[20:58:15.993213] [12] RADIO_STATUS
[20:58:16.221271] [39] VFR_HUD
[20:58:16.446445] [40] HEARTBEAT
[20:58:17.020431] [13] RADIO
[20:58:17.023386] [13] RADIO_STATUS
[20:58:17.058396] [41] VFR_HUD
[20:58:17.500482] [42] HEARTBEAT
[20:58:17.507405] [43] ATTITUDE_TARGET
[20:58:17.830464] [44] VFR_HUD
[20:58:17.939555] [14] RADIO
[20:58:17.942510] [14] RADIO_STATUS
[20:58:18.405648] [45] HEARTBEAT
[20:58:18.645508] [46] VFR_HUD
[20:58:18.984676] [15] RADIO
[20:58:18.987552] [15] RADIO_STATUS
[20:58:19.447621] [47] HEARTBEAT
[20:58:19.454597] [48] SYS_STATUS
[20:58:19.569594] [49] BATTERY_STATUS
[20:58:19.686692] [50] ATTITUDE_TARGET
[20:58:19.691618] [51] VFR_HUD
[20:58:20.009785] [16] RADIO
[20:58:20.012630] [16] RADIO_STATUS
[20:58:20.255683] [52] VFR_HUD
[20:58:20.475733] [53] HEARTBEAT
[20:58:21.049880] [54] VFR_HUD
[20:58:21.076941] [17] RADIO
[20:58:21.079751] [17] RADIO_STATUS
[20:58:21.518880] [55] HEARTBEAT
[20:58:21.526865] [56] ATTITUDE_TARGET
[20:58:21.865009] [57] VFR_HUD
[20:58:21.986026] [18] RADIO
[20:58:21.988834] [18] RADIO_STATUS
[20:58:22.426064] [58] HEARTBEAT
[20:58:22.660094] [59] VFR_HUD
[20:58:22.999137] [19] RADIO
[20:58:23.002142] [19] RADIO_STATUS
[20:58:23.478004] [60] HEARTBEAT
[20:58:23.484118] [61] SYS_STATUS
[20:58:23.603059] [62] BATTERY_STATUS
[20:58:23.610114] [63] ATTITUDE_TARGET
[20:58:23.640089] [64] VFR_HUD
[20:58:24.044150] [20] RADIO
[20:58:24.047114] [20] RADIO_STATUS
[20:58:24.269288] [65] VFR_HUD
[20:58:24.495182] [66] HEARTBEAT
[20:58:25.068353] [21] RADIO
[20:58:25.071262] [21] RADIO_STATUS
[20:58:25.189226] [67] VFR_HUD
[20:58:25.428346] [68] HEARTBEAT
[20:58:25.436258] [69] ATTITUDE_TARGET
[20:58:25.878355] [70] VFR_HUD
[20:58:25.988368] [22] RADIO
[20:58:25.990303] [22] RADIO_STATUS
[20:58:26.459387] [71] HEARTBEAT
[20:58:26.688358] [72] VFR_HUD
[20:58:27.032483] [23] RADIO
[20:58:27.035362] [23] RADIO_STATUS
[20:58:27.495545] [73] HEARTBEAT
[20:58:27.502435] [74] SYS_STATUS
[20:58:27.620635] [75] BATTERY_STATUS
[20:58:27.622459] [76] EXTENDED_SYS_STATE
[20:58:27.741587] [77] ATTITUDE_TARGET
[20:58:27.746515] [78] VFR_HUD
[20:58:27.750465] [79] SYSTEM_TIME
[20:58:28.057652] [24] RADIO
[20:58:28.060662] [24] RADIO_STATUS
[20:58:28.303535] [80] VFR_HUD
[20:58:28.415553] [81] HEARTBEAT
[20:58:28.982668] [25] RADIO
[20:58:28.985633] [25] RADIO_STATUS
[20:58:29.015687] [82] VFR_HUD
[20:58:29.462740] [83] HEARTBEAT
[20:58:29.470703] [84] ATTITUDE_TARGET
[20:58:29.913852] [85] VFR_HUD
[20:58:30.033824] [26] RADIO
[20:58:30.036767] [26] RADIO_STATUS
[20:58:30.473858] [86] HEARTBEAT
[20:58:30.707872] [87] VFR_HUD
[20:58:31.046948] [27] RADIO
[20:58:31.049855] [27] RADIO_STATUS
[20:58:31.531117] [88] HEARTBEAT
[20:58:31.536953] [89] SYS_STATUS
[20:58:31.576932] [90] BATTERY_STATUS
[20:58:31.584979] [91] ATTITUDE_TARGET
[20:58:31.589996] [92] VFR_HUD
[20:58:32.087198] [28] RADIO
[20:58:32.090014] [28] RADIO_STATUS
[20:58:32.448217] [93] VFR_HUD
[20:58:32.451184] [94] HEARTBEAT
[20:58:33.007142] [95] VFR_HUD
[20:58:33.034228] [29] RADIO
[20:58:33.037124] [29] RADIO_STATUS
[20:58:33.476240] [96] HEARTBEAT
[20:58:33.484310] [97] ATTITUDE_TARGET
[20:58:33.817198] [98] VFR_HUD
[20:58:34.036360] [30] RADIO
[20:58:34.039276] [30] RADIO_STATUS
[20:58:34.508288] [99] HEARTBEAT
[20:58:34.617353] [100] VFR_HUD
[20:58:35.076393] [31] RADIO
[20:58:35.079346] [31] RADIO_STATUS
[20:58:35.434446] [101] HEARTBEAT
[20:58:35.441437] [102] SYS_STATUS
[20:58:35.559404] [103] BATTERY_STATUS
[20:58:35.567452] [104] ATTITUDE_TARGET
[20:58:35.597455] [105] VFR_HUD
[20:58:36.105524] [32] RADIO
[20:58:36.108529] [32] RADIO_STATUS
[20:58:36.231207] [106] VFR_HUD
[20:58:36.452565] [107] HEARTBEAT
[20:58:37.041632] [108] VFR_HUD
[20:58:37.157634] [33] RADIO
[20:58:37.160540] [33] RADIO_STATUS
[20:58:37.513766] [109] HEARTBEAT
[20:58:37.518698] [110] ATTITUDE_TARGET
[20:58:37.836682] [111] VFR_HUD
[20:58:38.065752] [34] RADIO
[20:58:38.068670] [34] RADIO_STATUS
[20:58:38.411888] [112] HEARTBEAT
[20:58:38.651804] [113] VFR_HUD
[20:58:39.096287] [35] RADIO
[20:58:39.099003] [35] RADIO_STATUS
[20:58:39.453968] [114] HEARTBEAT
[20:58:39.462028] [115] SYS_STATUS
[20:58:39.581109] [116] BATTERY_STATUS
[20:58:39.692891] [117] ATTITUDE_TARGET
[20:58:39.697915] [118] VFR_HUD
[20:58:40.135065] [36] RADIO
[20:58:40.137901] [36] RADIO_STATUS
[20:58:40.261094] [119] VFR_HUD
[20:58:40.481021] [120] HEARTBEAT
[20:58:41.056195] [121] VFR_HUD
[20:58:41.083115] [37] RADIO
[20:58:41.086104] [37] RADIO_STATUS
[20:58:41.525316] [122] HEARTBEAT
[20:58:41.533193] [123] ATTITUDE_TARGET
[20:58:41.865282] [124] VFR_HUD
[20:58:42.085411] [38] RADIO
[20:58:42.088240] [38] RADIO_STATUS
[20:58:42.431308] [125] HEARTBEAT
[20:58:42.665358] [126] VFR_HUD
[20:58:43.124437] [39] RADIO
[20:58:43.127364] [39] RADIO_STATUS
[20:58:43.484372] [127] HEARTBEAT
[20:58:43.489577] [128] SYS_STATUS
[20:58:43.608551] [129] BATTERY_STATUS
[20:58:43.616542] [130] ATTITUDE_TARGET
[20:58:43.646518] [131] VFR_HUD
[20:58:44.154639] [40] RADIO
[20:58:44.157565] [40] RADIO_STATUS
[20:58:44.275562] [132] VFR_HUD
[20:58:44.500574] [133] HEARTBEAT
[20:58:45.084736] [134] VFR_HUD
[20:58:45.194879] [41] RADIO
[20:58:45.197647] [41] RADIO_STATUS
[20:58:45.434829] [135] HEARTBEAT
[20:58:45.442769] [136] ATTITUDE_TARGET
[20:58:45.884754] [137] VFR_HUD
[20:58:46.114944] [42] RADIO
[20:58:46.117732] [42] RADIO_STATUS
[20:58:46.461249] [138] HEARTBEAT
[20:58:46.699891] [139] VFR_HUD
[20:58:47.143890] [43] RADIO
[20:58:47.146834] [43] RADIO_STATUS
[20:58:47.501922] [140] HEARTBEAT
[20:58:47.508927] [141] SYS_STATUS
[20:58:47.627050] [142] BATTERY_STATUS
[20:58:47.628879] [143] EXTENDED_SYS_STATE
[20:58:47.747901] [144] ATTITUDE_TARGET
[20:58:47.752906] [145] VFR_HUD
[20:58:47.756113] [146] SYSTEM_TIME
[20:58:48.184133] [44] RADIO
[20:58:48.186993] [44] RADIO_STATUS
[20:58:48.310118] [147] VFR_HUD
[20:58:48.422214] [148] HEARTBEAT
[20:58:49.104152] [149] VFR_HUD
[20:58:49.137204] [45] RADIO
[20:58:49.140087] [45] RADIO_STATUS
[20:58:49.469259] [150] HEARTBEAT
[20:58:49.477651] [151] ATTITUDE_TARGET
[20:58:49.919308] [152] VFR_HUD
[20:58:50.133392] [46] RADIO
[20:58:50.136410] [46] RADIO_STATUS
[20:58:50.480544] [153] HEARTBEAT
[20:58:50.714313] [154] VFR_HUD
[20:58:51.178470] [47] RADIO
[20:58:51.181462] [47] RADIO_STATUS
[20:58:51.531571] [155] HEARTBEAT
[20:58:51.538430] [156] SYS_STATUS
[20:58:51.656584] [157] BATTERY_STATUS
[20:58:51.664406] [158] ATTITUDE_TARGET
[20:58:51.694489] [159] VFR_HUD
[20:58:52.202598] [48] RADIO
[20:58:52.205552] [48] RADIO_STATUS
[20:58:52.323508] [160] VFR_HUD
[20:58:52.444531] [161] HEARTBEAT
[20:58:53.013716] [162] VFR_HUD
[20:58:53.247698] [49] RADIO
[20:58:53.250601] [49] RADIO_STATUS
[20:58:53.482768] [163] HEARTBEAT
[20:58:53.490710] [164] ATTITUDE_TARGET
[20:58:53.822740] [165] VFR_HUD
[20:58:54.167858] [50] RADIO
[20:58:54.170913] [50] RADIO_STATUS
[20:58:54.513939] [166] HEARTBEAT
[20:58:54.622814] [167] VFR_HUD
[20:58:55.191844] [51] RADIO
[20:58:55.194977] [51] RADIO_STATUS
[20:58:55.445985] [168] HEARTBEAT
[20:58:55.451908] [169] SYS_STATUS
[20:58:55.491889] [170] BATTERY_STATUS
[20:58:55.499944] [171] ATTITUDE_TARGET
[20:58:55.506030] [172] VFR_HUD
[20:58:56.237000] [52] RADIO
[20:58:56.239940] [52] RADIO_STATUS
[20:58:56.468058] [173] VFR_HUD
[20:58:56.470969] [174] HEARTBEAT
[20:58:57.048080] [175] VFR_HUD
[20:58:57.163109] [53] RADIO
[20:58:57.166101] [53] RADIO_STATUS
[20:58:57.516207] [176] HEARTBEAT
[20:58:57.524097] [177] ATTITUDE_TARGET
[20:58:57.842207] [178] VFR_HUD
[20:58:58.181295] [54] RADIO
[20:58:58.184157] [54] RADIO_STATUS
[20:58:58.417316] [179] HEARTBEAT
[20:58:58.657210] [180] VFR_HUD
[20:58:59.226283] [55] RADIO
[20:58:59.229505] [55] RADIO_STATUS
[20:58:59.459341] [181] HEARTBEAT
[20:58:59.466261] [182] SYS_STATUS
[20:58:59.586395] [183] BATTERY_STATUS
[20:58:59.698324] [184] ATTITUDE_TARGET
[20:58:59.703262] [185] VFR_HUD
[20:59:00.250411] [56] RADIO
[20:59:00.253350] [56] RADIO_STATUS
[20:59:00.371388] [186] VFR_HUD
[20:59:00.400573] [187] HEARTBEAT
[20:59:01.061547] [188] VFR_HUD
[20:59:01.295851] [57] RADIO
[20:59:01.298560] [57] RADIO_STATUS
[20:59:01.406578] [189] HEARTBEAT
[20:59:01.428992] [190] ATTITUDE_TARGET
[20:59:01.870621] [191] VFR_HUD
[20:59:02.209691] [58] RADIO
[20:59:02.213100] [58] RADIO_STATUS
[20:59:02.436801] [192] HEARTBEAT
[20:59:02.670653] [193] VFR_HUD
[20:59:03.239875] [59] RADIO
[20:59:03.242737] [59] RADIO_STATUS
[20:59:03.487925] [194] HEARTBEAT
[20:59:03.494858] [195] SYS_STATUS
[20:59:03.612863] [196] BATTERY_STATUS
[20:59:03.620790] [197] ATTITUDE_TARGET
[20:59:03.650819] [198] VFR_HUD
[20:59:04.279940] [199] VFR_HUD
[20:59:04.306962] [60] RADIO
[20:59:04.309887] [60] RADIO_STATUS
[20:59:04.505898] [200] HEARTBEAT
[20:59:05.094953] [201] VFR_HUD
[20:59:05.210965] [61] RADIO
[20:59:05.213956] [61] RADIO_STATUS
[20:59:05.439124] [202] HEARTBEAT
[20:59:05.447041] [203] ATTITUDE_TARGET
[20:59:05.890094] [204] VFR_HUD
[20:59:06.229115] [62] RADIO
[20:59:06.232147] [62] RADIO_STATUS
[20:59:06.465098] [205] HEARTBEAT
[20:59:06.705072] [206] VFR_HUD
[20:59:07.269230] [63] RADIO
[20:59:07.271145] [63] RADIO_STATUS
[20:59:07.507216] [207] HEARTBEAT
[20:59:07.513288] [208] SYS_STATUS
[20:59:07.631282] [209] BATTERY_STATUS
[20:59:07.633196] [210] EXTENDED_SYS_STATE
[20:59:07.753251] [211] ATTITUDE_TARGET
[20:59:07.758194] [212] VFR_HUD
[20:59:07.761187] [213] SYSTEM_TIME
[20:59:08.299427] [64] RADIO
[20:59:08.302227] [64] RADIO_STATUS
[20:59:08.337274] [214] VFR_HUD
[20:59:08.415421] [215] HEARTBEAT
[20:59:09.109442] [216] VFR_HUD
[20:59:09.338502] [65] RADIO
[20:59:09.341471] [65] RADIO_STATUS
[20:59:09.468470] [217] HEARTBEAT
[20:59:09.476436] [218] ATTITUDE_TARGET
[20:59:09.919483] [219] VFR_HUD
[20:59:10.258553] [66] RADIO
[20:59:10.261515] [66] RADIO_STATUS
[20:59:10.484545] [220] HEARTBEAT
[20:59:10.609594] [221] VFR_HUD
[20:59:11.288733] [67] RADIO
[20:59:11.291604] [67] RADIO_STATUS
[20:59:11.404808] [222] HEARTBEAT
[20:59:11.424820] [223] SYS_STATUS
[20:59:11.538741] [224] BATTERY_STATUS
[20:59:11.655707] [225] ATTITUDE_TARGET
[20:59:11.660678] [226] VFR_HUD
[20:59:12.218782] [227] VFR_HUD
[20:59:12.327940] [68] RADIO
[20:59:12.330799] [68] RADIO_STATUS
[20:59:12.449811] [228] HEARTBEAT
[20:59:13.019012] [229] VFR_HUD
[20:59:13.357836] [69] RADIO
[20:59:13.360817] [69] RADIO_STATUS
[20:59:13.487953] [230] HEARTBEAT
[20:59:13.498007] [231] ATTITUDE_TARGET
[20:59:13.833985] [232] VFR_HUD
[20:59:14.278112] [70] RADIO
[20:59:14.281115] [70] RADIO_STATUS
[20:59:14.514261] [233] HEARTBEAT
[20:59:14.628111] [234] VFR_HUD
[20:59:15.318215] [71] RADIO
[20:59:15.321210] [71] RADIO_STATUS
[20:59:15.451125] [235] HEARTBEAT
[20:59:15.458185] [236] SYS_STATUS
[20:59:15.497761] [237] BATTERY_STATUS
[20:59:15.505127] [238] ATTITUDE_TARGET
[20:59:15.510379] [239] VFR_HUD
[20:59:16.347356] [72] RADIO
[20:59:16.350373] [72] RADIO_STATUS
[20:59:16.429544] [240] VFR_HUD
[20:59:16.430263] [241] HEARTBEAT
[20:59:17.053404] [242] VFR_HUD
[20:59:17.387587] [73] RADIO
[20:59:17.390329] [73] RADIO_STATUS
[20:59:17.522550] [243] HEARTBEAT
[20:59:17.530442] [244] ATTITUDE_TARGET
[20:59:17.848432] [245] VFR_HUD
[20:59:18.312722] [74] RADIO
[20:59:18.315465] [74] RADIO_STATUS
[20:59:18.428570] [246] HEARTBEAT
[20:59:18.657544] [247] VFR_HUD
[20:59:19.336716] [75] RADIO
[20:59:19.339537] [75] RADIO_STATUS
[20:59:19.464621] [248] HEARTBEAT
[20:59:19.471634] [249] SYS_STATUS
[20:59:19.591656] [250] BATTERY_STATUS
[20:59:19.703693] [251] ATTITUDE_TARGET
[20:59:19.708643] [252] VFR_HUD
[20:59:20.267703] [253] VFR_HUD
[20:59:20.381825] [76] RADIO
[20:59:20.384705] [76] RADIO_STATUS
[20:59:20.497785] [254] HEARTBEAT
[20:59:21.066844] [255] VFR_HUD
[20:59:21.301899] [77] RADIO
[20:59:21.304835] [77] RADIO_STATUS
[20:59:21.425944] [0] HEARTBEAT
[20:59:21.433875] [1] ATTITUDE_TARGET
[20:59:21.876917] [2] VFR_HUD
[20:59:22.325957] [78] RADIO
[20:59:22.329028] [78] RADIO_STATUS
[20:59:22.442065] [3] HEARTBEAT
[20:59:22.676962] [4] VFR_HUD
[20:59:23.371224] [79] RADIO
[20:59:23.374067] [79] RADIO_STATUS
[20:59:23.499122] [5] HEARTBEAT
[20:59:23.506057] [6] SYS_STATUS
[20:59:23.545154] [7] BATTERY_STATUS
[20:59:23.553087] [8] ATTITUDE_TARGET
[20:59:23.558184] [9] VFR_HUD
[20:59:24.395317] [80] RADIO
[20:59:24.398221] [80] RADIO_STATUS
[20:59:24.522334] [10] VFR_HUD
[20:59:24.525195] [11] HEARTBEAT
[20:59:25.101308] [12] VFR_HUD
[20:59:25.315374] [81] RADIO
[20:59:25.318277] [81] RADIO_STATUS
[20:59:25.445388] [13] HEARTBEAT
[20:59:25.452365] [14] ATTITUDE_TARGET
[20:59:25.895473] [15] VFR_HUD
[20:59:26.359583] [82] RADIO
[20:59:26.362442] [82] RADIO_STATUS
[20:59:26.470576] [16] HEARTBEAT
[20:59:26.710477] [17] VFR_HUD
[20:59:27.384604] [83] RADIO
[20:59:27.387528] [83] RADIO_STATUS
[20:59:27.512668] [18] HEARTBEAT
[20:59:27.519584] [19] SYS_STATUS
[20:59:27.642681] [20] BATTERY_STATUS
[20:59:27.644572] [21] EXTENDED_SYS_STATE
[20:59:27.676626] [22] ATTITUDE_TARGET
[20:59:27.681570] [23] VFR_HUD
[20:59:27.684608] [24] SYSTEM_TIME
[20:59:28.314666] [25] VFR_HUD
[20:59:28.420722] [26] HEARTBEAT
[20:59:28.452858] [84] RADIO
[20:59:28.455630] [84] RADIO_STATUS
[20:59:29.004728] [27] VFR_HUD
[20:59:29.344789] [85] RADIO
[20:59:29.347702] [85] RADIO_STATUS
[20:59:29.474910] [28] HEARTBEAT
[20:59:29.481847] [29] ATTITUDE_TARGET
[20:59:29.924891] [30] VFR_HUD
[20:59:30.374097] [86] RADIO
[20:59:30.376878] [86] RADIO_STATUS
[20:59:30.490945] [31] HEARTBEAT
[20:59:30.614965] [32] VFR_HUD
[20:59:31.422131] [33] HEARTBEAT
[20:59:31.429024] [34] SYS_STATUS
[20:59:31.442136] [87] RADIO
[20:59:31.444917] [87] RADIO_STATUS
[20:59:31.544109] [35] BATTERY_STATUS
[20:59:31.661120] [36] ATTITUDE_TARGET
[20:59:31.665992] [37] VFR_HUD
[20:59:32.229079] [38] VFR_HUD
[20:59:32.443221] [88] RADIO
[20:59:32.446188] [88] RADIO_STATUS
[20:59:32.559094] [39] HEARTBEAT
[20:59:33.024215] [40] VFR_HUD
[20:59:33.363215] [89] RADIO
[20:59:33.366106] [89] RADIO_STATUS
[20:59:33.397235] [41] HEARTBEAT
[20:59:33.420196] [42] ATTITUDE_TARGET
[20:59:33.839273] [43] VFR_HUD
[20:59:34.399332] [44] HEARTBEAT
[20:59:34.513663] [90] RADIO
[20:59:34.516407] [90] RADIO_STATUS
[20:59:34.633304] [45] VFR_HUD
[20:59:35.432739] [91] RADIO
[20:59:35.435560] [91] RADIO_STATUS
[20:59:35.492543] [46] HEARTBEAT
[20:59:35.499505] [47] SYS_STATUS
[20:59:35.506631] [48] BATTERY_STATUS
[20:59:35.519483] [49] ATTITUDE_TARGET
[20:59:35.524454] [50] VFR_HUD
[20:59:36.243549] [51] VFR_HUD
[20:59:36.468666] [52] HEARTBEAT
[20:59:36.582674] [92] RADIO
[20:59:36.585585] [92] RADIO_STATUS
[20:59:37.053764] [53] VFR_HUD
[20:59:37.392856] [93] RADIO
[20:59:37.395636] [93] RADIO_STATUS
[20:59:37.522757] [54] HEARTBEAT
[20:59:37.530819] [55] ATTITUDE_TARGET
[20:59:37.852884] [56] VFR_HUD
[20:59:38.421872] [94] RADIO
[20:59:38.424841] [94] RADIO_STATUS
[20:59:38.456023] [57] HEARTBEAT
[20:59:38.662877] [58] VFR_HUD
[20:59:39.470026] [59] HEARTBEAT
[20:59:39.476998] [60] SYS_STATUS
[20:59:39.571964] [95] RADIO
[20:59:39.574925] [95] RADIO_STATUS
[20:59:39.612956] [61] BATTERY_STATUS
[20:59:39.640042] [62] ATTITUDE_TARGET
[20:59:39.644950] [63] VFR_HUD
[20:59:40.272149] [64] VFR_HUD
[20:59:40.492165] [96] RADIO
[20:59:40.495048] [96] RADIO_STATUS
[20:59:40.526110] [65] HEARTBEAT
[20:59:41.072227] [66] VFR_HUD
[20:59:41.411323] [97] RADIO
[20:59:41.414237] [97] RADIO_STATUS
[20:59:41.459130] [67] HEARTBEAT
[20:59:41.467165] [68] ATTITUDE_TARGET
[20:59:41.887240] [69] VFR_HUD
[20:59:42.447265] [70] HEARTBEAT
[20:59:42.562050] [98] RADIO
[20:59:42.564549] [98] RADIO_STATUS
[20:59:42.600384] [71] VFR_HUD
[20:59:43.481365] [99] RADIO
[20:59:43.484380] [99] RADIO_STATUS
[20:59:43.540389] [72] HEARTBEAT
[20:59:43.549919] [73] SYS_STATUS
[20:59:43.555421] [74] BATTERY_STATUS
[20:59:43.567389] [75] ATTITUDE_TARGET
[20:59:43.572348] [76] VFR_HUD
[20:59:44.293785] [77] VFR_HUD
[20:59:44.407568] [78] HEARTBEAT
[20:59:44.521753] [100] RADIO
[20:59:44.524521] [100] RADIO_STATUS
[20:59:45.106562] [79] VFR_HUD
[20:59:45.450710] [80] HEARTBEAT
[20:59:45.458576] [81] ATTITUDE_TARGET
[20:59:45.468606] [101] RADIO
[20:59:45.471797] [101] RADIO_STATUS
[20:59:45.901730] [82] VFR_HUD
[20:59:46.470814] [102] RADIO
[20:59:46.473764] [102] RADIO_STATUS
[20:59:46.504701] [83] HEARTBEAT
[20:59:46.710817] [84] VFR_HUD
[20:59:47.518921] [85] HEARTBEAT
[20:59:47.525905] [86] SYS_STATUS
[20:59:47.538837] [103] RADIO
[20:59:47.540793] [103] RADIO_STATUS
[20:59:47.648813] [87] BATTERY_STATUS
[20:59:47.649780] [88] EXTENDED_SYS_STATE
[20:59:47.682846] [89] ATTITUDE_TARGET
[20:59:47.686774] [90] VFR_HUD
[20:59:47.690790] [91] SYSTEM_TIME
[20:59:48.200941] [92] VFR_HUD
[20:59:48.429449] [93] HEARTBEAT
[20:59:48.457954] [104] RADIO
[20:59:48.461847] [104] RADIO_STATUS
[20:59:49.010958] [94] VFR_HUD
[20:59:49.460225] [105] RADIO
[20:59:49.462968] [105] RADIO_STATUS
[20:59:49.590130] [95] HEARTBEAT
[20:59:49.598124] [96] ATTITUDE_TARGET
[20:59:49.811233] [97] VFR_HUD
[20:59:50.496276] [98] HEARTBEAT
[20:59:50.529645] [106] RADIO
[20:59:50.530144] [106] RADIO_STATUS
[20:59:50.629667] [99] VFR_HUD
[20:59:51.428490] [100] HEARTBEAT
[20:59:51.435324] [101] SYS_STATUS
[20:59:51.447344] [107] RADIO
[20:59:51.450328] [107] RADIO_STATUS
[20:59:51.549288] [102] BATTERY_STATUS
[20:59:51.666327] [103] ATTITUDE_TARGET
[20:59:51.671241] [104] VFR_HUD
[20:59:52.235381] [105] VFR_HUD
[20:59:52.449429] [108] RADIO
[20:59:52.452340] [108] RADIO_STATUS
[20:59:52.565540] [106] HEARTBEAT
[20:59:53.029428] [107] VFR_HUD
[20:59:53.498467] [108] HEARTBEAT
[20:59:53.506593] [109] ATTITUDE_TARGET
[20:59:53.516516] [109] RADIO
[20:59:53.519394] [109] RADIO_STATUS
[20:59:53.846048] [110] VFR_HUD
[20:59:54.404635] [111] HEARTBEAT
[20:59:54.518655] [110] RADIO
[20:59:54.521580] [110] RADIO_STATUS
[20:59:54.639646] [112] VFR_HUD
[20:59:55.456728] [113] HEARTBEAT
[20:59:55.465872] [114] SYS_STATUS
[20:59:55.581901] [115] BATTERY_STATUS
[20:59:55.589671] [116] ATTITUDE_TARGET
[20:59:55.619727] [117] VFR_HUD
[20:59:55.647811] [111] RADIO
[20:59:55.650704] [111] RADIO_STATUS
[20:59:56.248840] [118] VFR_HUD
[20:59:56.474849] [119] HEARTBEAT
[20:59:56.589930] [112] RADIO
[20:59:56.590767] [112] RADIO_STATUS
[20:59:57.058881] [120] VFR_HUD
[20:59:57.508023] [113] RADIO
[20:59:57.510863] [113] RADIO_STATUS
[20:59:57.638070] [121] HEARTBEAT
[20:59:57.649840] [122] ATTITUDE_TARGET
[20:59:57.858085] [123] VFR_HUD
[20:59:58.439070] [124] HEARTBEAT
[20:59:58.553236] [114] RADIO
[20:59:58.555061] [114] RADIO_STATUS
[20:59:58.668118] [125] VFR_HUD
[20:59:59.475143] [126] HEARTBEAT
[20:59:59.482213] [127] SYS_STATUS
[20:59:59.577258] [115] RADIO
[20:59:59.580095] [115] RADIO_STATUS
[20:59:59.618133] [128] BATTERY_STATUS
[20:59:59.645261] [129] ATTITUDE_TARGET
[20:59:59.650132] [130] VFR_HUD
[21:00:00.283326] [131] VFR_HUD
[21:00:00.394405] [132] HEARTBEAT
[21:00:00.496331] [116] RADIO
[21:00:00.499340] [116] RADIO_STATUS
[21:00:01.077359] [133] VFR_HUD
[21:00:01.441640] [134] HEARTBEAT
[21:00:01.449421] [135] ATTITUDE_TARGET
[21:00:01.536505] [117] RADIO
[21:00:01.539374] [117] RADIO_STATUS
[21:00:01.892471] [136] VFR_HUD
[21:00:02.452555] [137] HEARTBEAT
[21:00:02.565576] [118] RADIO
[21:00:02.568443] [118] RADIO_STATUS
[21:00:02.686577] [138] VFR_HUD
[21:00:03.508805] [139] HEARTBEAT
[21:00:03.515982] [140] SYS_STATUS
[21:00:03.555839] [141] BATTERY_STATUS
[21:00:03.564305] [142] ATTITUDE_TARGET
[21:00:03.568663] [143] VFR_HUD
[21:00:03.605888] [119] RADIO
[21:00:03.608645] [119] RADIO_STATUS
[21:00:04.426842] [144] VFR_HUD
[21:00:04.429775] [145] HEARTBEAT
[21:00:04.541823] [120] RADIO
[21:00:04.544804] [120] RADIO_STATUS
[21:00:05.106067] [146] VFR_HUD
[21:00:05.456055] [147] HEARTBEAT
[21:00:05.463998] [148] ATTITUDE_TARGET
[21:00:05.555988] [121] RADIO
[21:00:05.558948] [121] RADIO_STATUS
[21:00:05.905959] [149] VFR_HUD
[21:00:06.487114] [150] HEARTBEAT
[21:00:06.595257] [122] RADIO
[21:00:06.598024] [122] RADIO_STATUS
[21:00:06.716231] [151] VFR_HUD
[21:00:07.402241] [152] HEARTBEAT
[21:00:07.422229] [153] SYS_STATUS
[21:00:07.460117] [154] BATTERY_STATUS
[21:00:07.461018] [155] EXTENDED_SYS_STATE
[21:00:07.469072] [156] ATTITUDE_TARGET
[21:00:07.474084] [157] VFR_HUD
[21:00:07.478130] [158] SYSTEM_TIME
[21:00:07.625203] [123] RADIO
[21:00:07.628172] [123] RADIO_STATUS
[21:00:08.326209] [159] VFR_HUD
[21:00:08.431188] [160] HEARTBEAT
[21:00:08.545268] [124] RADIO
[21:00:08.548166] [124] RADIO_STATUS
[21:00:09.021483] [161] VFR_HUD
[21:00:09.490396] [162] HEARTBEAT
[21:00:09.498319] [163] ATTITUDE_TARGET
[21:00:09.585427] [125] RADIO
[21:00:09.588361] [125] RADIO_STATUS
[21:00:09.815416] [164] VFR_HUD
[21:00:10.391611] [165] HEARTBEAT
[21:00:10.614619] [126] RADIO
[21:00:10.617490] [126] RADIO_STATUS
[21:00:10.653597] [166] VFR_HUD
[21:00:11.432823] [167] HEARTBEAT
[21:00:11.439730] [168] SYS_STATUS
[21:00:11.559666] [169] BATTERY_STATUS
[21:00:11.671648] [170] ATTITUDE_TARGET
[21:00:11.676609] [171] VFR_HUD
[21:00:11.682633] [127] RADIO
[21:00:11.685561] [127] RADIO_STATUS
[21:00:12.240695] [172] VFR_HUD
[21:00:12.460832] [173] HEARTBEAT
[21:00:12.579814] [128] RADIO
[21:00:12.582809] [128] RADIO_STATUS
[21:00:13.034750] [174] VFR_HUD
[21:00:13.503954] [175] HEARTBEAT
[21:00:13.511891] [176] ATTITUDE_TARGET
[21:00:13.603880] [129] RADIO
[21:00:13.606813] [129] RADIO_STATUS
[21:00:13.844923] [177] VFR_HUD
[21:00:14.409962] [178] HEARTBEAT
[21:00:14.644933] [179] VFR_HUD
[21:00:14.671968] [130] RADIO
[21:00:14.674904] [130] RADIO_STATUS
[21:00:15.462167] [180] HEARTBEAT
[21:00:15.468076] [181] SYS_STATUS
[21:00:15.587237] [182] BATTERY_STATUS
[21:00:15.595059] [183] ATTITUDE_TARGET
[21:00:15.625167] [184] VFR_HUD
[21:00:15.652150] [131] RADIO
[21:00:15.655176] [131] RADIO_STATUS
[21:00:16.254151] [185] VFR_HUD
[21:00:16.479179] [186] HEARTBEAT
[21:00:16.593305] [132] RADIO
[21:00:16.596207] [132] RADIO_STATUS
[21:00:17.064357] [187] VFR_HUD
[21:00:17.399316] [188] HEARTBEAT
[21:00:17.422317] [189] ATTITUDE_TARGET
[21:00:17.638474] [133] RADIO
[21:00:17.641273] [133] RADIO_STATUS
[21:00:17.863371] [190] VFR_HUD
[21:00:18.439507] [191] HEARTBEAT
[21:00:18.662486] [134] RADIO
[21:00:18.665455] [134] RADIO_STATUS
[21:00:18.701392] [192] VFR_HUD
[21:00:19.481604] [193] HEARTBEAT
[21:00:19.487591] [194] SYS_STATUS
[21:00:19.602518] [195] BATTERY_STATUS
[21:00:19.720577] [196] ATTITUDE_TARGET
[21:00:19.725521] [197] VFR_HUD
[21:00:19.758641] [135] RADIO
[21:00:19.761625] [135] RADIO_STATUS
[21:00:20.288765] [198] VFR_HUD
[21:00:20.400676] [199] HEARTBEAT
[21:00:20.627713] [136] RADIO
[21:00:20.630721] [136] RADIO_STATUS
[21:00:21.084342] [200] VFR_HUD
[21:00:21.447945] [201] HEARTBEAT
[21:00:21.455874] [202] ATTITUDE_TARGET
[21:00:21.652948] [137] RADIO
[21:00:21.655934] [137] RADIO_STATUS
[21:00:21.897851] [203] VFR_HUD
[21:00:22.459057] [204] HEARTBEAT
[21:00:22.693008] [205] VFR_HUD
[21:00:22.725073] [138] RADIO
[21:00:22.728031] [138] RADIO_STATUS
[21:00:23.510200] [206] HEARTBEAT
[21:00:23.517248] [207] SYS_STATUS
[21:00:23.635132] [208] BATTERY_STATUS
[21:00:23.643080] [209] ATTITUDE_TARGET
[21:00:23.673088] [210] VFR_HUD
[21:00:23.701173] [139] RADIO
[21:00:23.704048] [139] RADIO_STATUS
[21:00:24.302146] [211] VFR_HUD
[21:00:24.423162] [212] HEARTBEAT
[21:00:24.642317] [140] RADIO
[21:00:24.645104] [140] RADIO_STATUS
[21:00:25.113182] [213] VFR_HUD
[21:00:25.461242] [214] HEARTBEAT
[21:00:25.469237] [215] ATTITUDE_TARGET
[21:00:25.686301] [141] RADIO
[21:00:25.689225] [141] RADIO_STATUS
[21:00:25.912573] [216] VFR_HUD
[21:00:26.492425] [217] HEARTBEAT
[21:00:26.602489] [218] VFR_HUD
[21:00:26.629822] [142] RADIO
[21:00:26.632453] [142] RADIO_STATUS
[21:00:27.424548] [219] HEARTBEAT
[21:00:27.431536] [220] SYS_STATUS
[21:00:27.465538] [221] BATTERY_STATUS
[21:00:27.467466] [222] EXTENDED_SYS_STATE
[21:00:27.475471] [223] ATTITUDE_TARGET
[21:00:27.480482] [224] VFR_HUD
[21:00:27.483477] [225] SYSTEM_TIME
[21:00:27.631583] [143] RADIO
[21:00:27.634549] [143] RADIO_STATUS
[21:00:28.211713] [226] VFR_HUD
[21:00:28.437937] [227] HEARTBEAT
[21:00:28.670793] [144] RADIO
[21:00:28.673615] [144] RADIO_STATUS
[21:00:29.026629] [228] VFR_HUD
[21:00:29.496009] [229] HEARTBEAT
[21:00:29.503691] [230] ATTITUDE_TARGET
[21:00:29.700946] [145] RADIO
[21:00:29.703641] [145] RADIO_STATUS
[21:00:29.820815] [231] VFR_HUD
[21:00:30.396913] [232] HEARTBEAT
[21:00:30.636899] [233] VFR_HUD
[21:00:30.751878] [146] RADIO
[21:00:30.754985] [146] RADIO_STATUS
[21:00:31.438948] [234] HEARTBEAT
