[21:33:34.689500] [161] HEARTBEAT
[21:33:34.918370] [162] VFR_HUD
[21:33:35.263591] [3] RADIO
[21:33:35.268671] [3] RADIO_STATUS
[21:33:35.725502] [163] HEARTBEAT
[21:33:35.732609] [164] SYS_STATUS
[21:33:35.847503] [165] BATTERY_STATUS
[21:33:35.969776] [166] ATTITUDE_TARGET
[21:33:35.969925] [167] VFR_HUD
[21:33:36.287717] [4] RADIO
[21:33:36.290548] [4] RADIO_STATUS
[21:33:36.528659] [168] VFR_HUD
[21:33:36.758691] [169] HEARTBEAT
[21:33:37.207750] [5] RADIO
[21:33:37.209766] [5] RADIO_STATUS
[21:33:37.327760] [170] VFR_HUD
[21:33:37.691842] [171] HEARTBEAT
[21:33:37.699923] [172] ATTITUDE_TARGET
[21:33:38.137886] [173] VFR_HUD
[21:33:38.246968] [6] RADIO
[21:33:38.249884] [6] RADIO_STATUS
[21:33:38.703085] [174] HEARTBEAT
[21:33:38.936939] [175] VFR_HUD
[21:33:39.276098] [7] RADIO
[21:33:39.279012] [7] RADIO_STATUS
[21:33:39.759229] [176] HEARTBEAT
[21:33:39.766220] [177] SYS_STATUS
[21:33:39.806133] [178] BATTERY_STATUS
[21:33:39.814194] [179] ATTITUDE_TARGET
[21:33:39.819107] [180] VFR_HUD
[21:33:40.316355] [8] RADIO
[21:33:40.319185] [8] RADIO_STATUS
[21:33:40.672310] [181] VFR_HUD
[21:33:40.675285] [182] HEARTBEAT
[21:33:41.235509] [9] RADIO
[21:33:41.238399] [9] RADIO_STATUS
[21:33:41.361403] [183] VFR_HUD
[21:33:41.705612] [184] HEARTBEAT
[21:33:41.713521] [185] ATTITUDE_TARGET
[21:33:42.156504] [186] VFR_HUD
[21:33:42.265589] [10] RADIO
[21:33:42.268495] [10] RADIO_STATUS
[21:33:42.731736] [187] HEARTBEAT
[21:33:42.970791] [188] VFR_HUD
[21:33:43.304805] [11] RADIO
[21:33:43.307666] [11] RADIO_STATUS
[21:33:43.772873] [189] HEARTBEAT
[21:33:43.779793] [190] SYS_STATUS
[21:33:43.899834] [191] BATTERY_STATUS
[21:33:44.011806] [192] ATTITUDE_TARGET
[21:33:44.016944] [193] VFR_HUD
[21:33:44.334074] [12] RADIO
[21:33:44.336951] [12] RADIO_STATUS
[21:33:44.574986] [194] VFR_HUD
[21:33:44.679983] [195] HEARTBEAT
[21:33:45.254081] [13] RADIO
[21:33:45.257043] [13] RADIO_STATUS
[21:33:45.374072] [196] VFR_HUD
[21:33:45.733149] [197] HEARTBEAT
[21:33:45.741081] [198] ATTITUDE_TARGET
[21:33:46.184188] [199] VFR_HUD
[21:33:46.293271] [14] RADIO
[21:33:46.296225] [14] RADIO_STATUS
[21:33:46.749310] [200] HEARTBEAT
[21:33:46.878392] [201] VFR_HUD
[21:33:47.322427] [15] RADIO
[21:33:47.325454] [15] RADIO_STATUS
[21:33:47.680534] [202] HEARTBEAT
[21:33:47.687453] [203] SYS_STATUS
[21:33:47.802477] [204] BATTERY_STATUS
[21:33:47.919531] [205] ATTITUDE_TARGET
[21:33:47.924450] [206] VFR_HUD
[21:33:48.363751] [16] RADIO
[21:33:48.365483] [16] RADIO_STATUS
[21:33:48.487606] [207] VFR_HUD
[21:33:48.707872] [208] HEARTBEAT
[21:33:49.282720] [209] VFR_HUD
[21:33:49.309697] [17] RADIO
[21:33:49.312787] [17] RADIO_STATUS
[21:33:49.751938] [210] HEARTBEAT
[21:33:49.759886] [211] ATTITUDE_TARGET
[21:33:50.097767] [212] VFR_HUD
[21:33:50.313244] [18] RADIO
[21:33:50.313821] [18] RADIO_STATUS
[21:33:50.662875] [213] HEARTBEAT
[21:33:50.891972] [214] VFR_HUD
[21:33:51.351010] [19] RADIO
[21:33:51.354058] [19] RADIO_STATUS
[21:33:51.709062] [215] HEARTBEAT
[21:33:51.716097] [216] SYS_STATUS
[21:33:51.837104] [217] BATTERY_STATUS
[21:33:51.839070] [218] EXTENDED_SYS_STATE
[21:33:51.847116] [219] ATTITUDE_TARGET
[21:33:51.852195] [220] VFR_HUD
[21:33:51.855129] [221] SYSTEM_TIME
[21:33:52.381156] [20] RADIO
[21:33:52.383066] [20] RADIO_STATUS
[21:33:52.502073] [222] VFR_HUD
[21:33:52.727207] [223] HEARTBEAT
[21:33:53.300353] [21] RADIO
[21:33:53.303406] [21] RADIO_STATUS
[21:33:53.421307] [224] VFR_HUD
[21:33:53.780547] [225] HEARTBEAT
[21:33:53.787376] [226] ATTITUDE_TARGET
[21:33:54.110411] [227] VFR_HUD
[21:33:54.344502] [22] RADIO
[21:33:54.347539] [22] RADIO_STATUS
[21:33:54.690565] [228] HEARTBEAT
[21:33:54.920580] [229] VFR_HUD
[21:33:55.369703] [23] RADIO
[21:33:55.372533] [23] RADIO_STATUS
[21:33:55.727675] [230] HEARTBEAT
[21:33:55.733681] [231] SYS_STATUS
[21:33:55.848673] [232] BATTERY_STATUS
[21:33:55.966740] [233] ATTITUDE_TARGET
[21:33:55.971705] [234] VFR_HUD
[21:33:56.408928] [24] RADIO
[21:33:56.411756] [24] RADIO_STATUS
[21:33:56.529776] [235] VFR_HUD
[21:33:56.759844] [236] HEARTBEAT
[21:33:57.328951] [237] VFR_HUD
[21:33:57.361020] [25] RADIO
[21:33:57.363944] [25] RADIO_STATUS
[21:33:57.694090] [238] HEARTBEAT
[21:33:57.700984] [239] ATTITUDE_TARGET
[21:33:58.144044] [240] VFR_HUD
[21:33:58.358225] [26] RADIO
[21:33:58.361100] [26] RADIO_STATUS
[21:33:58.704159] [241] HEARTBEAT
[21:33:58.938189] [242] VFR_HUD
[21:33:59.402238] [27] RADIO
[21:33:59.405202] [27] RADIO_STATUS
[21:33:59.760514] [243] HEARTBEAT
[21:33:59.767374] [244] SYS_STATUS
[21:33:59.807336] [245] BATTERY_STATUS
[21:33:59.814369] [246] ATTITUDE_TARGET
[21:33:59.819332] [247] VFR_HUD
[21:34:00.426466] [28] RADIO
[21:34:00.429743] [28] RADIO_STATUS
[21:34:00.678580] [248] VFR_HUD
[21:34:00.681513] [249] HEARTBEAT
[21:34:01.346550] [29] RADIO
[21:34:01.349598] [29] RADIO_STATUS
[21:34:01.384573] [250] VFR_HUD
[21:34:01.706647] [251] HEARTBEAT
[21:34:01.713668] [252] ATTITUDE_TARGET
[21:34:02.157669] [253] VFR_HUD
[21:34:02.390717] [30] RADIO
[21:34:02.393719] [30] RADIO_STATUS
[21:34:02.736967] [254] HEARTBEAT
[21:34:02.966829] [255] VFR_HUD
[21:34:03.415953] [31] RADIO
[21:34:03.417920] [31] RADIO_STATUS
[21:34:03.651991] [0] HEARTBEAT
[21:34:03.672062] [1] SYS_STATUS
[21:34:03.715049] [2] BATTERY_STATUS
[21:34:03.723085] [3] ATTITUDE_TARGET
[21:34:03.727922] [4] VFR_HUD
[21:34:04.460165] [32] RADIO
[21:34:04.463131] [32] RADIO_STATUS
[21:34:04.691133] [5] VFR_HUD
[21:34:04.694084] [6] HEARTBEAT
[21:34:05.270300] [7] VFR_HUD
[21:34:05.386267] [33] RADIO
[21:34:05.389206] [33] RADIO_STATUS
[21:34:05.734351] [8] HEARTBEAT
[21:34:05.742494] [9] ATTITUDE_TARGET
[21:34:06.070393] [10] VFR_HUD
[21:34:06.404442] [34] RADIO
[21:34:06.407446] [34] RADIO_STATUS
[21:34:06.750442] [11] HEARTBEAT
[21:34:06.879476] [12] VFR_HUD
[21:34:07.443490] [35] RADIO
[21:34:07.446506] [35] RADIO_STATUS
[21:34:07.681789] [13] HEARTBEAT
[21:34:07.688601] [14] SYS_STATUS
[21:34:07.803650] [15] BATTERY_STATUS
[21:34:07.920627] [16] ATTITUDE_TARGET
[21:34:07.925616] [17] VFR_HUD
[21:34:08.363756] [36] RADIO
[21:34:08.366726] [36] RADIO_STATUS
[21:34:08.489782] [18] VFR_HUD
[21:34:08.709887] [19] HEARTBEAT
[21:34:09.284042] [20] VFR_HUD
[21:34:09.392962] [37] RADIO
[21:34:09.395943] [37] RADIO_STATUS
[21:34:09.752959] [21] HEARTBEAT
[21:34:09.760996] [22] ATTITUDE_TARGET
[21:34:10.097855] [23] VFR_HUD
[21:34:10.433090] [38] RADIO
[21:34:10.435997] [38] RADIO_STATUS
[21:34:10.659143] [24] HEARTBEAT
[21:34:10.893092] [25] VFR_HUD
[21:34:11.462199] [39] RADIO
[21:34:11.465198] [39] RADIO_STATUS
[21:34:11.710400] [26] HEARTBEAT
[21:34:11.717292] [27] SYS_STATUS
[21:34:11.838306] [28] BATTERY_STATUS
[21:34:11.840354] [29] EXTENDED_SYS_STATE
[21:34:11.848302] [30] ATTITUDE_TARGET
[21:34:11.853297] [31] VFR_HUD
[21:34:11.856246] [32] SYSTEM_TIME
[21:34:12.382401] [40] RADIO
[21:34:12.384481] [40] RADIO_STATUS
[21:34:12.502550] [33] VFR_HUD
[21:34:12.727617] [34] HEARTBEAT
[21:34:13.312620] [35] VFR_HUD
[21:34:13.421691] [41] RADIO
[21:34:13.424670] [41] RADIO_STATUS
[21:34:13.652775] [36] HEARTBEAT
[21:34:13.780813] [37] ATTITUDE_TARGET
[21:34:14.111966] [38] VFR_HUD
[21:34:14.450939] [42] RADIO
[21:34:14.453863] [42] RADIO_STATUS
[21:34:14.687870] [39] HEARTBEAT
[21:34:14.921859] [40] VFR_HUD
[21:34:15.490974] [43] RADIO
[21:34:15.494151] [43] RADIO_STATUS
[21:34:15.728996] [41] HEARTBEAT
[21:34:15.736002] [42] SYS_STATUS
[21:34:15.851118] [43] BATTERY_STATUS
[21:34:15.968019] [44] ATTITUDE_TARGET
[21:34:15.973092] [45] VFR_HUD
[21:34:16.410125] [44] RADIO
[21:34:16.413103] [44] RADIO_STATUS
[21:34:16.536102] [46] VFR_HUD
[21:34:16.756155] [47] HEARTBEAT
[21:34:17.331251] [48] VFR_HUD
[21:34:17.440300] [45] RADIO
[21:34:17.443208] [45] RADIO_STATUS
[21:34:17.695485] [49] HEARTBEAT
[21:34:17.703319] [50] ATTITUDE_TARGET
[21:34:18.145531] [51] VFR_HUD
[21:34:18.479450] [46] RADIO
[21:34:18.482764] [46] RADIO_STATUS
[21:34:18.705657] [52] HEARTBEAT
[21:34:18.940620] [53] VFR_HUD
[21:34:19.509704] [47] RADIO
[21:34:19.514169] [47] RADIO_STATUS
[21:34:19.762688] [54] HEARTBEAT
[21:34:19.769693] [55] SYS_STATUS
[21:34:19.808716] [56] BATTERY_STATUS
[21:34:19.816695] [57] ATTITUDE_TARGET
[21:34:19.821703] [58] VFR_HUD
[21:34:20.428831] [48] RADIO
[21:34:20.431791] [48] RADIO_STATUS
[21:34:20.680927] [59] VFR_HUD
[21:34:20.683826] [60] HEARTBEAT
[21:34:21.358966] [61] VFR_HUD
[21:34:21.473984] [49] RADIO
[21:34:21.476926] [49] RADIO_STATUS
[21:34:21.709021] [62] HEARTBEAT
[21:34:21.717163] [63] ATTITUDE_TARGET
[21:34:22.159111] [64] VFR_HUD
[21:34:22.498234] [50] RADIO
[21:34:22.501106] [50] RADIO_STATUS
[21:34:22.739215] [65] HEARTBEAT
[21:34:22.968312] [66] VFR_HUD
[21:34:23.543348] [51] RADIO
[21:34:23.546330] [51] RADIO_STATUS
[21:34:23.671440] [67] HEARTBEAT
[21:34:23.678316] [68] SYS_STATUS
[21:34:23.717363] [69] BATTERY_STATUS
[21:34:23.725350] [70] ATTITUDE_TARGET
[21:34:23.730395] [71] VFR_HUD
[21:34:24.463453] [52] RADIO
[21:34:24.465469] [52] RADIO_STATUS
[21:34:24.694457] [72] VFR_HUD
[21:34:24.696492] [73] HEARTBEAT
[21:34:25.273570] [74] VFR_HUD
[21:34:25.487631] [53] RADIO
[21:34:25.489595] [53] RADIO_STATUS
[21:34:25.741643] [75] HEARTBEAT
[21:34:25.749770] [76] ATTITUDE_TARGET
[21:34:26.069989] [77] VFR_HUD
[21:34:26.531785] [54] RADIO
[21:34:26.534873] [54] RADIO_STATUS
[21:34:26.752914] [78] HEARTBEAT
[21:34:26.882803] [79] VFR_HUD
[21:34:27.452058] [55] RADIO
[21:34:27.454944] [55] RADIO_STATUS
[21:34:27.684996] [80] HEARTBEAT
[21:34:27.691038] [81] SYS_STATUS
[21:34:27.810960] [82] BATTERY_STATUS
[21:34:27.924141] [83] ATTITUDE_TARGET
[21:34:27.928009] [84] VFR_HUD
[21:34:28.476166] [56] RADIO
[21:34:28.479024] [56] RADIO_STATUS
[21:34:28.597141] [85] VFR_HUD
[21:34:28.712319] [86] HEARTBEAT
[21:34:29.286215] [87] VFR_HUD
[21:34:29.520292] [57] RADIO
[21:34:29.523319] [57] RADIO_STATUS
[21:34:29.755303] [88] HEARTBEAT
[21:34:29.763273] [89] ATTITUDE_TARGET
[21:34:30.096316] [90] VFR_HUD
[21:34:30.545487] [58] RADIO
[21:34:30.548471] [58] RADIO_STATUS
[21:34:30.661534] [91] HEARTBEAT
[21:34:30.895514] [92] VFR_HUD
[21:34:31.464593] [59] RADIO
[21:34:31.467540] [59] RADIO_STATUS
[21:34:31.712629] [93] HEARTBEAT
[21:34:31.719604] [94] SYS_STATUS
[21:34:31.840649] [95] BATTERY_STATUS
[21:34:31.842597] [96] EXTENDED_SYS_STATE
[21:34:31.850654] [97] ATTITUDE_TARGET
[21:34:31.855651] [98] VFR_HUD
[21:34:31.858626] [99] SYSTEM_TIME
[21:34:32.504801] [100] VFR_HUD
[21:34:32.531729] [60] RADIO
[21:34:32.534684] [60] RADIO_STATUS
[21:34:32.735014] [101] HEARTBEAT
[21:34:33.425050] [102] VFR_HUD
[21:34:33.533893] [61] RADIO
[21:34:33.536882] [61] RADIO_STATUS
[21:34:33.649949] [103] HEARTBEAT
[21:34:33.783196] [104] ATTITUDE_TARGET
[21:34:34.114247] [105] VFR_HUD
[21:34:34.573072] [62] RADIO
[21:34:34.576369] [62] RADIO_STATUS
[21:34:34.689969] [106] HEARTBEAT
[21:34:34.929029] [107] VFR_HUD
[21:34:35.493079] [63] RADIO
[21:34:35.496116] [63] RADIO_STATUS
[21:34:35.731233] [108] HEARTBEAT
[21:34:35.738310] [109] SYS_STATUS
[21:34:35.853322] [110] BATTERY_STATUS
[21:34:35.970338] [111] ATTITUDE_TARGET
[21:34:35.975309] [112] VFR_HUD
[21:34:36.523338] [64] RADIO
[21:34:36.525207] [64] RADIO_STATUS
[21:34:36.561251] [113] VFR_HUD
[21:34:36.759346] [114] HEARTBEAT
[21:34:37.333415] [115] VFR_HUD
[21:34:37.562471] [65] RADIO
[21:34:37.565496] [65] RADIO_STATUS
[21:34:37.692510] [116] HEARTBEAT
[21:34:37.700522] [117] ATTITUDE_TARGET
[21:34:38.148522] [118] VFR_HUD
[21:34:38.592638] [66] RADIO
[21:34:38.594625] [66] RADIO_STATUS
[21:34:38.708707] [119] HEARTBEAT
[21:34:38.942730] [120] VFR_HUD
[21:34:39.511833] [67] RADIO
[21:34:39.514901] [67] RADIO_STATUS
[21:34:39.760175] [121] HEARTBEAT
[21:34:39.767184] [122] SYS_STATUS
[21:34:39.884996] [123] BATTERY_STATUS
[21:34:39.892935] [124] ATTITUDE_TARGET
[21:34:39.923022] [125] VFR_HUD
[21:34:40.552082] [126] VFR_HUD
[21:34:40.579088] [68] RADIO
[21:34:40.581917] [68] RADIO_STATUS
[21:34:40.672959] [127] HEARTBEAT
[21:34:41.362086] [128] VFR_HUD
[21:34:41.581144] [69] RADIO
[21:34:41.584140] [69] RADIO_STATUS
[21:34:41.711155] [129] HEARTBEAT
[21:34:41.719283] [130] ATTITUDE_TARGET
[21:34:42.161163] [131] VFR_HUD
[21:34:42.621260] [70] RADIO
[21:34:42.623266] [70] RADIO_STATUS
[21:34:42.742440] [132] HEARTBEAT
[21:34:42.971335] [133] VFR_HUD
[21:34:43.540458] [71] RADIO
[21:34:43.543482] [71] RADIO_STATUS
[21:34:43.662494] [134] HEARTBEAT
[21:34:43.791571] [135] SYS_STATUS
[21:34:43.801792] [136] BATTERY_STATUS
[21:34:43.908510] [137] ATTITUDE_TARGET
[21:34:43.912497] [138] VFR_HUD
[21:34:44.461633] [139] VFR_HUD
[21:34:44.570774] [72] RADIO
[21:34:44.573583] [72] RADIO_STATUS
[21:34:44.686757] [140] HEARTBEAT
[21:34:45.275875] [141] VFR_HUD
[21:34:45.609789] [73] RADIO
[21:34:45.612925] [73] RADIO_STATUS
[21:34:45.745813] [142] HEARTBEAT
[21:34:45.752792] [143] ATTITUDE_TARGET
[21:34:46.070796] [144] VFR_HUD
[21:34:46.534909] [74] RADIO
[21:34:46.537808] [74] RADIO_STATUS
[21:34:46.756023] [145] HEARTBEAT
[21:34:46.886197] [146] VFR_HUD
[21:34:47.559164] [75] RADIO
[21:34:47.562001] [75] RADIO_STATUS
[21:34:47.688181] [147] HEARTBEAT
[21:34:47.694078] [148] SYS_STATUS
[21:34:47.814101] [149] BATTERY_STATUS
[21:34:47.926173] [150] ATTITUDE_TARGET
[21:34:47.932243] [151] VFR_HUD
[21:34:48.489217] [152] VFR_HUD
[21:34:48.604189] [76] RADIO
[21:34:48.607200] [76] RADIO_STATUS
[21:34:48.720288] [153] HEARTBEAT
[21:34:49.289286] [154] VFR_HUD
[21:34:49.628363] [77] RADIO
[21:34:49.636269] [77] RADIO_STATUS
[21:34:49.758378] [155] HEARTBEAT
[21:34:49.766407] [156] ATTITUDE_TARGET
[21:34:50.099420] [157] VFR_HUD
[21:34:50.548558] [78] RADIO
[21:34:50.551487] [78] RADIO_STATUS
[21:34:50.664607] [158] HEARTBEAT
[21:34:50.898580] [159] VFR_HUD
[21:34:51.592692] [79] RADIO
[21:34:51.595642] [79] RADIO_STATUS
[21:34:51.715760] [160] HEARTBEAT
[21:34:51.722754] [161] SYS_STATUS
[21:34:51.843713] [162] BATTERY_STATUS
[21:34:51.845676] [163] EXTENDED_SYS_STATE
[21:34:51.853763] [164] ATTITUDE_TARGET
[21:34:51.858810] [165] VFR_HUD
[21:34:51.861668] [166] SYSTEM_TIME
[21:34:52.507788] [167] VFR_HUD
[21:34:52.616770] [80] RADIO
[21:34:52.619732] [80] RADIO_STATUS
[21:34:52.732984] [168] HEARTBEAT
[21:34:53.322848] [169] VFR_HUD
[21:34:53.658205] [170] HEARTBEAT
[21:34:53.680051] [171] ATTITUDE_TARGET
[21:34:53.705987] [81] RADIO
[21:34:53.709442] [81] RADIO_STATUS
[21:34:54.118000] [172] VFR_HUD
[21:34:54.581076] [82] RADIO
[21:34:54.584070] [82] RADIO_STATUS
[21:34:54.692137] [173] HEARTBEAT
[21:34:54.932249] [174] VFR_HUD
[21:34:55.605270] [83] RADIO
[21:34:55.608225] [83] RADIO_STATUS
[21:34:55.734260] [175] HEARTBEAT
[21:34:55.740260] [176] SYS_STATUS
[21:34:55.855297] [177] BATTERY_STATUS
[21:34:55.973430] [178] ATTITUDE_TARGET
[21:34:55.977251] [179] VFR_HUD
[21:34:56.541427] [180] VFR_HUD
[21:34:56.653356] [181] HEARTBEAT
[21:34:56.683357] [84] RADIO
[21:34:56.686359] [84] RADIO_STATUS
[21:34:57.674553] [85] RADIO
[21:34:57.677717] [85] RADIO_STATUS
[21:34:57.804754] [183] HEARTBEAT
[21:34:57.813954] [184] ATTITUDE_TARGET
[21:34:58.145785] [185] VFR_HUD
[21:34:58.710776] [186] HEARTBEAT
[21:34:58.741833] [86] RADIO
[21:34:58.744829] [86] RADIO_STATUS
[21:34:58.944732] [187] VFR_HUD
[21:34:59.743903] [87] RADIO
[21:34:59.747088] [87] RADIO_STATUS
[21:34:59.871902] [188] HEARTBEAT
[21:34:59.877937] [189] SYS_STATUS
[21:34:59.998030] [190] BATTERY_STATUS
[21:35:00.111018] [191] ATTITUDE_TARGET
[21:35:00.114973] [192] VFR_HUD
[21:35:00.553981] [193] VFR_HUD
[21:35:00.663038] [88] RADIO
[21:35:00.665976] [88] RADIO_STATUS
[21:35:00.697089] [194] HEARTBEAT
[21:35:01.366036] [195] VFR_HUD
[21:35:01.712397] [196] HEARTBEAT
[21:35:01.720223] [197] ATTITUDE_TARGET
[21:35:01.730228] [89] RADIO
[21:35:01.733363] [89] RADIO_STATUS
[21:35:02.058260] [198] VFR_HUD
[21:35:02.732412] [90] RADIO
[21:35:02.735424] [90] RADIO_STATUS
[21:35:02.848365] [199] HEARTBEAT
[21:35:02.871374] [200] VFR_HUD
[21:35:03.651534] [91] RADIO
[21:35:03.654511] [91] RADIO_STATUS
[21:35:03.711538] [201] HEARTBEAT
[21:35:03.718570] [202] SYS_STATUS
[21:35:03.725594] [203] BATTERY_STATUS
[21:35:03.738506] [204] ATTITUDE_TARGET
[21:35:03.742500] [205] VFR_HUD
[21:35:04.467679] [206] VFR_HUD
[21:35:04.687694] [207] HEARTBEAT
[21:35:04.800709] [92] RADIO
[21:35:04.803801] [92] RADIO_STATUS
[21:35:05.276777] [208] VFR_HUD
[21:35:05.720887] [93] RADIO
[21:35:05.723791] [93] RADIO_STATUS
[21:35:05.768875] [209] HEARTBEAT
[21:35:05.775914] [210] ATTITUDE_TARGET
[21:35:06.070883] [211] VFR_HUD
[21:35:06.652008] [212] HEARTBEAT
[21:35:06.759986] [94] RADIO
[21:35:06.763078] [94] RADIO_STATUS
[21:35:06.881084] [213] VFR_HUD
[21:35:07.790208] [95] RADIO
[21:35:07.793208] [95] RADIO_STATUS
[21:35:07.859249] [216] BATTERY_STATUS
[21:35:07.867204] [217] ATTITUDE_TARGET
[21:35:07.872386] [218] VFR_HUD
[21:35:08.709377] [96] RADIO
[21:35:08.712354] [96] RADIO_STATUS
[21:35:08.754399] [219] VFR_HUD
[21:35:08.756330] [220] HEARTBEAT
[21:35:09.290470] [221] VFR_HUD
[21:35:09.759629] [222] HEARTBEAT
[21:35:09.766546] [223] ATTITUDE_TARGET
[21:35:09.858606] [97] RADIO
[21:35:09.861555] [97] RADIO_STATUS
[21:35:09.943368] JAMMING_START
[21:35:10.099578] [224] VFR_HUD
[21:35:10.664682] [225] HEARTBEAT
[21:35:10.778717] [98] RADIO
[21:35:10.781624] [98] RADIO_STATUS
[21:35:10.898709] [226] VFR_HUD
[21:35:11.697782] [99] RADIO
[21:35:11.700758] [99] RADIO_STATUS
[21:35:11.761952] [227] HEARTBEAT
[21:35:11.767799] [228] SYS_STATUS
[21:35:11.775906] [229] BATTERY_STATUS
[21:35:11.777760] [230] EXTENDED_SYS_STATE
[21:35:11.794805] [231] ATTITUDE_TARGET
[21:35:11.798784] [232] VFR_HUD
[21:35:11.802788] [233] SYSTEM_TIME
[21:35:12.507900] [234] VFR_HUD
[21:35:12.734025] [235] HEARTBEAT
[21:35:12.847282] [100] RADIO
[21:35:12.849927] [100] RADIO_STATUS
[21:35:13.322995] [236] VFR_HUD
[21:35:13.659050] [237] HEARTBEAT
[21:35:13.681082] [238] ATTITUDE_TARGET
[21:35:13.706016] [101] RADIO
[21:35:13.709020] [101] RADIO_STATUS
[21:35:14.117202] [239] VFR_HUD
[21:35:14.686285] [102] RADIO
[21:35:14.689180] [102] RADIO_STATUS
[21:35:14.802288] [240] HEARTBEAT
[21:35:14.932301] [241] VFR_HUD
[21:35:15.835416] [103] RADIO
[21:35:15.838406] [103] RADIO_STATUS
[21:35:15.905483] [244] BATTERY_STATUS
[21:35:15.913413] [245] ATTITUDE_TARGET
[21:35:15.917405] [246] VFR_HUD
[21:35:16.651553] [247] VFR_HUD
[21:35:16.674549] [248] HEARTBEAT
[21:35:16.696574] [104] RADIO
[21:35:16.699485] [104] RADIO_STATUS
[21:35:17.348994] [249] VFR_HUD
[21:35:17.694751] [250] HEARTBEAT
[21:35:17.702764] [251] ATTITUDE_TARGET
[21:35:17.822791] [105] RADIO
[21:35:17.825661] [105] RADIO_STATUS
[21:35:18.145014] [252] VFR_HUD
[21:35:18.710910] [253] HEARTBEAT
[21:35:18.741940] [106] RADIO
[21:35:18.745179] [106] RADIO_STATUS
[21:35:18.945867] [254] VFR_HUD
[21:35:19.744252] [107] RADIO
[21:35:19.747086] [107] RADIO_STATUS
[21:35:19.872061] [255] HEARTBEAT
[21:35:19.879050] [0] SYS_STATUS
[21:35:19.999131] [1] BATTERY_STATUS
[21:35:20.111080] [2] ATTITUDE_TARGET
[21:35:20.116086] [3] VFR_HUD
[21:35:20.554175] [4] VFR_HUD
[21:35:20.669192] [5] HEARTBEAT
[21:35:20.788209] [108] RADIO
[21:35:20.791162] [108] RADIO_STATUS
[21:35:21.363264] [6] VFR_HUD
[21:35:21.713341] [7] HEARTBEAT
[21:35:21.720302] [8] ATTITUDE_TARGET
[21:35:21.730325] [109] RADIO
[21:35:21.733304] [109] RADIO_STATUS
[21:35:22.058369] [9] VFR_HUD
[21:35:22.732489] [110] RADIO
[21:35:22.735462] [110] RADIO_STATUS
[21:35:22.848540] [10] HEARTBEAT
[21:35:22.873501] [11] VFR_HUD
[21:35:23.675646] [12] HEARTBEAT
[21:35:23.682676] [13] SYS_STATUS
[21:35:23.721666] [14] BATTERY_STATUS
[21:35:23.729694] [15] ATTITUDE_TARGET
[21:35:23.734623] [16] VFR_HUD
[21:35:23.883679] [111] RADIO
[21:35:23.886616] [111] RADIO_STATUS
[21:35:24.699786] [17] VFR_HUD
[21:35:24.702785] [18] HEARTBEAT
[21:35:24.803922] [112] RADIO
[21:35:24.805850] [112] RADIO_STATUS
[21:35:25.273926] [19] VFR_HUD
[21:35:25.743023] [20] HEARTBEAT
[21:35:25.751010] [21] ATTITUDE_TARGET
[21:35:25.870955] [113] RADIO
[21:35:25.873984] [113] RADIO_STATUS
[21:35:26.654177] [23] HEARTBEAT
[21:35:26.762194] [114] RADIO
[21:35:26.765125] [114] RADIO_STATUS
[21:35:26.883149] [24] VFR_HUD
[21:35:27.690395] [25] HEARTBEAT
[21:35:27.696343] [26] SYS_STATUS
[21:35:27.791272] [115] RADIO
[21:35:27.794281] [115] RADIO_STATUS
[21:35:27.832328] [27] BATTERY_STATUS
[21:35:27.859315] [28] ATTITUDE_TARGET
[21:35:27.864306] [29] VFR_HUD
[21:35:28.492383] [30] VFR_HUD
[21:35:28.722479] [31] HEARTBEAT
[21:35:28.831426] [116] RADIO
[21:35:28.834432] [116] RADIO_STATUS
[21:35:29.291566] [32] VFR_HUD
[21:35:29.760612] [33] HEARTBEAT
[21:35:29.768611] [34] ATTITUDE_TARGET
[21:35:29.861956] [117] RADIO
[21:35:29.863629] [117] RADIO_STATUS
[21:35:30.106628] [35] VFR_HUD
[21:35:30.779778] [118] RADIO
[21:35:30.782716] [118] RADIO_STATUS
[21:35:30.900793] [37] VFR_HUD
[21:35:31.722883] [38] HEARTBEAT
[21:35:31.730073] [39] SYS_STATUS
[21:35:31.764881] [40] BATTERY_STATUS
[21:35:31.766968] [41] EXTENDED_SYS_STATE
[21:35:31.773957] [42] ATTITUDE_TARGET
[21:35:31.778898] [43] VFR_HUD
[21:35:31.782915] [44] SYSTEM_TIME
[21:35:31.930344] [119] RADIO
[21:35:31.932987] [119] RADIO_STATUS
[21:35:32.510037] [45] VFR_HUD
[21:35:32.736069] [46] HEARTBEAT
[21:35:32.853573] [120] RADIO
[21:35:32.853729] [120] RADIO_STATUS
[21:35:33.430156] [47] VFR_HUD
[21:35:33.655520] [48] HEARTBEAT
[21:35:33.678217] [49] ATTITUDE_TARGET
[21:35:33.889249] [121] RADIO
[21:35:33.892194] [121] RADIO_STATUS
[21:35:34.699437] [51] HEARTBEAT
[21:35:34.808351] [122] RADIO
[21:35:34.811363] [122] RADIO_STATUS
[21:35:34.929576] [52] VFR_HUD
[21:35:35.736652] [53] HEARTBEAT
[21:35:35.743595] [54] SYS_STATUS
[21:35:35.837629] [123] RADIO
[21:35:35.840615] [123] RADIO_STATUS
[21:35:35.907530] [55] BATTERY_STATUS
[21:35:35.915636] [56] ATTITUDE_TARGET
[21:35:35.920521] [57] VFR_HUD
[21:35:36.648796] [58] VFR_HUD
[21:35:36.676597] [59] HEARTBEAT
[21:35:36.877600] [124] RADIO
[21:35:36.880610] [124] RADIO_STATUS
[21:35:37.337681] [60] VFR_HUD
[21:35:37.696835] [61] HEARTBEAT
[21:35:37.704756] [62] ATTITUDE_TARGET
[21:35:37.906957] [125] RADIO
[21:35:37.910004] [125] RADIO_STATUS
[21:35:38.147824] [63] VFR_HUD
[21:35:38.826074] [126] RADIO
[21:35:38.828934] [126] RADIO_STATUS
[21:35:38.865006] [65] VFR_HUD
[21:35:39.764095] [66] HEARTBEAT
[21:35:39.771102] [67] SYS_STATUS
[21:35:39.976134] [127] RADIO
[21:35:39.979178] [127] RADIO_STATUS
[21:35:40.556270] [71] VFR_HUD
[21:35:40.672242] [72] HEARTBEAT
[21:35:40.895244] [128] RADIO
[21:35:40.898187] [128] RADIO_STATUS
[21:35:41.371366] [73] VFR_HUD
[21:35:41.717815] [74] HEARTBEAT
[21:35:41.722391] [75] ATTITUDE_TARGET
[21:35:41.814404] [129] RADIO
[21:35:41.817371] [129] RADIO_STATUS
[21:35:42.740648] [77] HEARTBEAT
[21:35:42.860571] [78] VFR_HUD
[21:35:42.887581] [130] RADIO
[21:35:42.890578] [130] RADIO_STATUS
[21:35:43.672919] [79] HEARTBEAT
[21:35:43.678710] [80] SYS_STATUS
[21:35:43.797812] [81] BATTERY_STATUS
[21:35:43.805805] [82] ATTITUDE_TARGET
[21:35:43.835871] [83] VFR_HUD
[21:35:43.862848] [131] RADIO
[21:35:43.865774] [131] RADIO_STATUS
[21:35:44.689953] [85] HEARTBEAT
[21:35:44.922987] [132] RADIO
[21:35:44.925999] [132] RADIO_STATUS
[21:35:45.274033] [86] VFR_HUD
[21:35:45.743081] [87] HEARTBEAT
[21:35:45.751108] [88] ATTITUDE_TARGET
[21:35:45.871070] [133] RADIO
[21:35:45.874045] [133] RADIO_STATUS
[21:35:46.074126] [89] VFR_HUD
[21:35:46.872235] [134] RADIO
[21:35:46.875171] [134] RADIO_STATUS
[21:35:46.993356] [91] VFR_HUD
[21:35:47.690397] [92] HEARTBEAT
[21:35:47.697440] [93] SYS_STATUS
[21:35:47.812538] [94] BATTERY_STATUS
[21:35:48.022446] [135] RADIO
[21:35:48.025612] [135] RADIO_STATUS
[21:35:48.497566] [97] VFR_HUD
[21:35:48.717607] [98] HEARTBEAT
[21:35:48.941822] [136] RADIO
[21:35:48.944580] [136] RADIO_STATUS
[21:35:49.291633] [99] VFR_HUD
[21:35:49.760751] [100] HEARTBEAT
[21:35:49.768738] [101] ATTITUDE_TARGET
[21:35:49.860711] [137] RADIO
[21:35:49.863699] [137] RADIO_STATUS
[21:35:50.106784] [102] VFR_HUD
[21:35:50.675892] [103] HEARTBEAT
[21:35:50.900903] [104] VFR_HUD
[21:35:50.933865] [138] RADIO
[21:35:50.936864] [138] RADIO_STATUS
[21:35:51.724112] [105] HEARTBEAT
[21:35:51.730083] [106] SYS_STATUS
[21:35:51.765123] [107] BATTERY_STATUS
[21:35:51.766043] [108] EXTENDED_SYS_STATE
[21:35:51.774114] [109] ATTITUDE_TARGET
[21:35:51.779067] [110] VFR_HUD
[21:35:51.783061] [111] SYSTEM_TIME
[21:35:51.930174] [139] RADIO
[21:35:51.933090] [139] RADIO_STATUS
[21:35:52.736277] [113] HEARTBEAT
[21:35:52.974306] [140] RADIO
[21:35:52.977231] [140] RADIO_STATUS
[21:35:53.320374] [114] VFR_HUD
[21:35:53.793968] [116] ATTITUDE_TARGET
[21:35:53.894474] [141] RADIO
[21:35:53.897486] [141] RADIO_STATUS
[21:35:54.119459] [117] VFR_HUD
[21:35:54.700608] [118] HEARTBEAT
[21:35:54.918566] [142] RADIO
[21:35:54.921559] [142] RADIO_STATUS
[21:35:55.039567] [119] VFR_HUD
[21:35:55.736735] [120] HEARTBEAT
[21:35:55.743739] [121] SYS_STATUS
[21:35:55.862799] [122] BATTERY_STATUS
[21:35:56.067807] [143] RADIO
[21:35:56.070767] [143] RADIO_STATUS
[21:35:56.538878] [125] VFR_HUD
[21:35:56.768915] [126] HEARTBEAT
[21:35:56.986999] [144] RADIO
[21:35:56.989992] [144] RADIO_STATUS
[21:35:57.338032] [127] VFR_HUD
[21:35:57.702065] [128] HEARTBEAT
[21:35:57.710063] [129] ATTITUDE_TARGET
[21:35:57.907051] [145] RADIO
[21:35:57.910035] [145] RADIO_STATUS
[21:35:58.147190] [130] VFR_HUD
[21:35:58.712211] [131] HEARTBEAT
[21:35:58.949093] [132] VFR_HUD
[21:35:58.974244] [146] RADIO
[21:35:58.977249] [146] RADIO_STATUS
[21:35:59.769405] [133] HEARTBEAT
[21:35:59.775335] [134] SYS_STATUS
[21:35:59.815382] [135] BATTERY_STATUS
[21:35:59.823367] [136] ATTITUDE_TARGET
[21:35:59.828344] [137] VFR_HUD
[21:35:59.975422] [147] RADIO
[21:35:59.978327] [147] RADIO_STATUS
[21:36:00.681533] [138] VFR_HUD
[21:36:00.684559] [139] HEARTBEAT
[21:36:01.014553] [148] RADIO
[21:36:01.017522] [148] RADIO_STATUS
[21:36:01.370654] [140] VFR_HUD
[21:36:01.838737] [141] HEARTBEAT
[21:36:01.846720] [142] ATTITUDE_TARGET
[21:36:01.934742] [149] RADIO
[21:36:01.937700] [149] RADIO_STATUS
[21:36:02.164756] [143] VFR_HUD
[21:36:02.741065] [144] HEARTBEAT
[21:36:02.963850] [150] RADIO
[21:36:02.966822] [150] RADIO_STATUS
[21:36:03.672100] [146] HEARTBEAT
[21:36:03.679081] [147] SYS_STATUS
[21:36:03.797037] [148] BATTERY_STATUS
[21:36:03.805040] [149] ATTITUDE_TARGET
[21:36:03.834997] [150] VFR_HUD
[21:36:04.113108] [151] RADIO
[21:36:04.115982] [151] RADIO_STATUS
[21:36:04.464248] [151] VFR_HUD
[21:36:04.689112] [152] HEARTBEAT
[21:36:05.033131] [152] RADIO
[21:36:05.036120] [152] RADIO_STATUS
[21:36:05.273266] [153] VFR_HUD
[21:36:05.742211] [154] HEARTBEAT
[21:36:05.750233] [155] ATTITUDE_TARGET
[21:36:05.952250] [153] RADIO
[21:36:05.955227] [153] RADIO_STATUS
[21:36:06.073251] [156] VFR_HUD
[21:36:06.758436] [157] HEARTBEAT
[21:36:06.888563] [158] VFR_HUD
[21:36:07.003449] [154] RADIO
[21:36:07.006457] [154] RADIO_STATUS
[21:36:07.689566] [159] HEARTBEAT
[21:36:07.696555] [160] SYS_STATUS
[21:36:07.811579] [161] BATTERY_STATUS
[21:36:07.928645] [162] ATTITUDE_TARGET
[21:36:07.933890] [163] VFR_HUD
[21:36:08.021594] [155] RADIO
[21:36:08.024563] [155] RADIO_STATUS
[21:36:08.496736] [164] VFR_HUD
[21:36:08.716730] [165] HEARTBEAT
[21:36:09.060776] [156] RADIO
[21:36:09.065660] [156] RADIO_STATUS
[21:36:09.291816] [166] VFR_HUD
[21:36:09.880027] [167] HEARTBEAT
[21:36:09.888017] [168] ATTITUDE_TARGET
[21:36:09.980973] [157] RADIO
[21:36:09.983937] [157] RADIO_STATUS
[21:36:10.106985] [169] VFR_HUD
[21:36:10.667115] [170] HEARTBEAT
[21:36:11.010162] [158] RADIO
[21:36:11.013097] [158] RADIO_STATUS
[21:36:11.718315] [172] HEARTBEAT
[21:36:11.725237] [173] SYS_STATUS
[21:36:11.846296] [174] BATTERY_STATUS
[21:36:11.848221] [175] EXTENDED_SYS_STATE
[21:36:11.856248] [176] ATTITUDE_TARGET
[21:36:11.861313] [177] VFR_HUD
[21:36:11.864221] [178] SYSTEM_TIME
[21:36:12.159369] [159] RADIO
[21:36:12.162309] [159] RADIO_STATUS
[21:36:12.510413] [179] VFR_HUD
[21:36:12.735597] [180] HEARTBEAT
[21:36:12.974478] [160] RADIO
[21:36:12.977436] [160] RADIO_STATUS
[21:36:13.319492] [181] VFR_HUD
[21:36:13.655616] [182] HEARTBEAT
[21:36:13.677621] [183] ATTITUDE_TARGET
[21:36:13.998630] [161] RADIO
[21:36:14.001619] [161] RADIO_STATUS
[21:36:14.119745] [184] VFR_HUD
[21:36:14.699796] [185] HEARTBEAT
[21:36:14.928751] [186] VFR_HUD
[21:36:15.043788] [162] RADIO
[21:36:15.045779] [162] RADIO_STATUS
[21:36:15.735916] [187] HEARTBEAT
[21:36:15.742878] [188] SYS_STATUS
[21:36:15.858049] [189] BATTERY_STATUS
[21:36:15.975034] [190] ATTITUDE_TARGET
[21:36:15.979982] [191] VFR_HUD
[21:36:16.013983] [163] RADIO
[21:36:16.016965] [163] RADIO_STATUS
[21:36:16.538023] [192] VFR_HUD
[21:36:16.769064] [193] HEARTBEAT
[21:36:16.987061] [164] RADIO
[21:36:16.990019] [164] RADIO_STATUS
[21:36:17.337185] [194] VFR_HUD
[21:36:17.702244] [195] HEARTBEAT
[21:36:17.709226] [196] ATTITUDE_TARGET
[21:36:18.031280] [165] RADIO
[21:36:18.034298] [165] RADIO_STATUS
[21:36:18.152252] [197] VFR_HUD
[21:36:18.712390] [198] HEARTBEAT
[21:36:19.055388] [166] RADIO
[21:36:19.058374] [166] RADIO_STATUS
[21:36:19.768517] [200] HEARTBEAT
[21:36:19.775526] [201] SYS_STATUS
[21:36:19.815614] [202] BATTERY_STATUS
[21:36:19.823527] [203] ATTITUDE_TARGET
[21:36:19.827548] [204] VFR_HUD
[21:36:20.205613] [167] RADIO
[21:36:20.208590] [167] RADIO_STATUS
[21:36:20.555645] [205] VFR_HUD
[21:36:20.676665] [206] HEARTBEAT
[21:36:21.020673] [168] RADIO
[21:36:21.023650] [168] RADIO_STATUS
[21:36:21.370797] [207] VFR_HUD
[21:36:21.714849] [208] HEARTBEAT
[21:36:21.722844] [209] ATTITUDE_TARGET
[21:36:22.044119] [169] RADIO
[21:36:22.046931] [169] RADIO_STATUS
[21:36:22.164896] [210] VFR_HUD
[21:36:22.745025] [211] HEARTBEAT
[21:36:22.853975] [212] VFR_HUD
[21:36:23.089011] [170] RADIO
[21:36:23.092019] [170] RADIO_STATUS
[21:36:23.672179] [213] HEARTBEAT
[21:36:23.678132] [214] SYS_STATUS
[21:36:23.797200] [215] BATTERY_STATUS
[21:36:23.805167] [216] ATTITUDE_TARGET
[21:36:23.835192] [217] VFR_HUD
[21:36:24.113217] [171] RADIO
[21:36:24.116264] [171] RADIO_STATUS
[21:36:24.463333] [218] VFR_HUD
[21:36:25.032394] [172] RADIO
[21:36:25.035389] [172] RADIO_STATUS
[21:36:25.278404] [220] VFR_HUD
[21:36:25.741545] [221] HEARTBEAT
[21:36:25.749518] [222] ATTITUDE_TARGET
[21:36:26.072555] [223] VFR_HUD
[21:36:26.105896] [173] RADIO
[21:36:26.107574] [173] RADIO_STATUS
[21:36:26.757730] [224] HEARTBEAT
[21:36:26.886762] [225] VFR_HUD
[21:36:27.100776] [174] RADIO
[21:36:27.103726] [174] RADIO_STATUS
[21:36:27.688883] [226] HEARTBEAT
[21:36:27.695866] [227] SYS_STATUS
[21:36:27.810835] [228] BATTERY_STATUS
[21:36:27.927956] [229] ATTITUDE_TARGET
[21:36:27.932854] [230] VFR_HUD
[21:36:28.020882] [175] RADIO
[21:36:28.023832] [175] RADIO_STATUS
[21:36:28.497087] [231] VFR_HUD
[21:36:28.716065] [232] HEARTBEAT
[21:36:29.059093] [176] RADIO
[21:36:29.062001] [176] RADIO_STATUS
[21:36:29.759127] [234] HEARTBEAT
[21:36:29.767096] [235] ATTITUDE_TARGET
[21:36:30.089104] [177] RADIO
[21:36:30.092102] [177] RADIO_STATUS
[21:36:30.210153] [236] VFR_HUD
[21:36:30.665315] [237] HEARTBEAT
[21:36:30.899315] [238] VFR_HUD
[21:36:31.128362] [178] RADIO
[21:36:31.131307] [178] RADIO_STATUS
[21:36:31.716428] [239] HEARTBEAT
[21:36:31.723495] [240] SYS_STATUS
[21:36:31.845544] [241] BATTERY_STATUS
[21:36:31.846447] [242] EXTENDED_SYS_STATE
[21:36:31.854541] [243] ATTITUDE_TARGET
[21:36:31.859490] [244] VFR_HUD
[21:36:31.862434] [245] SYSTEM_TIME
[21:36:32.048549] [179] RADIO
[21:36:32.051438] [179] RADIO_STATUS
[21:36:32.508654] [246] VFR_HUD
[21:36:33.077678] [180] RADIO
[21:36:33.080764] [180] RADIO_STATUS
[21:36:33.428812] [248] VFR_HUD
[21:36:33.653807] [249] HEARTBEAT
[21:36:33.676751] [250] ATTITUDE_TARGET
[21:36:34.117876] [251] VFR_HUD
[21:36:34.144897] [181] RADIO
[21:36:34.147799] [181] RADIO_STATUS
[21:36:34.693064] [252] HEARTBEAT
[21:36:34.928021] [253] VFR_HUD
[21:36:35.147047] [182] RADIO
[21:36:35.149975] [182] RADIO_STATUS
[21:36:35.735129] [254] HEARTBEAT
[21:36:35.741144] [255] SYS_STATUS
[21:36:35.856145] [0] BATTERY_STATUS
[21:36:35.973357] [1] ATTITUDE_TARGET
[21:36:35.978183] [2] VFR_HUD
[21:36:36.066196] [183] RADIO
[21:36:36.069186] [183] RADIO_STATUS
[21:36:36.542268] [3] VFR_HUD
[21:36:36.653343] [4] HEARTBEAT
[21:36:37.105336] [184] RADIO
[21:36:37.108315] [184] RADIO_STATUS
[21:36:37.700463] [6] HEARTBEAT
[21:36:37.709786] [7] ATTITUDE_TARGET
[21:36:38.135549] [185] RADIO
[21:36:38.138546] [185] RADIO_STATUS
[21:36:38.173470] [8] VFR_HUD
[21:36:38.711663] [9] HEARTBEAT
[21:36:38.945611] [10] VFR_HUD
[21:36:39.174676] [186] RADIO
[21:36:39.177649] [186] RADIO_STATUS
[21:36:39.767819] [11] HEARTBEAT
[21:36:39.774723] [12] SYS_STATUS
[21:36:39.813845] [13] BATTERY_STATUS
[21:36:39.821794] [14] ATTITUDE_TARGET
[21:36:39.826726] [15] VFR_HUD
[21:36:40.099787] [187] RADIO
[21:36:40.102770] [187] RADIO_STATUS
[21:36:40.685959] [16] VFR_HUD
[21:36:40.688873] [17] HEARTBEAT
[21:36:41.123969] [188] RADIO
[21:36:41.127006] [188] RADIO_STATUS
[21:36:41.364032] [18] VFR_HUD
[21:36:41.714068] [19] HEARTBEAT
[21:36:41.721036] [20] ATTITUDE_TARGET
[21:36:42.164117] [21] VFR_HUD
[21:36:42.196156] [189] RADIO
[21:36:42.199116] [189] RADIO_STATUS
[21:36:42.744390] [22] HEARTBEAT
[21:36:42.973271] [23] VFR_HUD
[21:36:43.192472] [190] RADIO
[21:36:43.195375] [190] RADIO_STATUS
[21:36:43.676565] [24] HEARTBEAT
[21:36:43.682428] [25] SYS_STATUS
[21:36:43.722378] [26] BATTERY_STATUS
[21:36:43.730447] [27] ATTITUDE_TARGET
[21:36:43.735414] [28] VFR_HUD
[21:36:44.113116] [191] RADIO
[21:36:44.115442] [191] RADIO_STATUS
[21:36:44.698540] [29] VFR_HUD
[21:36:44.701571] [30] HEARTBEAT
[21:36:45.157829] [192] RADIO
[21:36:45.160694] [192] RADIO_STATUS
[21:36:45.277650] [31] VFR_HUD
[21:36:45.746780] [32] HEARTBEAT
[21:36:45.754757] [33] ATTITUDE_TARGET
[21:36:46.072771] [34] VFR_HUD
[21:36:46.104808] [193] RADIO
[21:36:46.107780] [193] RADIO_STATUS
[21:36:46.758085] [35] HEARTBEAT
[21:36:46.886880] [36] VFR_HUD
[21:36:47.225935] [194] RADIO
[21:36:47.228920] [194] RADIO_STATUS
[21:36:47.816129] [39] BATTERY_STATUS
[21:36:47.928081] [40] ATTITUDE_TARGET
[21:36:47.933063] [41] VFR_HUD
[21:36:48.146075] [195] RADIO
[21:36:48.149087] [195] RADIO_STATUS
[21:36:48.491107] [42] VFR_HUD
[21:36:48.717267] [43] HEARTBEAT
[21:36:49.170271] [196] RADIO
[21:36:49.173170] [196] RADIO_STATUS
[21:36:49.291224] [44] VFR_HUD
[21:36:49.760382] [45] HEARTBEAT
[21:36:49.768366] [46] ATTITUDE_TARGET
[21:36:50.100354] [47] VFR_HUD
[21:36:50.217773] [197] RADIO
[21:36:50.218358] [197] RADIO_STATUS
[21:36:50.666513] [48] HEARTBEAT
[21:36:50.900488] [49] VFR_HUD
[21:36:51.239571] [198] RADIO
[21:36:51.242547] [198] RADIO_STATUS
[21:36:51.717665] [50] HEARTBEAT
[21:36:51.723636] [51] SYS_STATUS
[21:36:51.845683] [52] BATTERY_STATUS
[21:36:51.847594] [53] EXTENDED_SYS_STATE
[21:36:51.854700] [54] ATTITUDE_TARGET
[21:36:51.859666] [55] VFR_HUD
[21:36:51.863699] [56] SYSTEM_TIME
[21:36:52.158738] [199] RADIO
[21:36:52.161652] [199] RADIO_STATUS
[21:36:52.509786] [57] VFR_HUD
[21:36:52.734872] [58] HEARTBEAT
[21:36:53.197901] [200] RADIO
[21:36:53.200838] [200] RADIO_STATUS
[21:36:53.319028] [59] VFR_HUD
[21:36:53.668018] [60] HEARTBEAT
[21:36:53.675994] [61] ATTITUDE_TARGET
[21:36:54.119046] [62] VFR_HUD
[21:36:54.146049] [201] RADIO
[21:36:54.149044] [201] RADIO_STATUS
[21:36:54.694182] [63] HEARTBEAT
[21:36:54.933186] [64] VFR_HUD
[21:36:55.272272] [202] RADIO
[21:36:55.275290] [202] RADIO_STATUS
[21:36:55.856573] [67] BATTERY_STATUS
[21:36:55.974381] [68] ATTITUDE_TARGET
[21:36:55.979289] [69] VFR_HUD
[21:36:56.187406] [203] RADIO
[21:36:56.190515] [203] RADIO_STATUS
[21:36:56.542533] [70] VFR_HUD
[21:36:56.654485] [71] HEARTBEAT
[21:36:57.216524] [204] RADIO
[21:36:57.219721] [204] RADIO_STATUS
[21:36:57.337595] [72] VFR_HUD
[21:36:57.696641] [73] HEARTBEAT
[21:36:57.703615] [74] ATTITUDE_TARGET
[21:36:58.151661] [75] VFR_HUD
[21:36:58.267647] [205] RADIO
[21:36:58.270659] [205] RADIO_STATUS
[21:36:58.713112] [76] HEARTBEAT
[21:36:58.946804] [77] VFR_HUD
[21:36:59.284867] [206] RADIO
[21:36:59.288285] [206] RADIO_STATUS
[21:36:59.762925] [78] HEARTBEAT
[21:36:59.769915] [79] SYS_STATUS
[21:36:59.889027] [80] BATTERY_STATUS
[21:36:59.895924] [81] ATTITUDE_TARGET
[21:36:59.927032] [82] VFR_HUD
[21:37:00.205063] [207] RADIO
[21:37:00.207988] [207] RADIO_STATUS
[21:37:00.556128] [83] VFR_HUD
[21:37:00.676079] [84] HEARTBEAT
[21:37:01.244203] [208] RADIO
[21:37:01.247362] [208] RADIO_STATUS
[21:37:01.365232] [85] VFR_HUD
[21:37:01.714567] [86] HEARTBEAT
[21:37:01.722307] [87] ATTITUDE_TARGET
[21:37:02.060328] [88] VFR_HUD
[21:37:02.274365] [209] RADIO
[21:37:02.277256] [209] RADIO_STATUS
[21:37:02.745410] [89] HEARTBEAT
[21:37:02.974513] [90] VFR_HUD
[21:37:03.193486] [210] RADIO
[21:37:03.196481] [210] RADIO_STATUS
[21:37:03.676599] [91] HEARTBEAT
[21:37:03.683625] [92] SYS_STATUS
[21:37:03.723570] [93] BATTERY_STATUS
[21:37:03.730588] [94] ATTITUDE_TARGET
[21:37:03.735536] [95] VFR_HUD
[21:37:04.234676] [211] RADIO
[21:37:04.237624] [211] RADIO_STATUS
[21:37:04.700721] [96] VFR_HUD
[21:37:04.703720] [97] HEARTBEAT
[21:37:05.263885] [212] RADIO
[21:37:05.266828] [212] RADIO_STATUS
[21:37:05.302875] [98] VFR_HUD
[21:37:05.748889] [99] HEARTBEAT
[21:37:05.756940] [100] ATTITUDE_TARGET
[21:37:06.304060] [213] RADIO
[21:37:06.307089] [213] RADIO_STATUS
[21:37:06.655071] [102] HEARTBEAT
[21:37:06.884074] [103] VFR_HUD
[21:37:07.333264] [214] RADIO
[21:37:07.336081] [214] RADIO_STATUS
[21:37:07.691261] [104] HEARTBEAT
[21:37:07.698319] [105] SYS_STATUS
[21:37:07.818251] [106] BATTERY_STATUS
[21:37:07.930294] [107] ATTITUDE_TARGET
[21:37:07.935254] [108] VFR_HUD
[21:37:08.253296] [215] RADIO
[21:37:08.256274] [215] RADIO_STATUS
[21:37:08.493506] [109] VFR_HUD
[21:37:08.724485] [110] HEARTBEAT
[21:37:09.293618] [111] VFR_HUD
[21:37:09.325528] [216] RADIO
[21:37:09.328514] [216] RADIO_STATUS
[21:37:09.762652] [112] HEARTBEAT
[21:37:09.770661] [113] ATTITUDE_TARGET
[21:37:10.102887] [114] VFR_HUD
[21:37:10.217664] [217] RADIO
[21:37:10.220657] [217] RADIO_STATUS
[21:37:10.902948] [116] VFR_HUD
[21:37:11.241855] [218] RADIO
[21:37:11.244804] [218] RADIO_STATUS
[21:37:11.719990] [117] HEARTBEAT
[21:37:11.725921] [118] SYS_STATUS
[21:37:12.286004] [219] RADIO
[21:37:12.289019] [219] RADIO_STATUS
[21:37:12.512101] [124] VFR_HUD
[21:37:12.737166] [125] HEARTBEAT
[21:37:13.310189] [220] RADIO
[21:37:13.313132] [220] RADIO_STATUS
[21:37:13.349173] [126] VFR_HUD
[21:37:13.670220] [127] HEARTBEAT
[21:37:13.678198] [128] ATTITUDE_TARGET
[21:37:14.355410] [221] RADIO
[21:37:14.358327] [221] RADIO_STATUS
[21:37:14.696462] [130] HEARTBEAT
[21:37:14.935527] [131] VFR_HUD
[21:37:15.379488] [222] RADIO
[21:37:15.382515] [222] RADIO_STATUS
[21:37:15.737550] [132] HEARTBEAT
[21:37:15.744578] [133] SYS_STATUS
[21:37:15.864560] [134] BATTERY_STATUS
[21:37:15.976620] [135] ATTITUDE_TARGET
[21:37:15.982068] [136] VFR_HUD
[21:37:16.299818] [223] RADIO
[21:37:16.302682] [223] RADIO_STATUS
[21:37:16.544663] [137] VFR_HUD
[21:37:16.656643] [138] HEARTBEAT
[21:37:17.339774] [139] VFR_HUD
[21:37:17.371732] [224] RADIO
[21:37:17.374696] [224] RADIO_STATUS
[21:37:17.698857] [140] HEARTBEAT
[21:37:17.705809] [141] ATTITUDE_TARGET
[21:37:18.148988] [142] VFR_HUD
[21:37:18.257935] [225] RADIO
[21:37:18.260954] [225] RADIO_STATUS
[21:37:18.949103] [144] VFR_HUD
[21:37:19.288371] [226] RADIO
[21:37:19.291081] [226] RADIO_STATUS
[21:37:19.766262] [145] HEARTBEAT
[21:37:19.772169] [146] SYS_STATUS
[21:37:20.327314] [227] RADIO
[21:37:20.330264] [227] RADIO_STATUS
[21:37:20.558357] [150] VFR_HUD
[21:37:20.673315] [151] HEARTBEAT
[21:37:21.356533] [228] RADIO
[21:37:21.359520] [228] RADIO_STATUS
[21:37:21.397465] [152] VFR_HUD
[21:37:21.716719] [153] HEARTBEAT
[21:37:21.724538] [154] ATTITUDE_TARGET
[21:37:22.062608] [155] VFR_HUD
[21:37:22.275577] [229] RADIO
[21:37:22.278588] [229] RADIO_STATUS
[21:37:22.741695] [156] HEARTBEAT
[21:37:22.856692] [157] VFR_HUD
[21:37:23.425779] [230] RADIO
[21:37:23.427685] [230] RADIO_STATUS
[21:37:23.678979] [158] HEARTBEAT
[21:37:23.685797] [159] SYS_STATUS
[21:37:23.724797] [160] BATTERY_STATUS
[21:37:23.732781] [161] ATTITUDE_TARGET
[21:37:23.737800] [162] VFR_HUD
[21:37:24.345046] [231] RADIO
[21:37:24.347863] [231] RADIO_STATUS
[21:37:24.701127] [163] VFR_HUD
[21:37:24.703945] [164] HEARTBEAT
[21:37:25.275025] [165] VFR_HUD
[21:37:25.384154] [232] RADIO
[21:37:25.386970] [232] RADIO_STATUS
[21:37:25.749086] [166] HEARTBEAT
[21:37:25.757084] [167] ATTITUDE_TARGET
[21:37:26.075277] [168] VFR_HUD
[21:37:26.304153] [233] RADIO
[21:37:26.307101] [233] RADIO_STATUS
[21:37:26.655237] [169] HEARTBEAT
[21:37:26.884272] [170] VFR_HUD
[21:37:27.333541] [234] RADIO
[21:37:27.336342] [234] RADIO_STATUS
[21:37:27.691636] [171] HEARTBEAT
[21:37:27.698397] [172] SYS_STATUS
[21:37:27.818427] [173] BATTERY_STATUS
[21:37:28.049471] [174] ATTITUDE_TARGET
[21:37:28.054422] [175] VFR_HUD
[21:37:28.373525] [235] RADIO
[21:37:28.375444] [235] RADIO_STATUS
[21:37:28.493782] [176] VFR_HUD
[21:37:28.724566] [177] HEARTBEAT
[21:37:29.293667] [178] VFR_HUD
[21:37:29.320809] [236] RADIO
[21:37:29.323714] [236] RADIO_STATUS
[21:37:29.762805] [179] HEARTBEAT
[21:37:29.770710] [180] ATTITUDE_TARGET
[21:37:30.102742] [181] VFR_HUD
[21:37:30.322830] [237] RADIO
[21:37:30.324784] [237] RADIO_STATUS
[21:37:30.668965] [182] HEARTBEAT
[21:37:30.902875] [183] VFR_HUD
[21:37:31.471092] [238] RADIO
[21:37:31.473990] [238] RADIO_STATUS
[21:37:31.725056] [184] HEARTBEAT
[21:37:31.731260] [185] SYS_STATUS
[21:37:31.766006] [186] BATTERY_STATUS
[21:37:31.767999] [187] EXTENDED_SYS_STATE
[21:37:31.775046] [188] ATTITUDE_TARGET
[21:37:31.780037] [189] VFR_HUD
[21:37:31.784045] [190] SYSTEM_TIME
[21:37:32.391114] [239] RADIO
[21:37:32.394060] [239] RADIO_STATUS
[21:37:32.737206] [192] HEARTBEAT
[21:37:33.327284] [240] RADIO
[21:37:33.330600] [240] RADIO_STATUS
[21:37:33.363273] [193] VFR_HUD
[21:37:34.120447] [196] VFR_HUD
[21:37:34.354492] [241] RADIO
[21:37:34.357607] [241] RADIO_STATUS
[21:37:34.695675] [197] HEARTBEAT
[21:37:34.935570] [198] VFR_HUD
[21:37:35.379623] [242] RADIO
[21:37:35.382542] [242] RADIO_STATUS
[21:37:35.737725] [199] HEARTBEAT
[21:37:35.743742] [200] SYS_STATUS
[21:37:35.863737] [201] BATTERY_STATUS
[21:37:36.095865] [202] ATTITUDE_TARGET
[21:37:36.100844] [203] VFR_HUD
[21:37:36.425844] [243] RADIO
[21:37:36.426751] [243] RADIO_STATUS
[21:37:36.539799] [204] VFR_HUD
[21:37:36.644909] [205] HEARTBEAT
[21:37:37.338892] [206] VFR_HUD
[21:37:37.370906] [244] RADIO
[21:37:37.373928] [244] RADIO_STATUS
[21:37:37.698049] [207] HEARTBEAT
[21:37:37.706041] [208] ATTITUDE_TARGET
[21:37:38.148057] [209] VFR_HUD
[21:37:38.368135] [245] RADIO
[21:37:38.371128] [245] RADIO_STATUS
[21:37:38.714410] [210] HEARTBEAT
[21:37:38.948168] [211] VFR_HUD
[21:37:39.517288] [246] RADIO
[21:37:39.520278] [246] RADIO_STATUS
[21:37:39.765505] [212] HEARTBEAT
[21:37:39.772418] [213] SYS_STATUS
[21:37:39.890525] [214] BATTERY_STATUS
[21:37:39.898411] [215] ATTITUDE_TARGET
[21:37:39.928425] [216] VFR_HUD
[21:37:40.436410] [247] RADIO
[21:37:40.439364] [247] RADIO_STATUS
[21:37:40.475410] [217] VFR_HUD
[21:37:40.672457] [218] HEARTBEAT
[21:37:41.367566] [219] VFR_HUD
[21:37:41.481595] [248] RADIO
[21:37:41.484648] [248] RADIO_STATUS
[21:37:41.835689] [220] HEARTBEAT
[21:37:41.843645] [221] ATTITUDE_TARGET
[21:37:42.061858] [222] VFR_HUD
[21:37:42.400730] [249] RADIO
[21:37:42.403675] [249] RADIO_STATUS
[21:37:42.741902] [223] HEARTBEAT
[21:37:43.425982] [250] RADIO
[21:37:43.428859] [250] RADIO_STATUS
[21:37:43.673946] [225] HEARTBEAT
[21:37:43.680981] [226] SYS_STATUS
[21:37:43.798997] [227] BATTERY_STATUS
[21:37:43.806948] [228] ATTITUDE_TARGET
[21:37:43.836957] [229] VFR_HUD
[21:37:44.466121] [230] VFR_HUD
[21:37:44.498245] [251] RADIO
[21:37:44.501023] [251] RADIO_STATUS
[21:37:44.691085] [231] HEARTBEAT
[21:37:45.275152] [232] VFR_HUD
[21:37:45.384168] [252] RADIO
[21:37:45.387260] [252] RADIO_STATUS
[21:37:45.744236] [233] HEARTBEAT
[21:37:45.752249] [234] ATTITUDE_TARGET
[21:37:46.075229] [235] VFR_HUD
[21:37:46.414504] [253] RADIO
[21:37:46.417346] [253] RADIO_STATUS
[21:37:46.655354] [236] HEARTBEAT
[21:37:46.884421] [237] VFR_HUD
[21:37:47.563468] [254] RADIO
[21:37:47.566492] [254] RADIO_STATUS
[21:37:47.691692] [238] HEARTBEAT
[21:37:47.698617] [239] SYS_STATUS
[21:37:47.812529] [240] BATTERY_STATUS
[21:37:47.930573] [241] ATTITUDE_TARGET
[21:37:47.935595] [242] VFR_HUD
[21:37:48.389646] [255] RADIO
[21:37:48.392592] [255] RADIO_STATUS
[21:37:48.493664] [243] VFR_HUD
[21:37:48.724756] [244] HEARTBEAT
[21:37:49.293736] [245] VFR_HUD
[21:37:49.402752] [0] RADIO
[21:37:49.405708] [0] RADIO_STATUS
[21:37:49.881880] [246] HEARTBEAT
[21:37:49.889843] [247] ATTITUDE_TARGET
[21:37:50.107863] [248] VFR_HUD
[21:37:50.441950] [1] RADIO
[21:37:50.444901] [1] RADIO_STATUS
[21:37:50.668243] [249] HEARTBEAT
[21:37:51.472115] [2] RADIO
[21:37:51.474085] [2] RADIO_STATUS
[21:37:51.725251] [251] HEARTBEAT
[21:37:51.731349] [252] SYS_STATUS
[21:37:51.766205] [253] BATTERY_STATUS
[21:37:51.767057] [254] EXTENDED_SYS_STATE
[21:37:51.775241] [255] ATTITUDE_TARGET
[21:37:51.780478] [0] VFR_HUD
[21:37:51.784118] [1] SYSTEM_TIME
[21:37:52.512464] [2] VFR_HUD
[21:37:52.539218] [3] RADIO
[21:37:52.542266] [3] RADIO_STATUS
[21:37:52.737304] [3] HEARTBEAT
[21:37:53.326362] [4] VFR_HUD
[21:37:53.442398] [4] RADIO
[21:37:53.445394] [4] RADIO_STATUS
[21:37:53.670458] [5] HEARTBEAT
[21:37:53.678405] [6] ATTITUDE_TARGET
[21:37:54.121555] [7] VFR_HUD
[21:37:54.460617] [5] RADIO
[21:37:54.462578] [5] RADIO_STATUS
[21:37:54.701660] [8] HEARTBEAT
[21:37:54.930714] [9] VFR_HUD
[21:37:55.609780] [6] RADIO
[21:37:55.612719] [6] RADIO_STATUS
[21:37:55.737801] [10] HEARTBEAT
[21:37:55.744773] [11] SYS_STATUS
[21:37:55.864857] [12] BATTERY_STATUS
[21:37:55.976774] [13] ATTITUDE_TARGET
[21:37:55.981918] [14] VFR_HUD
[21:37:56.418862] [7] RADIO
[21:37:56.421847] [7] RADIO_STATUS
[21:37:56.539893] [15] VFR_HUD
[21:37:57.339040] [17] VFR_HUD
[21:37:57.449131] [8] RADIO
[21:37:57.451991] [8] RADIO_STATUS
[21:37:57.698111] [18] HEARTBEAT
[21:37:57.706071] [19] ATTITUDE_TARGET
[21:37:58.149145] [20] VFR_HUD
[21:37:58.488280] [9] RADIO
[21:37:58.491229] [9] RADIO_STATUS
[21:37:58.714306] [21] HEARTBEAT
[21:37:59.518289] [10] RADIO
[21:37:59.520457] [10] RADIO_STATUS
[21:37:59.766430] [23] HEARTBEAT
[21:37:59.772422] [24] SYS_STATUS
[21:37:59.891431] [25] BATTERY_STATUS
[21:37:59.899443] [26] ATTITUDE_TARGET
[21:37:59.929347] [27] VFR_HUD
[21:38:00.437448] [11] RADIO
[21:38:00.440404] [11] RADIO_STATUS
[21:38:00.475422] [28] VFR_HUD
[21:38:00.673569] [29] HEARTBEAT
[21:38:01.372561] [30] VFR_HUD
[21:38:01.488589] [12] RADIO
[21:38:01.491544] [12] RADIO_STATUS
[21:38:01.716642] [31] HEARTBEAT
[21:38:01.724596] [32] ATTITUDE_TARGET
[21:38:02.056686] [33] VFR_HUD
[21:38:02.506768] [13] RADIO
[21:38:02.508738] [13] RADIO_STATUS
[21:38:02.742820] [34] HEARTBEAT
[21:38:02.856777] [35] VFR_HUD
[21:38:03.655993] [14] RADIO
[21:38:03.657940] [14] RADIO_STATUS
[21:38:03.784010] [36] HEARTBEAT
[21:38:03.790953] [37] SYS_STATUS
[21:38:03.909995] [38] BATTERY_STATUS
[21:38:04.142218] [39] ATTITUDE_TARGET
[21:38:04.148381] [40] VFR_HUD
[21:38:04.466053] [41] VFR_HUD
[21:38:04.498247] [15] RADIO
[21:38:04.501118] [15] RADIO_STATUS
[21:38:05.275304] [43] VFR_HUD
[21:38:05.495207] [16] RADIO
[21:38:05.498221] [16] RADIO_STATUS
[21:38:05.745436] [44] HEARTBEAT
[21:38:05.752239] [45] ATTITUDE_TARGET
[21:38:06.075349] [46] VFR_HUD
[21:38:06.539379] [17] RADIO
[21:38:06.542498] [17] RADIO_STATUS
[21:38:06.650448] [47] HEARTBEAT
[21:38:06.885469] [48] VFR_HUD
[21:38:07.563547] [18] RADIO
[21:38:07.566512] [18] RADIO_STATUS
[21:38:07.692599] [49] HEARTBEAT
[21:38:07.698612] [50] SYS_STATUS
[21:38:07.813593] [51] BATTERY_STATUS
[21:38:07.933094] [52] ATTITUDE_TARGET
[21:38:07.936571] [53] VFR_HUD
[21:38:08.483650] [19] RADIO
[21:38:08.486626] [19] RADIO_STATUS
[21:38:08.521650] [54] VFR_HUD
[21:38:08.719720] [55] HEARTBEAT
[21:38:09.527897] [20] RADIO
[21:38:09.530893] [20] RADIO_STATUS
[21:38:09.644846] [57] HEARTBEAT
[21:38:09.761841] [58] ATTITUDE_TARGET
[21:38:10.108924] [59] VFR_HUD
[21:38:10.551960] [21] RADIO
[21:38:10.555015] [21] RADIO_STATUS
[21:38:10.668112] [60] HEARTBEAT
[21:38:10.903082] [61] VFR_HUD
[21:38:11.702296] [22] RADIO
[21:38:11.704124] [22] RADIO_STATUS
[21:38:11.765162] [62] HEARTBEAT
[21:38:11.772179] [63] SYS_STATUS
[21:38:11.779177] [64] BATTERY_STATUS
[21:38:11.781199] [65] EXTENDED_SYS_STATE
[21:38:11.798214] [66] ATTITUDE_TARGET
[21:38:11.803190] [67] VFR_HUD
[21:38:11.806226] [68] SYSTEM_TIME
[21:38:12.512402] [69] VFR_HUD
[21:38:12.544243] [23] RADIO
[21:38:12.547326] [23] RADIO_STATUS
[21:38:13.321392] [71] VFR_HUD
[21:38:13.541428] [24] RADIO
[21:38:13.544415] [24] RADIO_STATUS
[21:38:13.671512] [72] HEARTBEAT
[21:38:13.678471] [73] ATTITUDE_TARGET
[21:38:14.121533] [74] VFR_HUD
[21:38:14.585597] [25] RADIO
[21:38:14.588575] [25] RADIO_STATUS
[21:38:14.701652] [75] HEARTBEAT
[21:38:14.931731] [76] VFR_HUD
[21:38:15.500806] [26] RADIO
[21:38:15.503732] [26] RADIO_STATUS
[21:38:15.738853] [77] HEARTBEAT
[21:38:15.744833] [78] SYS_STATUS
[21:38:15.859834] [79] BATTERY_STATUS
[21:38:15.977850] [80] ATTITUDE_TARGET
[21:38:15.982902] [81] VFR_HUD
[21:38:16.530227] [27] RADIO
[21:38:16.533038] [27] RADIO_STATUS
[21:38:16.656045] [82] VFR_HUD
[21:38:16.659032] [83] HEARTBEAT
[21:38:17.568180] [28] RADIO
[21:38:17.571120] [28] RADIO_STATUS
[21:38:17.704200] [85] HEARTBEAT
[21:38:17.711181] [86] ATTITUDE_TARGET
[21:38:18.149248] [87] VFR_HUD
[21:38:18.598341] [29] RADIO
[21:38:18.601255] [29] RADIO_STATUS
[21:38:18.714349] [88] HEARTBEAT
[21:38:18.948363] [89] VFR_HUD
[21:38:19.517426] [30] RADIO
[21:38:19.520437] [30] RADIO_STATUS
[21:38:19.770458] [90] HEARTBEAT
[21:38:19.777428] [91] SYS_STATUS
[21:38:19.817481] [92] BATTERY_STATUS
[21:38:19.825420] [93] ATTITUDE_TARGET
[21:38:19.829443] [94] VFR_HUD
[21:38:20.557589] [31] RADIO
[21:38:20.560492] [31] RADIO_STATUS
[21:38:20.683685] [95] VFR_HUD
[21:38:20.686566] [96] HEARTBEAT
[21:38:21.372803] [97] VFR_HUD
[21:38:21.586905] [32] RADIO
[21:38:21.589690] [32] RADIO_STATUS
[21:38:21.716772] [98] HEARTBEAT
[21:38:21.724708] [99] ATTITUDE_TARGET
[21:38:22.056762] [100] VFR_HUD
[21:38:22.626917] [33] RADIO
[21:38:22.628957] [33] RADIO_STATUS
[21:38:22.742920] [101] HEARTBEAT
[21:38:22.856982] [102] VFR_HUD
[21:38:23.546075] [34] RADIO
[21:38:23.549057] [34] RADIO_STATUS
[21:38:23.674084] [103] HEARTBEAT
[21:38:23.681117] [104] SYS_STATUS
[21:38:23.799109] [105] BATTERY_STATUS
[21:38:23.807106] [106] ATTITUDE_TARGET
[21:38:23.838083] [107] VFR_HUD
[21:38:24.466215] [108] VFR_HUD
[21:38:24.575197] [35] RADIO
[21:38:24.578233] [35] RADIO_STATUS
[21:38:24.692265] [109] HEARTBEAT
[21:38:25.276381] [110] VFR_HUD
[21:38:25.615436] [36] RADIO
[21:38:25.618406] [36] RADIO_STATUS
[21:38:25.745486] [111] HEARTBEAT
[21:38:25.752459] [112] ATTITUDE_TARGET
[21:38:26.075478] [113] VFR_HUD
[21:38:26.644715] [37] RADIO
[21:38:26.647573] [37] RADIO_STATUS
[21:38:26.760587] [114] HEARTBEAT
[21:38:26.890575] [115] VFR_HUD
[21:38:27.563739] [38] RADIO
[21:38:27.566690] [38] RADIO_STATUS
[21:38:27.813823] [118] BATTERY_STATUS
[21:38:27.930818] [119] ATTITUDE_TARGET
[21:38:27.935792] [120] VFR_HUD
[21:38:28.499883] [121] VFR_HUD
[21:38:28.614902] [39] RADIO
[21:38:28.617837] [39] RADIO_STATUS
[21:38:28.728960] [122] HEARTBEAT
[21:38:29.294071] [123] VFR_HUD
[21:38:29.633082] [40] RADIO
[21:38:29.636082] [40] RADIO_STATUS
[21:38:29.763181] [124] HEARTBEAT
[21:38:29.770130] [125] ATTITUDE_TARGET
[21:38:30.108146] [126] VFR_HUD
[21:38:30.668260] [127] HEARTBEAT
[21:38:30.782286] [41] RADIO
[21:38:30.785247] [41] RADIO_STATUS
[21:38:30.903064] [128] VFR_HUD
[21:38:31.596385] [42] RADIO
[21:38:31.599339] [42] RADIO_STATUS
[21:38:31.719449] [129] HEARTBEAT
[21:38:31.726417] [130] SYS_STATUS
[21:38:31.847503] [131] BATTERY_STATUS
[21:38:31.849424] [132] EXTENDED_SYS_STATE
[21:38:31.857875] [133] ATTITUDE_TARGET
[21:38:31.862467] [134] VFR_HUD
[21:38:31.865526] [135] SYSTEM_TIME
[21:38:32.511530] [136] VFR_HUD
[21:38:32.620628] [43] RADIO
[21:38:32.623560] [43] RADIO_STATUS
[21:38:32.654601] [137] HEARTBEAT
[21:38:33.321723] [138] VFR_HUD
[21:38:33.670797] [139] HEARTBEAT
[21:38:33.677751] [140] ATTITUDE_TARGET
[21:38:33.687749] [44] RADIO
[21:38:33.690680] [44] RADIO_STATUS
[21:38:34.120805] [141] VFR_HUD
[21:38:34.689890] [45] RADIO
[21:38:34.692898] [45] RADIO_STATUS
[21:38:34.723951] [142] HEARTBEAT
[21:38:34.930933] [143] VFR_HUD
[21:38:35.610142] [46] RADIO
[21:38:35.613322] [46] RADIO_STATUS
[21:38:35.644053] [144] HEARTBEAT
[21:38:35.678116] [145] SYS_STATUS
[21:38:35.686096] [146] BATTERY_STATUS
[21:38:35.701154] [147] ATTITUDE_TARGET
[21:38:35.706026] [148] VFR_HUD
[21:38:36.540206] [149] VFR_HUD
[21:38:36.645300] [150] HEARTBEAT
[21:38:36.677241] [47] RADIO
[21:38:36.680197] [47] RADIO_STATUS
[21:38:37.339337] [151] VFR_HUD
[21:38:37.678431] [48] RADIO
[21:38:37.685785] [48] RADIO_STATUS
[21:38:37.726472] [152] HEARTBEAT
[21:38:37.734470] [153] ATTITUDE_TARGET
[21:38:38.154489] [154] VFR_HUD
[21:38:38.714687] [155] HEARTBEAT
[21:38:38.745615] [49] RADIO
[21:38:38.748653] [49] RADIO_STATUS
[21:38:38.948683] [156] VFR_HUD
[21:38:39.642805] [50] RADIO
[21:38:39.645714] [50] RADIO_STATUS
[21:38:39.771794] [157] HEARTBEAT
[21:38:39.777808] [158] SYS_STATUS
[21:38:39.817847] [159] BATTERY_STATUS
[21:38:39.825874] [160] ATTITUDE_TARGET
[21:38:39.831021] [161] VFR_HUD
[21:38:40.667891] [51] RADIO
[21:38:40.670903] [51] RADIO_STATUS
[21:38:40.711961] [162] VFR_HUD
[21:38:40.714938] [163] HEARTBEAT
[21:38:41.373097] [164] VFR_HUD
[21:38:41.717160] [165] HEARTBEAT
[21:38:41.725174] [166] ATTITUDE_TARGET
[21:38:41.735084] [52] RADIO
[21:38:41.738131] [52] RADIO_STATUS
[21:38:42.057134] [167] VFR_HUD
[21:38:42.736188] [53] RADIO
[21:38:42.739156] [53] RADIO_STATUS
[21:38:42.770426] [168] HEARTBEAT
[21:38:42.857217] [169] VFR_HUD
[21:38:43.656340] [54] RADIO
[21:38:43.659329] [54] RADIO_STATUS
[21:38:43.910510] [172] BATTERY_STATUS
[21:38:44.023426] [173] ATTITUDE_TARGET
[21:38:44.028405] [174] VFR_HUD
[21:38:44.466542] [175] VFR_HUD
[21:38:44.691519] [176] HEARTBEAT
[21:38:44.723521] [55] RADIO
[21:38:44.726511] [55] RADIO_STATUS
[21:38:45.280926] [177] VFR_HUD
[21:38:45.724716] [56] RADIO
[21:38:45.727712] [56] RADIO_STATUS
[21:38:45.772745] [178] HEARTBEAT
[21:38:45.780779] [179] ATTITUDE_TARGET
[21:38:46.650916] [181] HEARTBEAT
[21:38:46.769872] [57] RADIO
[21:38:46.772857] [57] RADIO_STATUS
[21:38:46.889940] [182] VFR_HUD
[21:38:47.692078] [183] HEARTBEAT
[21:38:47.699105] [184] SYS_STATUS
[21:38:47.794059] [58] RADIO
[21:38:47.797069] [58] RADIO_STATUS
[21:38:47.863156] [185] BATTERY_STATUS
[21:38:47.871175] [186] ATTITUDE_TARGET
[21:38:47.876173] [187] VFR_HUD
[21:38:48.713208] [59] RADIO
[21:38:48.716229] [59] RADIO_STATUS
[21:38:48.839275] [188] VFR_HUD
[21:38:48.842414] [189] HEARTBEAT
[21:38:49.294569] [190] VFR_HUD
[21:38:49.762502] [191] HEARTBEAT
[21:38:49.770462] [192] ATTITUDE_TARGET
[21:38:49.862503] [60] RADIO
[21:38:49.865674] [60] RADIO_STATUS
[21:38:50.103510] [193] VFR_HUD
[21:38:50.782670] [61] RADIO
[21:38:50.785598] [61] RADIO_STATUS
[21:38:50.902721] [195] VFR_HUD
[21:38:51.701699] [62] RADIO
[21:38:51.704671] [62] RADIO_STATUS
[21:38:51.959833] [198] BATTERY_STATUS
[21:38:51.961819] [199] EXTENDED_SYS_STATE
[21:38:51.993822] [200] ATTITUDE_TARGET
[21:38:51.997888] [201] VFR_HUD
[21:38:52.001829] [202] SYSTEM_TIME
[21:38:52.511854] [203] VFR_HUD
[21:38:52.738025] [204] HEARTBEAT
[21:38:52.850952] [63] RADIO
[21:38:52.853944] [63] RADIO_STATUS
[21:38:53.321052] [205] VFR_HUD
[21:38:53.671108] [206] HEARTBEAT
[21:38:53.678059] [207] ATTITUDE_TARGET
[21:38:53.770100] [64] RADIO
[21:38:53.773057] [64] RADIO_STATUS
[21:38:54.696277] [209] HEARTBEAT
[21:38:54.810277] [65] RADIO
[21:38:54.813713] [65] RADIO_STATUS
[21:38:54.930354] [210] VFR_HUD
[21:38:55.737411] [211] HEARTBEAT
[21:38:55.744354] [212] SYS_STATUS
[21:38:55.838388] [66] RADIO
[21:38:55.841353] [66] RADIO_STATUS
[21:38:55.879406] [213] BATTERY_STATUS
[21:38:55.906433] [214] ATTITUDE_TARGET
[21:38:55.911421] [215] VFR_HUD
[21:38:56.544536] [216] VFR_HUD
[21:38:56.656553] [217] HEARTBEAT
[21:38:56.758497] [67] RADIO
[21:38:56.761494] [67] RADIO_STATUS
[21:38:57.338658] [218] VFR_HUD
[21:38:57.702706] [219] HEARTBEAT
[21:38:57.710735] [220] ATTITUDE_TARGET
[21:38:57.797739] [68] RADIO
[21:38:57.800702] [68] RADIO_STATUS
[21:38:58.153804] [221] VFR_HUD
[21:38:58.826903] [69] RADIO
[21:38:58.829825] [69] RADIO_STATUS
[21:38:58.947918] [223] VFR_HUD
[21:38:59.747125] [70] RADIO
[21:38:59.750032] [70] RADIO_STATUS
[21:38:59.806046] [224] HEARTBEAT
[21:38:59.813128] [225] SYS_STATUS
[21:38:59.821086] [226] BATTERY_STATUS
[21:38:59.833050] [227] ATTITUDE_TARGET
[21:38:59.838002] [228] VFR_HUD
[21:39:00.557186] [229] VFR_HUD
[21:39:00.677171] [230] HEARTBEAT
[21:39:00.786180] [71] RADIO
[21:39:00.789349] [71] RADIO_STATUS
[21:39:01.366278] [231] VFR_HUD
[21:39:01.715331] [232] HEARTBEAT
[21:39:01.723346] [233] ATTITUDE_TARGET
[21:39:01.815335] [72] RADIO
[21:39:01.818294] [72] RADIO_STATUS
[21:39:02.056632] [234] VFR_HUD
[21:39:02.746471] [235] HEARTBEAT
[21:39:02.855480] [236] VFR_HUD
[21:39:02.882494] [73] RADIO
[21:39:02.885449] [73] RADIO_STATUS
[21:39:03.678660] [237] HEARTBEAT
[21:39:03.684640] [238] SYS_STATUS
[21:39:03.724620] [239] BATTERY_STATUS
[21:39:03.731743] [240] ATTITUDE_TARGET
[21:39:03.736617] [241] VFR_HUD
[21:39:03.779659] [74] RADIO
[21:39:03.782662] [74] RADIO_STATUS
[21:39:04.699799] [242] VFR_HUD
[21:39:04.702781] [243] HEARTBEAT
[21:39:04.803826] [75] RADIO
[21:39:04.806785] [75] RADIO_STATUS
[21:39:05.278889] [244] VFR_HUD
[21:39:05.748101] [245] HEARTBEAT
[21:39:05.755969] [246] ATTITUDE_TARGET
[21:39:05.848083] [76] RADIO
[21:39:05.850951] [76] RADIO_STATUS
[21:39:06.073082] [247] VFR_HUD
[21:39:06.649208] [248] HEARTBEAT
[21:39:06.872145] [77] RADIO
[21:39:06.875081] [77] RADIO_STATUS
[21:39:06.911247] [249] VFR_HUD
[21:39:07.690285] [250] HEARTBEAT
[21:39:07.697244] [251] SYS_STATUS
[21:39:07.792302] [78] RADIO
[21:39:07.795258] [78] RADIO_STATUS
[21:39:07.862272] [252] BATTERY_STATUS
[21:39:07.869273] [253] ATTITUDE_TARGET
[21:39:07.874311] [254] VFR_HUD
[21:39:08.729490] [255] VFR_HUD
[21:39:08.732427] [0] HEARTBEAT
[21:39:08.943444] [79] RADIO
[21:39:08.946398] [79] RADIO_STATUS
[21:39:09.294469] [1] VFR_HUD
[21:39:09.639663] [2] HEARTBEAT
[21:39:09.662566] [3] ATTITUDE_TARGET
[21:39:09.863714] [80] RADIO
[21:39:09.865687] [80] RADIO_STATUS
[21:39:10.103729] [4] VFR_HUD
[21:39:10.668767] [5] HEARTBEAT
[21:39:10.782763] [81] RADIO
[21:39:10.785757] [81] RADIO_STATUS
[21:39:10.902853] [6] VFR_HUD
[21:39:11.719937] [7] HEARTBEAT
[21:39:11.726942] [8] SYS_STATUS
[21:39:11.848978] [9] BATTERY_STATUS
[21:39:11.849926] [10] EXTENDED_SYS_STATE
[21:39:11.857961] [11] ATTITUDE_TARGET
[21:39:11.862919] [12] VFR_HUD
[21:39:11.866911] [13] SYSTEM_TIME
[21:39:11.894006] [82] RADIO
[21:39:11.896972] [82] RADIO_STATUS
[21:39:12.738212] [15] HEARTBEAT
[21:39:12.852106] [83] RADIO
[21:39:12.855060] [83] RADIO_STATUS
[21:39:13.322205] [16] VFR_HUD
[21:39:13.790230] [17] HEARTBEAT
[21:39:13.798297] [18] ATTITUDE_TARGET
[21:39:13.896213] [84] RADIO
[21:39:13.899266] [84] RADIO_STATUS
[21:39:14.121304] [19] VFR_HUD
[21:39:14.696435] [20] HEARTBEAT
[21:39:14.920446] [85] RADIO
[21:39:14.923419] [85] RADIO_STATUS
[21:39:14.958464] [21] VFR_HUD
[21:39:15.738604] [22] HEARTBEAT
[21:39:15.744599] [23] SYS_STATUS
[21:39:15.839584] [86] RADIO
[21:39:15.842538] [86] RADIO_STATUS
[21:39:15.880600] [24] BATTERY_STATUS
[21:39:15.907589] [25] ATTITUDE_TARGET
[21:39:15.912618] [26] VFR_HUD
[21:39:16.545729] [27] VFR_HUD
[21:39:16.656733] [28] HEARTBEAT
[21:39:16.879757] [87] RADIO
[21:39:16.882736] [87] RADIO_STATUS
[21:39:17.339933] [29] VFR_HUD
[21:39:17.699005] [30] HEARTBEAT
[21:39:17.706931] [31] ATTITUDE_TARGET
[21:39:17.908966] [88] RADIO
[21:39:17.912134] [88] RADIO_STATUS
[21:39:18.150037] [32] VFR_HUD
[21:39:18.714167] [33] HEARTBEAT
[21:39:18.828225] [89] RADIO
[21:39:18.831401] [89] RADIO_STATUS
[21:39:18.949136] [34] VFR_HUD
