[21:08:23.803458] [217] HEARTBEAT
[21:08:23.810459] [218] SYS_STATUS
[21:08:23.905440] [36] RADIO
[21:08:23.908419] [36] RADIO_STATUS
[21:08:23.946469] [219] BATTERY_STATUS
[21:08:23.973411] [220] ATTITUDE_TARGET
[21:08:23.978491] [221] VFR_HUD
[21:08:24.605594] [222] VFR_HUD
[21:08:24.836635] [223] HEARTBEAT
[21:08:24.950737] [37] RADIO
[21:08:24.952608] [37] RADIO_STATUS
[21:08:25.405828] [224] VFR_HUD
[21:08:25.769844] [225] HEARTBEAT
[21:08:25.777749] [226] ATTITUDE_TARGET
[21:08:25.974834] [38] RADIO
[21:08:25.977756] [38] RADIO_STATUS
[21:08:26.220780] [227] VFR_HUD
[21:08:26.780947] [228] HEARTBEAT
[21:08:27.014951] [229] VFR_HUD
[21:08:27.047490] [39] RADIO
[21:08:27.049890] [39] RADIO_STATUS
[21:08:27.837119] [230] HEARTBEAT
[21:08:27.844111] [231] SYS_STATUS
[21:08:27.884132] [232] BATTERY_STATUS
[21:08:27.892148] [233] ATTITUDE_TARGET
[21:08:27.896073] [234] VFR_HUD
[21:08:27.939160] [40] RADIO
[21:08:27.942090] [40] RADIO_STATUS
[21:08:28.755268] [235] VFR_HUD
[21:08:28.758333] [236] HEARTBEAT
[21:08:28.963334] [41] RADIO
[21:08:28.966249] [41] RADIO_STATUS
[21:08:29.439520] [237] VFR_HUD
[21:08:29.783486] [238] HEARTBEAT
[21:08:29.790513] [239] ATTITUDE_TARGET
[21:08:30.008572] [42] RADIO
[21:08:30.011374] [42] RADIO_STATUS
[21:08:30.233502] [240] VFR_HUD
[21:08:30.813664] [241] HEARTBEAT
[21:08:30.922717] [43] RADIO
[21:08:30.925540] [43] RADIO_STATUS
[21:08:31.042699] [242] VFR_HUD
[21:08:31.728755] [243] HEARTBEAT
[21:08:31.747719] [244] SYS_STATUS
[21:08:31.786745] [245] BATTERY_STATUS
[21:08:31.788655] [246] EXTENDED_SYS_STATE
[21:08:31.795767] [247] ATTITUDE_TARGET
[21:08:31.800718] [248] VFR_HUD
[21:08:31.804802] [249] SYSTEM_TIME
[21:08:31.951812] [44] RADIO
[21:08:31.954662] [44] RADIO_STATUS
[21:08:32.537856] [250] VFR_HUD
[21:08:32.757969] [251] HEARTBEAT
[21:08:32.990910] [45] RADIO
[21:08:32.994079] [45] RADIO_STATUS
[21:08:33.346949] [252] VFR_HUD
[21:08:33.811120] [253] HEARTBEAT
[21:08:33.819041] [254] ATTITUDE_TARGET
[21:08:34.021050] [46] RADIO
[21:08:34.023992] [46] RADIO_STATUS
[21:08:34.141154] [255] VFR_HUD
[21:08:34.827302] [0] HEARTBEAT
[21:08:34.940112] [47] RADIO
[21:08:34.943074] [47] RADIO_STATUS
[21:08:34.979140] [1] VFR_HUD
[21:08:35.758295] [2] HEARTBEAT
[21:08:35.765262] [3] SYS_STATUS
[21:08:35.885260] [4] BATTERY_STATUS
[21:08:35.997330] [5] ATTITUDE_TARGET
[21:08:36.002291] [6] VFR_HUD
[21:08:36.007381] [48] RADIO
[21:08:36.010310] [48] RADIO_STATUS
[21:08:36.565441] [7] VFR_HUD
[21:08:36.785444] [8] HEARTBEAT
[21:08:37.009551] [49] RADIO
[21:08:37.012451] [49] RADIO_STATUS
[21:08:37.360538] [9] VFR_HUD
[21:08:37.829674] [10] HEARTBEAT
[21:08:37.837670] [11] ATTITUDE_TARGET
[21:08:38.049618] [50] RADIO
[21:08:38.052544] [50] RADIO_STATUS
[21:08:38.169789] [12] VFR_HUD
[21:08:38.735820] [13] HEARTBEAT
[21:08:38.969746] [14] VFR_HUD
[21:08:38.996680] [51] RADIO
[21:08:38.999725] [51] RADIO_STATUS
[21:08:39.786878] [15] HEARTBEAT
[21:08:39.793820] [16] SYS_STATUS
[21:08:39.911825] [17] BATTERY_STATUS
[21:08:39.919812] [18] ATTITUDE_TARGET
[21:08:39.949829] [19] VFR_HUD
[21:08:39.978042] [52] RADIO
[21:08:39.980855] [52] RADIO_STATUS
[21:08:40.578926] [20] VFR_HUD
[21:08:40.805053] [21] HEARTBEAT
[21:08:41.037967] [53] RADIO
[21:08:41.040891] [53] RADIO_STATUS
[21:08:41.389035] [22] VFR_HUD
[21:08:41.858141] [23] HEARTBEAT
[21:08:41.869825] [24] ATTITUDE_TARGET
[21:08:41.986237] [54] RADIO
[21:08:41.989095] [54] RADIO_STATUS
[21:08:42.188283] [25] VFR_HUD
[21:08:42.763295] [26] HEARTBEAT
[21:08:42.987432] [55] RADIO
[21:08:42.990256] [55] RADIO_STATUS
[21:08:43.026287] [27] VFR_HUD
[21:08:43.805467] [28] HEARTBEAT
[21:08:43.812596] [29] SYS_STATUS
[21:08:43.926440] [30] BATTERY_STATUS
[21:08:44.044549] [31] ATTITUDE_TARGET
[21:08:44.049452] [32] VFR_HUD
[21:08:44.054552] [56] RADIO
[21:08:44.057397] [56] RADIO_STATUS
[21:08:44.613213] [33] VFR_HUD
[21:08:44.832652] [34] HEARTBEAT
[21:08:45.056631] [57] RADIO
[21:08:45.059593] [57] RADIO_STATUS
[21:08:45.406694] [35] VFR_HUD
[21:08:45.771785] [36] HEARTBEAT
[21:08:45.778814] [37] ATTITUDE_TARGET
[21:08:46.095909] [58] RADIO
[21:08:46.098803] [58] RADIO_STATUS
[21:08:46.221845] [38] VFR_HUD
[21:08:46.782052] [39] HEARTBEAT
[21:08:47.015959] [40] VFR_HUD
[21:08:47.049014] [59] RADIO
[21:08:47.051946] [59] RADIO_STATUS
[21:08:47.943143] [41] HEARTBEAT
[21:08:47.950238] [42] SYS_STATUS
[21:08:48.045244] [60] RADIO
[21:08:48.048203] [60] RADIO_STATUS
[21:08:48.086317] [43] BATTERY_STATUS
[21:08:48.113185] [44] ATTITUDE_TARGET
[21:08:48.117171] [45] VFR_HUD
[21:08:48.625250] [46] VFR_HUD
[21:08:48.746281] [47] HEARTBEAT
[21:08:49.090306] [61] RADIO
[21:08:49.093268] [61] RADIO_STATUS
[21:08:49.435487] [48] VFR_HUD
[21:08:49.784437] [49] HEARTBEAT
[21:08:49.792486] [50] ATTITUDE_TARGET
[21:08:50.113522] [62] RADIO
[21:08:50.116431] [62] RADIO_STATUS
[21:08:50.234586] [51] VFR_HUD
[21:08:50.814674] [52] HEARTBEAT
[21:08:51.033695] [63] RADIO
[21:08:51.036692] [63] RADIO_STATUS
[21:08:51.153594] [53] VFR_HUD
[21:08:51.746786] [54] HEARTBEAT
[21:08:51.753774] [55] SYS_STATUS
[21:08:51.787908] [56] BATTERY_STATUS
[21:08:51.788708] [57] EXTENDED_SYS_STATE
[21:08:51.798709] [58] ATTITUDE_TARGET
[21:08:51.801745] [59] VFR_HUD
[21:08:51.805725] [60] SYSTEM_TIME
[21:08:52.077840] [64] RADIO
[21:08:52.083465] [64] RADIO_STATUS
[21:08:52.538877] [61] VFR_HUD
[21:08:52.758897] [62] HEARTBEAT
[21:08:53.102077] [65] RADIO
[21:08:53.104944] [65] RADIO_STATUS
[21:08:53.348010] [63] VFR_HUD
[21:08:53.817086] [64] HEARTBEAT
[21:08:53.825098] [65] ATTITUDE_TARGET
[21:08:54.143119] [66] VFR_HUD
[21:08:54.175104] [66] RADIO
[21:08:54.178089] [66] RADIO_STATUS
[21:08:54.828256] [67] HEARTBEAT
[21:08:54.958282] [68] VFR_HUD
[21:08:55.078275] [67] RADIO
[21:08:55.081127] [67] RADIO_STATUS
[21:08:55.760478] [69] HEARTBEAT
[21:08:55.766382] [70] SYS_STATUS
[21:08:55.886408] [71] BATTERY_STATUS
[21:08:55.998411] [72] ATTITUDE_TARGET
[21:08:56.003367] [73] VFR_HUD
[21:08:56.091389] [68] RADIO
[21:08:56.094360] [68] RADIO_STATUS
[21:08:56.561614] [74] VFR_HUD
[21:08:56.787600] [75] HEARTBEAT
[21:08:57.135618] [69] RADIO
[21:08:57.138582] [69] RADIO_STATUS
[21:08:57.363731] [76] VFR_HUD
[21:08:57.830867] [77] HEARTBEAT
[21:08:57.838747] [78] ATTITUDE_TARGET
[21:08:58.050724] [70] RADIO
[21:08:58.053803] [70] RADIO_STATUS
[21:08:58.170802] [79] VFR_HUD
[21:08:58.735931] [80] HEARTBEAT
[21:08:58.970902] [81] VFR_HUD
[21:08:59.079903] [71] RADIO
[21:08:59.082901] [71] RADIO_STATUS
[21:08:59.788197] [82] HEARTBEAT
[21:08:59.794044] [83] SYS_STATUS
[21:08:59.913214] [84] BATTERY_STATUS
[21:08:59.921054] [85] ATTITUDE_TARGET
[21:08:59.951172] [86] VFR_HUD
[21:09:00.119108] [72] RADIO
[21:09:00.122184] [72] RADIO_STATUS
[21:09:00.580312] [87] VFR_HUD
[21:09:00.805370] [88] HEARTBEAT
[21:09:01.149347] [73] RADIO
[21:09:01.152346] [73] RADIO_STATUS
[21:09:01.389298] [89] VFR_HUD
[21:09:01.725417] [90] HEARTBEAT
[21:09:01.747434] [91] ATTITUDE_TARGET
[21:09:02.073513] [74] RADIO
[21:09:02.076471] [74] RADIO_STATUS
[21:09:02.189437] [92] VFR_HUD
[21:09:02.781578] [93] HEARTBEAT
[21:09:03.003580] [94] VFR_HUD
[21:09:03.119713] [75] RADIO
[21:09:03.122555] [75] RADIO_STATUS
[21:09:03.805705] [95] HEARTBEAT
[21:09:03.814568] [96] SYS_STATUS
[21:09:03.926848] [97] BATTERY_STATUS
[21:09:04.044774] [98] ATTITUDE_TARGET
[21:09:04.049723] [99] VFR_HUD
[21:09:04.136896] [76] RADIO
[21:09:04.139761] [76] RADIO_STATUS
[21:09:04.613165] [100] VFR_HUD
[21:09:04.833037] [101] HEARTBEAT
[21:09:05.176958] [77] RADIO
[21:09:05.179927] [77] RADIO_STATUS
[21:09:05.408089] [102] VFR_HUD
[21:09:05.767162] [103] HEARTBEAT
[21:09:05.774083] [104] ATTITUDE_TARGET
[21:09:06.096147] [78] RADIO
[21:09:06.099212] [78] RADIO_STATUS
[21:09:06.222202] [105] VFR_HUD
[21:09:06.782255] [106] HEARTBEAT
[21:09:07.017281] [107] VFR_HUD
[21:09:07.126322] [79] RADIO
[21:09:07.129279] [79] RADIO_STATUS
[21:09:07.833568] [108] HEARTBEAT
[21:09:07.840484] [109] SYS_STATUS
[21:09:07.959514] [110] BATTERY_STATUS
[21:09:07.967469] [111] ATTITUDE_TARGET
[21:09:07.997395] [112] VFR_HUD
[21:09:08.165470] [80] RADIO
[21:09:08.168552] [80] RADIO_STATUS
[21:09:08.626579] [113] VFR_HUD
[21:09:08.747112] [114] HEARTBEAT
[21:09:09.195012] [81] RADIO
[21:09:09.197661] [81] RADIO_STATUS
[21:09:09.435716] [115] VFR_HUD
[21:09:09.784825] [116] HEARTBEAT
[21:09:09.792794] [117] ATTITUDE_TARGET
[21:09:10.114936] [82] RADIO
[21:09:10.117882] [82] RADIO_STATUS
[21:09:10.152820] [118] VFR_HUD
[21:09:10.815935] [119] HEARTBEAT
[21:09:11.045008] [120] VFR_HUD
[21:09:11.154074] [83] RADIO
[21:09:11.157011] [83] RADIO_STATUS
[21:09:11.747099] [121] HEARTBEAT
[21:09:11.754125] [122] SYS_STATUS
[21:09:11.788373] [123] BATTERY_STATUS
[21:09:11.790316] [124] EXTENDED_SYS_STATE
[21:09:11.798108] [125] ATTITUDE_TARGET
[21:09:11.803047] [126] VFR_HUD
[21:09:11.806071] [127] SYSTEM_TIME
[21:09:12.183227] [84] RADIO
[21:09:12.186277] [84] RADIO_STATUS
[21:09:12.534268] [128] VFR_HUD
[21:09:12.759374] [129] HEARTBEAT
[21:09:13.223374] [85] RADIO
[21:09:13.226279] [85] RADIO_STATUS
[21:09:13.349407] [130] VFR_HUD
[21:09:13.818591] [131] HEARTBEAT
[21:09:13.825502] [132] ATTITUDE_TARGET
[21:09:14.143529] [133] VFR_HUD
[21:09:14.175467] [86] RADIO
[21:09:14.181855] [86] RADIO_STATUS
[21:09:14.828768] [134] HEARTBEAT
[21:09:14.952610] [135] VFR_HUD
[21:09:15.173053] [87] RADIO
[21:09:15.175679] [87] RADIO_STATUS
[21:09:15.760812] [136] HEARTBEAT
[21:09:15.767669] [137] SYS_STATUS
[21:09:15.886765] [138] BATTERY_STATUS
[21:09:15.999805] [139] ATTITUDE_TARGET
[21:09:16.003763] [140] VFR_HUD
[21:09:16.216810] [88] RADIO
[21:09:16.219880] [88] RADIO_STATUS
[21:09:16.562346] [141] VFR_HUD
[21:09:16.793004] [142] HEARTBEAT
[21:09:17.241092] [89] RADIO
[21:09:17.244174] [89] RADIO_STATUS
[21:09:17.361993] [143] VFR_HUD
[21:09:17.831216] [144] HEARTBEAT
[21:09:17.839134] [145] ATTITUDE_TARGET
[21:09:18.171146] [146] VFR_HUD
[21:09:18.281206] [90] RADIO
[21:09:18.284537] [90] RADIO_STATUS
[21:09:18.737344] [147] HEARTBEAT
[21:09:18.971330] [148] VFR_HUD
[21:09:19.206292] [91] RADIO
[21:09:19.208205] [91] RADIO_STATUS
[21:09:19.788356] [149] HEARTBEAT
[21:09:19.795373] [150] SYS_STATUS
[21:09:19.913528] [151] BATTERY_STATUS
[21:09:19.921425] [152] ATTITUDE_TARGET
[21:09:19.951521] [153] VFR_HUD
[21:09:20.230625] [92] RADIO
[21:09:20.233420] [92] RADIO_STATUS
[21:09:20.581841] [154] VFR_HUD
[21:09:20.806598] [155] HEARTBEAT
[21:09:21.274637] [93] RADIO
[21:09:21.277579] [93] RADIO_STATUS
[21:09:21.395634] [156] VFR_HUD
[21:09:21.725657] [157] HEARTBEAT
[21:09:21.750154] [158] ATTITUDE_TARGET
[21:09:22.189824] [159] VFR_HUD
[21:09:22.225827] [94] RADIO
[21:09:22.225969] [94] RADIO_STATUS
[21:09:22.765836] [160] HEARTBEAT
[21:09:23.005015] [161] VFR_HUD
[21:09:23.218905] [95] RADIO
[21:09:23.221941] [95] RADIO_STATUS
[21:09:23.807056] [162] HEARTBEAT
[21:09:23.814041] [163] SYS_STATUS
[21:09:23.933060] [164] BATTERY_STATUS
[21:09:24.046392] [165] ATTITUDE_TARGET
[21:09:24.051025] [166] VFR_HUD
[21:09:24.263343] [96] RADIO
[21:09:24.266147] [96] RADIO_STATUS
[21:09:24.614613] [167] VFR_HUD
[21:09:24.726200] [168] HEARTBEAT
[21:09:25.289878] [97] RADIO
[21:09:25.291192] [97] RADIO_STATUS
[21:09:25.408341] [169] VFR_HUD
[21:09:25.767354] [170] HEARTBEAT
[21:09:25.775277] [171] ATTITUDE_TARGET
[21:09:26.218428] [172] VFR_HUD
[21:09:26.332595] [98] RADIO
[21:09:26.335391] [98] RADIO_STATUS
[21:09:26.783440] [173] HEARTBEAT
[21:09:27.017640] [174] VFR_HUD
[21:09:27.246517] [99] RADIO
[21:09:27.249512] [99] RADIO_STATUS
[21:09:27.837817] [175] HEARTBEAT
[21:09:27.841622] [176] SYS_STATUS
[21:09:27.959687] [177] BATTERY_STATUS
[21:09:27.967682] [178] ATTITUDE_TARGET
[21:09:27.997871] [179] VFR_HUD
[21:09:28.276743] [100] RADIO
[21:09:28.279869] [100] RADIO_STATUS
[21:09:28.626802] [180] VFR_HUD
[21:09:28.742768] [181] HEARTBEAT
[21:09:29.315822] [101] RADIO
[21:09:29.318909] [101] RADIO_STATUS
[21:09:29.436825] [182] VFR_HUD
[21:09:29.785911] [183] HEARTBEAT
[21:09:29.792853] [184] ATTITUDE_TARGET
[21:09:30.130905] [185] VFR_HUD
[21:09:30.246907] [102] RADIO
[21:09:30.249904] [102] RADIO_STATUS
[21:09:30.811122] [186] HEARTBEAT
[21:09:31.051014] [187] VFR_HUD
[21:09:31.265156] [103] RADIO
[21:09:31.268035] [103] RADIO_STATUS
[21:09:31.748169] [188] HEARTBEAT
[21:09:31.755117] [189] SYS_STATUS
[21:09:31.789140] [190] BATTERY_STATUS
[21:09:31.791084] [191] EXTENDED_SYS_STATE
[21:09:31.800512] [192] ATTITUDE_TARGET
[21:09:31.803060] [193] VFR_HUD
[21:09:31.807132] [194] SYSTEM_TIME
[21:09:32.304265] [104] RADIO
[21:09:32.307326] [104] RADIO_STATUS
[21:09:32.535246] [195] VFR_HUD
[21:09:32.760312] [196] HEARTBEAT
[21:09:33.333509] [105] RADIO
[21:09:33.336472] [105] RADIO_STATUS
[21:09:33.454434] [197] VFR_HUD
[21:09:33.818628] [198] HEARTBEAT
[21:09:33.826520] [199] ATTITUDE_TARGET
[21:09:34.144529] [200] VFR_HUD
[21:09:34.253638] [106] RADIO
[21:09:34.256542] [106] RADIO_STATUS
[21:09:34.724800] [201] HEARTBEAT
[21:09:34.953760] [202] VFR_HUD
[21:09:35.292698] [107] RADIO
[21:09:35.297574] [107] RADIO_STATUS
[21:09:35.761873] [203] HEARTBEAT
[21:09:35.767932] [204] SYS_STATUS
[21:09:35.882889] [205] BATTERY_STATUS
[21:09:35.999900] [206] ATTITUDE_TARGET
[21:09:36.005190] [207] VFR_HUD
[21:09:36.322882] [108] RADIO
[21:09:36.325912] [108] RADIO_STATUS
[21:09:36.564037] [208] VFR_HUD
[21:09:36.796888] [209] HEARTBEAT
[21:09:37.363098] [210] VFR_HUD
[21:09:37.390248] [109] RADIO
[21:09:37.393056] [109] RADIO_STATUS
[21:09:37.832310] [211] HEARTBEAT
[21:09:37.840253] [212] ATTITUDE_TARGET
[21:09:38.173284] [213] VFR_HUD
[21:09:38.282235] [110] RADIO
[21:09:38.285256] [110] RADIO_STATUS
[21:09:38.738395] [214] HEARTBEAT
[21:09:38.972455] [215] VFR_HUD
[21:09:39.314990] [111] RADIO
[21:09:39.315132] [111] RADIO_STATUS
[21:09:39.794670] [216] HEARTBEAT
[21:09:39.801508] [217] SYS_STATUS
[21:09:39.840481] [218] BATTERY_STATUS
[21:09:39.848488] [219] ATTITUDE_TARGET
[21:09:39.854021] [220] VFR_HUD
[21:09:40.350694] [112] RADIO
[21:09:40.353621] [112] RADIO_STATUS
[21:09:40.817670] [221] VFR_HUD
[21:09:40.820735] [222] HEARTBEAT
[21:09:41.380771] [113] RADIO
[21:09:41.383800] [113] RADIO_STATUS
[21:09:41.418746] [223] VFR_HUD
[21:09:41.726816] [224] HEARTBEAT
[21:09:41.749887] [225] ATTITUDE_TARGET
[21:09:42.190860] [226] VFR_HUD
[21:09:42.300911] [114] RADIO
[21:09:42.302838] [114] RADIO_STATUS
[21:09:42.765992] [227] HEARTBEAT
[21:09:43.005968] [228] VFR_HUD
[21:09:43.340114] [115] RADIO
[21:09:43.343013] [115] RADIO_STATUS
[21:09:43.808212] [229] HEARTBEAT
[21:09:43.815069] [230] SYS_STATUS
[21:09:43.934091] [231] BATTERY_STATUS
[21:09:44.047177] [232] ATTITUDE_TARGET
[21:09:44.052074] [233] VFR_HUD
[21:09:44.369211] [116] RADIO
[21:09:44.372132] [116] RADIO_STATUS
[21:09:44.610251] [234] VFR_HUD
[21:09:44.841344] [235] HEARTBEAT
[21:09:45.410509] [236] VFR_HUD
[21:09:45.437428] [117] RADIO
[21:09:45.439374] [117] RADIO_STATUS
[21:09:45.769489] [237] HEARTBEAT
[21:09:45.776493] [238] ATTITUDE_TARGET
[21:09:46.219495] [239] VFR_HUD
[21:09:46.334504] [118] RADIO
[21:09:46.337466] [118] RADIO_STATUS
[21:09:46.784626] [240] HEARTBEAT
[21:09:47.019608] [241] VFR_HUD
[21:09:47.358685] [119] RADIO
[21:09:47.361631] [119] RADIO_STATUS
[21:09:47.841786] [242] HEARTBEAT
[21:09:47.876891] [243] SYS_STATUS
[21:09:47.884840] [244] BATTERY_STATUS
[21:09:47.900800] [245] ATTITUDE_TARGET
[21:09:47.904873] [246] VFR_HUD
[21:09:48.403841] [120] RADIO
[21:09:48.405793] [120] RADIO_STATUS
[21:09:48.628888] [247] VFR_HUD
[21:09:48.743933] [248] HEARTBEAT
[21:09:49.323035] [121] RADIO
[21:09:49.326167] [121] RADIO_STATUS
[21:09:49.443121] [249] VFR_HUD
[21:09:49.787249] [250] HEARTBEAT
[21:09:49.795343] [251] ATTITUDE_TARGET
[21:09:50.133165] [252] VFR_HUD
[21:09:50.347174] [122] RADIO
[21:09:50.350131] [122] RADIO_STATUS
[21:09:50.813344] [253] HEARTBEAT
[21:09:50.932280] [254] VFR_HUD
[21:09:51.391303] [123] RADIO
[21:09:51.394347] [123] RADIO_STATUS
[21:09:51.744469] [255] HEARTBEAT
[21:09:51.751427] [0] SYS_STATUS
[21:09:51.872455] [1] BATTERY_STATUS
[21:09:51.874346] [2] EXTENDED_SYS_STATE
[21:09:51.882451] [3] ATTITUDE_TARGET
[21:09:51.887413] [4] VFR_HUD
[21:09:51.890372] [5] SYSTEM_TIME
[21:09:52.415605] [124] RADIO
[21:09:52.418590] [124] RADIO_STATUS
[21:09:52.536559] [6] VFR_HUD
[21:09:52.761634] [7] HEARTBEAT
[21:09:53.345695] [8] VFR_HUD
[21:09:53.460753] [125] RADIO
[21:09:53.463674] [125] RADIO_STATUS
[21:09:53.814794] [9] HEARTBEAT
[21:09:53.822872] [10] ATTITUDE_TARGET
[21:09:54.145903] [11] VFR_HUD
[21:09:54.379876] [126] RADIO
[21:09:54.382826] [126] RADIO_STATUS
[21:09:54.725960] [12] HEARTBEAT
[21:09:54.955996] [13] VFR_HUD
[21:09:55.405125] [127] RADIO
[21:09:55.407984] [127] RADIO_STATUS
[21:09:55.764359] [14] HEARTBEAT
[21:09:55.769197] [15] SYS_STATUS
[21:09:55.884141] [16] BATTERY_STATUS
[21:09:56.002187] [17] ATTITUDE_TARGET
[21:09:56.007119] [18] VFR_HUD
[21:09:56.449176] [128] RADIO
[21:09:56.452163] [128] RADIO_STATUS
[21:09:56.565167] [19] VFR_HUD
[21:09:56.795446] [20] HEARTBEAT
[21:09:57.364958] [21] VFR_HUD
[21:09:57.392312] [129] RADIO
[21:09:57.394545] [129] RADIO_STATUS
[21:09:57.833502] [22] HEARTBEAT
[21:09:57.841467] [23] ATTITUDE_TARGET
[21:09:58.179448] [24] VFR_HUD
[21:09:58.393561] [130] RADIO
[21:09:58.396533] [130] RADIO_STATUS
[21:09:58.739578] [25] HEARTBEAT
[21:09:58.973624] [26] VFR_HUD
[21:09:59.432668] [131] RADIO
[21:09:59.435677] [131] RADIO_STATUS
[21:09:59.795748] [27] HEARTBEAT
[21:09:59.802774] [28] SYS_STATUS
[21:09:59.842770] [29] BATTERY_STATUS
[21:09:59.850844] [30] ATTITUDE_TARGET
[21:09:59.854775] [31] VFR_HUD
[21:10:00.462860] [132] RADIO
[21:10:00.465838] [132] RADIO_STATUS
[21:10:00.818938] [32] VFR_HUD
[21:10:00.821909] [33] HEARTBEAT
[21:10:01.382020] [133] RADIO
[21:10:01.385072] [133] RADIO_STATUS
[21:10:01.421006] [34] VFR_HUD
[21:10:01.730293] [35] HEARTBEAT
[21:10:01.751175] [36] ATTITUDE_TARGET
[21:10:02.193198] [37] VFR_HUD
[21:10:02.422252] [134] RADIO
[21:10:02.425148] [134] RADIO_STATUS
[21:10:02.773406] [38] HEARTBEAT
[21:10:03.002267] [39] VFR_HUD
[21:10:03.451360] [135] RADIO
[21:10:03.454314] [135] RADIO_STATUS
[21:10:03.809529] [40] HEARTBEAT
[21:10:03.816444] [41] SYS_STATUS
[21:10:03.936446] [42] BATTERY_STATUS
[21:10:04.048455] [43] ATTITUDE_TARGET
[21:10:04.053422] [44] VFR_HUD
[21:10:04.490485] [136] RADIO
[21:10:04.493446] [136] RADIO_STATUS
[21:10:04.611542] [45] VFR_HUD
[21:10:04.722714] [46] HEARTBEAT
[21:10:05.413462] [47] VFR_HUD
[21:10:05.438635] [137] RADIO
[21:10:05.441589] [137] RADIO_STATUS
[21:10:05.769855] [48] HEARTBEAT
[21:10:05.777754] [49] ATTITUDE_TARGET
[21:10:06.220810] [50] VFR_HUD
[21:10:06.439826] [138] RADIO
[21:10:06.442802] [138] RADIO_STATUS
[21:10:06.785939] [51] HEARTBEAT
[21:10:07.020858] [52] VFR_HUD
[21:10:07.480563] [139] RADIO
[21:10:07.481977] [139] RADIO_STATUS
[21:10:07.843042] [53] HEARTBEAT
[21:10:07.849000] [54] SYS_STATUS
[21:10:07.889045] [55] BATTERY_STATUS
[21:10:07.897198] [56] ATTITUDE_TARGET
[21:10:07.901967] [57] VFR_HUD
[21:10:08.509114] [140] RADIO
[21:10:08.514515] [140] RADIO_STATUS
[21:10:08.582225] [58] VFR_HUD
[21:10:08.745211] [59] HEARTBEAT
[21:10:09.429263] [141] RADIO
[21:10:09.431286] [141] RADIO_STATUS
[21:10:09.467261] [60] VFR_HUD
[21:10:09.788421] [61] HEARTBEAT
[21:10:09.796290] [62] ATTITUDE_TARGET
[21:10:10.129561] [63] VFR_HUD
[21:10:10.468483] [142] RADIO
[21:10:10.471446] [142] RADIO_STATUS
[21:10:10.814513] [64] HEARTBEAT
[21:10:10.934427] [65] VFR_HUD
[21:10:11.498628] [143] RADIO
[21:10:11.501509] [143] RADIO_STATUS
[21:10:11.746601] [66] HEARTBEAT
[21:10:11.753672] [67] SYS_STATUS
[21:10:11.874678] [68] BATTERY_STATUS
[21:10:11.876605] [69] EXTENDED_SYS_STATE
[21:10:11.884729] [70] ATTITUDE_TARGET
[21:10:11.888735] [71] VFR_HUD
[21:10:11.892591] [72] SYSTEM_TIME
[21:10:12.538829] [73] VFR_HUD
[21:10:12.565751] [144] RADIO
[21:10:12.568705] [144] RADIO_STATUS
[21:10:12.763771] [74] HEARTBEAT
[21:10:13.347884] [75] VFR_HUD
[21:10:13.464969] [145] RADIO
[21:10:13.465849] [145] RADIO_STATUS
[21:10:13.816967] [76] HEARTBEAT
[21:10:13.824961] [77] ATTITUDE_TARGET
[21:10:14.148102] [78] VFR_HUD
[21:10:14.487051] [146] RADIO
[21:10:14.490029] [146] RADIO_STATUS
[21:10:14.723092] [79] HEARTBEAT
[21:10:14.957130] [80] VFR_HUD
[21:10:15.532234] [147] RADIO
[21:10:15.535161] [147] RADIO_STATUS
[21:10:15.765359] [81] HEARTBEAT
[21:10:15.771295] [82] SYS_STATUS
[21:10:15.886459] [83] BATTERY_STATUS
[21:10:16.004382] [84] ATTITUDE_TARGET
[21:10:16.008363] [85] VFR_HUD
[21:10:16.556462] [148] RADIO
[21:10:16.559425] [148] RADIO_STATUS
[21:10:16.595503] [86] VFR_HUD
[21:10:16.792504] [87] HEARTBEAT
[21:10:17.366531] [88] VFR_HUD
[21:10:17.475567] [149] RADIO
[21:10:17.478483] [149] RADIO_STATUS
[21:10:17.835730] [89] HEARTBEAT
[21:10:17.843587] [90] ATTITUDE_TARGET
[21:10:18.181665] [91] VFR_HUD
[21:10:18.520773] [150] RADIO
[21:10:18.523692] [150] RADIO_STATUS
[21:10:18.741883] [92] HEARTBEAT
[21:10:18.975886] [93] VFR_HUD
[21:10:19.544902] [151] RADIO
[21:10:19.547857] [151] RADIO_STATUS
[21:10:19.793049] [94] HEARTBEAT
[21:10:19.798982] [95] SYS_STATUS
[21:10:19.918143] [96] BATTERY_STATUS
[21:10:19.926152] [97] ATTITUDE_TARGET
[21:10:19.956079] [98] VFR_HUD
[21:10:20.585220] [99] VFR_HUD
[21:10:20.617198] [152] RADIO
[21:10:20.620082] [152] RADIO_STATUS
[21:10:20.810236] [100] HEARTBEAT
[21:10:21.395288] [101] VFR_HUD
[21:10:21.509233] [153] RADIO
[21:10:21.512190] [153] RADIO_STATUS
[21:10:21.730276] [102] HEARTBEAT
[21:10:21.753253] [103] ATTITUDE_TARGET
[21:10:22.194325] [104] VFR_HUD
[21:10:22.533451] [154] RADIO
[21:10:22.536456] [154] RADIO_STATUS
[21:10:22.774555] [105] HEARTBEAT
[21:10:23.004483] [106] VFR_HUD
[21:10:23.578558] [155] RADIO
[21:10:23.581457] [155] RADIO_STATUS
[21:10:23.811566] [107] HEARTBEAT
[21:10:23.817574] [108] SYS_STATUS
[21:10:23.932619] [109] BATTERY_STATUS
[21:10:24.050582] [110] ATTITUDE_TARGET
[21:10:24.055777] [111] VFR_HUD
[21:10:24.492659] [156] RADIO
[21:10:24.495626] [156] RADIO_STATUS
[21:10:24.613682] [112] VFR_HUD
[21:10:24.718681] [113] HEARTBEAT
[21:10:25.412823] [114] VFR_HUD
[21:10:25.522792] [157] RADIO
[21:10:25.525799] [157] RADIO_STATUS
[21:10:25.777042] [115] HEARTBEAT
[21:10:25.784795] [116] ATTITUDE_TARGET
[21:10:26.227846] [117] VFR_HUD
[21:10:26.561889] [158] RADIO
[21:10:26.564854] [158] RADIO_STATUS
[21:10:26.787989] [118] HEARTBEAT
[21:10:27.022023] [119] VFR_HUD
[21:10:27.591094] [159] RADIO
[21:10:27.594136] [159] RADIO_STATUS
[21:10:27.844150] [120] HEARTBEAT
[21:10:27.851198] [121] SYS_STATUS
[21:10:27.891200] [122] BATTERY_STATUS
[21:10:27.901802] [123] ATTITUDE_TARGET
[21:10:27.905871] [124] VFR_HUD
[21:10:28.513207] [160] RADIO
[21:10:28.514170] [160] RADIO_STATUS
[21:10:28.757298] [125] VFR_HUD
[21:10:28.760303] [126] HEARTBEAT
[21:10:29.550440] [127] VFR_HUD
[21:10:29.562404] [161] RADIO
[21:10:29.564353] [161] RADIO_STATUS
[21:10:29.790470] [128] HEARTBEAT
[21:10:29.798442] [129] ATTITUDE_TARGET
[21:10:30.130526] [130] VFR_HUD
[21:10:30.579750] [162] RADIO
[21:10:30.582658] [162] RADIO_STATUS
[21:10:30.820652] [131] HEARTBEAT
[21:10:30.930686] [132] VFR_HUD
[21:10:31.619731] [163] RADIO
[21:10:31.622655] [163] RADIO_STATUS
[21:10:31.875861] [135] BATTERY_STATUS
[21:10:31.877883] [136] EXTENDED_SYS_STATE
[21:10:31.885919] [137] ATTITUDE_TARGET
[21:10:31.890051] [138] VFR_HUD
[21:10:31.893756] [139] SYSTEM_TIME
[21:10:32.541426] [140] VFR_HUD
[21:10:32.566907] [164] RADIO
[21:10:32.569881] [164] RADIO_STATUS
[21:10:32.764982] [141] HEARTBEAT
[21:10:33.349037] [142] VFR_HUD
[21:10:33.568064] [165] RADIO
[21:10:33.571059] [165] RADIO_STATUS
[21:10:33.818180] [143] HEARTBEAT
[21:10:33.826084] [144] ATTITUDE_TARGET
[21:10:34.149790] [145] VFR_HUD
[21:10:34.607168] [166] RADIO
[21:10:34.610369] [166] RADIO_STATUS
[21:10:34.724228] [146] HEARTBEAT
[21:10:34.963313] [147] VFR_HUD
[21:10:35.637455] [167] RADIO
[21:10:35.640395] [167] RADIO_STATUS
[21:10:35.765457] [148] HEARTBEAT
[21:10:35.772448] [149] SYS_STATUS
[21:10:35.886455] [150] BATTERY_STATUS
[21:10:36.004510] [151] ATTITUDE_TARGET
[21:10:36.009460] [152] VFR_HUD
[21:10:36.556473] [168] RADIO
[21:10:36.559458] [168] RADIO_STATUS
[21:10:36.595666] [153] VFR_HUD
[21:10:36.792604] [154] HEARTBEAT
[21:10:37.366877] [155] VFR_HUD
[21:10:37.596798] [169] RADIO
[21:10:37.598794] [169] RADIO_STATUS
[21:10:37.835767] [156] HEARTBEAT
[21:10:37.843734] [157] ATTITUDE_TARGET
[21:10:38.181981] [158] VFR_HUD
[21:10:38.625861] [170] RADIO
[21:10:38.628826] [170] RADIO_STATUS
[21:10:38.741881] [159] HEARTBEAT
[21:10:38.975905] [160] VFR_HUD
[21:10:39.664968] [171] RADIO
[21:10:39.667964] [171] RADIO_STATUS
[21:10:39.919077] [163] BATTERY_STATUS
[21:10:39.927056] [164] ATTITUDE_TARGET
[21:10:39.957032] [165] VFR_HUD
[21:10:40.586165] [166] VFR_HUD
[21:10:40.618124] [172] RADIO
[21:10:40.621167] [172] RADIO_STATUS
[21:10:40.811253] [167] HEARTBEAT
[21:10:41.396603] [168] VFR_HUD
[21:10:41.614320] [173] RADIO
[21:10:41.617313] [173] RADIO_STATUS
[21:10:41.731340] [169] HEARTBEAT
[21:10:41.753384] [170] ATTITUDE_TARGET
[21:10:42.195486] [171] VFR_HUD
[21:10:42.659500] [174] RADIO
[21:10:42.662597] [174] RADIO_STATUS
[21:10:42.775530] [172] HEARTBEAT
[21:10:43.004574] [173] VFR_HUD
[21:10:43.578683] [175] RADIO
[21:10:43.581645] [175] RADIO_STATUS
[21:10:43.811714] [174] HEARTBEAT
[21:10:43.818763] [175] SYS_STATUS
[21:10:43.933691] [176] BATTERY_STATUS
[21:10:44.050730] [177] ATTITUDE_TARGET
[21:10:44.055722] [178] VFR_HUD
[21:10:44.603829] [176] RADIO
[21:10:44.606762] [176] RADIO_STATUS
[21:10:44.641861] [179] VFR_HUD
[21:10:44.719884] [180] HEARTBEAT
[21:10:45.414015] [181] VFR_HUD
[21:10:45.648070] [177] RADIO
[21:10:45.651000] [177] RADIO_STATUS
[21:10:45.778066] [182] HEARTBEAT
[21:10:45.786034] [183] ATTITUDE_TARGET
[21:10:46.229090] [184] VFR_HUD
[21:10:46.673163] [178] RADIO
[21:10:46.676157] [178] RADIO_STATUS
[21:10:46.789219] [185] HEARTBEAT
[21:10:47.023241] [186] VFR_HUD
[21:10:47.592314] [179] RADIO
[21:10:47.595378] [179] RADIO_STATUS
[21:10:47.950610] [187] HEARTBEAT
[21:10:47.957408] [188] SYS_STATUS
[21:10:48.072441] [189] BATTERY_STATUS
[21:10:48.189444] [190] ATTITUDE_TARGET
[21:10:48.194426] [191] VFR_HUD
[21:10:48.632533] [192] VFR_HUD
[21:10:48.665481] [180] RADIO
[21:10:48.668460] [180] RADIO_STATUS
[21:10:48.753543] [193] HEARTBEAT
[21:10:49.442668] [194] VFR_HUD
[21:10:49.661732] [181] RADIO
[21:10:49.664755] [181] RADIO_STATUS
[21:10:49.791774] [195] HEARTBEAT
[21:10:49.799741] [196] ATTITUDE_TARGET
[21:10:50.706928] [182] RADIO
[21:10:50.709883] [182] RADIO_STATUS
[21:10:50.823032] [198] HEARTBEAT
[21:10:50.931933] [199] VFR_HUD
[21:10:51.621137] [183] RADIO
[21:10:51.624013] [183] RADIO_STATUS
[21:10:51.750238] [200] HEARTBEAT
[21:10:51.756119] [201] SYS_STATUS
[21:10:51.878192] [202] BATTERY_STATUS
[21:10:51.879053] [203] EXTENDED_SYS_STATE
[21:10:51.887096] [204] ATTITUDE_TARGET
[21:10:51.892094] [205] VFR_HUD
[21:10:51.896560] [206] SYSTEM_TIME
[21:10:52.542330] [207] VFR_HUD
[21:10:52.651253] [184] RADIO
[21:10:52.654239] [184] RADIO_STATUS
[21:10:52.767277] [208] HEARTBEAT
[21:10:53.356591] [209] VFR_HUD
[21:10:53.655553] JAMMING_START
[21:10:53.690428] [185] RADIO
[21:10:53.693459] [185] RADIO_STATUS
[21:10:53.825481] [210] HEARTBEAT
[21:10:53.833429] [211] ATTITUDE_TARGET
[21:10:54.151475] [212] VFR_HUD
[21:10:54.719565] [186] RADIO
[21:10:54.722511] [186] RADIO_STATUS
[21:10:54.836571] [213] HEARTBEAT
[21:10:54.965580] [214] VFR_HUD
[21:10:55.639724] [187] RADIO
[21:10:55.642701] [187] RADIO_STATUS
[21:10:55.767746] [215] HEARTBEAT
[21:10:55.774754] [216] SYS_STATUS
[21:10:56.006808] [218] ATTITUDE_TARGET
[21:10:56.013685] [219] VFR_HUD
[21:10:56.574893] [220] VFR_HUD
[21:10:56.690847] [188] RADIO
[21:10:56.693919] [188] RADIO_STATUS
[21:10:56.804943] [221] HEARTBEAT
[21:10:57.370103] [222] VFR_HUD
[21:10:57.709072] [189] RADIO
[21:10:57.712195] [189] RADIO_STATUS
[21:10:57.839120] [223] HEARTBEAT
[21:10:57.846100] [224] ATTITUDE_TARGET
[21:10:58.744354] [226] HEARTBEAT
[21:10:58.858244] [190] RADIO
[21:10:58.861260] [190] RADIO_STATUS
[21:10:58.979461] [227] VFR_HUD
[21:10:59.667445] [191] RADIO
[21:10:59.670452] [191] RADIO_STATUS
[21:10:59.795604] [228] HEARTBEAT
[21:10:59.802551] [229] SYS_STATUS
[21:10:59.921560] [230] BATTERY_STATUS
[21:10:59.930235] [231] ATTITUDE_TARGET
[21:10:59.959551] [232] VFR_HUD
[21:11:00.588640] [233] VFR_HUD
[21:11:00.697833] [192] RADIO
[21:11:00.700514] [192] RADIO_STATUS
[21:11:00.813720] [234] HEARTBEAT
[21:11:01.397792] [235] VFR_HUD
[21:11:01.746790] [236] HEARTBEAT
[21:11:01.754716] [237] ATTITUDE_TARGET
[21:11:01.846726] [193] RADIO
[21:11:01.849733] [193] RADIO_STATUS
[21:11:02.196900] [238] VFR_HUD
[21:11:02.765930] [194] RADIO
[21:11:02.768830] [194] RADIO_STATUS
[21:11:02.881937] [239] HEARTBEAT
[21:11:03.011958] [240] VFR_HUD
[21:11:03.685048] [195] RADIO
[21:11:03.688034] [195] RADIO_STATUS
[21:11:03.814121] [241] HEARTBEAT
[21:11:03.820132] [242] SYS_STATUS
[21:11:04.053219] [244] ATTITUDE_TARGET
[21:11:04.057655] [245] VFR_HUD
[21:11:04.621306] [246] VFR_HUD
[21:11:04.732237] [247] HEARTBEAT
[21:11:04.758215] [196] RADIO
[21:11:04.761180] [196] RADIO_STATUS
[21:11:05.415385] [248] VFR_HUD
[21:11:05.754412] [197] RADIO
[21:11:05.757395] [197] RADIO_STATUS
[21:11:05.802450] [249] HEARTBEAT
[21:11:05.810460] [250] ATTITUDE_TARGET
[21:11:06.337833] [251] VFR_HUD
[21:11:06.790584] [252] HEARTBEAT
[21:11:06.903547] [198] RADIO
[21:11:06.906549] [198] RADIO_STATUS
[21:11:07.024671] [253] VFR_HUD
[21:11:07.718747] [199] RADIO
[21:11:07.721644] [199] RADIO_STATUS
[21:11:07.841736] [254] HEARTBEAT
[21:11:07.848776] [255] SYS_STATUS
[21:11:07.966803] [0] BATTERY_STATUS
[21:11:07.974753] [1] ATTITUDE_TARGET
[21:11:08.004757] [2] VFR_HUD
[21:11:08.633890] [3] VFR_HUD
[21:11:08.742874] [200] RADIO
[21:11:08.745855] [200] RADIO_STATUS
[21:11:08.777890] [4] HEARTBEAT
[21:11:09.444017] [5] VFR_HUD
[21:11:09.793053] [6] HEARTBEAT
[21:11:09.801075] [7] ATTITUDE_TARGET
[21:11:09.811109] [201] RADIO
[21:11:09.814065] [201] RADIO_STATUS
[21:11:10.134129] [8] VFR_HUD
[21:11:10.812227] [202] RADIO
[21:11:10.815183] [202] RADIO_STATUS
[21:11:10.933320] [10] VFR_HUD
[21:11:11.732614] [203] RADIO
[21:11:11.735436] [203] RADIO_STATUS
[21:11:11.796596] [11] HEARTBEAT
[21:11:11.802464] [12] SYS_STATUS
[21:11:11.810501] [13] BATTERY_STATUS
[21:11:11.811428] [14] EXTENDED_SYS_STATE
[21:11:11.828442] [15] ATTITUDE_TARGET
[21:11:11.833770] [16] VFR_HUD
[21:11:11.836467] [17] SYSTEM_TIME
[21:11:12.542498] [18] VFR_HUD
[21:11:12.767592] [19] HEARTBEAT
[21:11:12.799503] [204] RADIO
[21:11:12.802478] [204] RADIO_STATUS
[21:11:13.357602] [20] VFR_HUD
[21:11:13.800717] [205] RADIO
[21:11:13.803623] [205] RADIO_STATUS
[21:11:13.848712] [21] HEARTBEAT
[21:11:13.856740] [22] ATTITUDE_TARGET
[21:11:14.151766] [23] VFR_HUD
[21:11:14.726872] [24] HEARTBEAT
[21:11:14.845814] [206] RADIO
[21:11:14.848830] [206] RADIO_STATUS
[21:11:14.966903] [25] VFR_HUD
[21:11:15.769054] [26] HEARTBEAT
[21:11:15.778477] [27] SYS_STATUS
[21:11:15.787973] [207] RADIO
[21:11:15.790945] [207] RADIO_STATUS
[21:11:15.895271] [28] BATTERY_STATUS
[21:11:16.008077] [29] ATTITUDE_TARGET
[21:11:16.013074] [30] VFR_HUD
[21:11:16.790174] [208] RADIO
[21:11:16.793904] [208] RADIO_STATUS
[21:11:16.824221] [32] HEARTBEAT
[21:11:17.371274] [33] VFR_HUD
[21:11:17.838350] [209] RADIO
[21:11:17.841282] [209] RADIO_STATUS
[21:11:18.180400] [36] VFR_HUD
[21:11:18.745451] [37] HEARTBEAT
[21:11:18.859487] [210] RADIO
[21:11:18.862464] [210] RADIO_STATUS
[21:11:18.979492] [38] VFR_HUD
[21:11:19.778604] [211] RADIO
[21:11:19.781584] [211] RADIO_STATUS
[21:11:19.906731] [39] HEARTBEAT
[21:11:19.913997] [40] SYS_STATUS
[21:11:20.145797] [42] ATTITUDE_TARGET
[21:11:20.150731] [43] VFR_HUD
[21:11:20.588746] [44] VFR_HUD
[21:11:20.814778] [45] HEARTBEAT
[21:11:20.845793] [212] RADIO
[21:11:20.848718] [212] RADIO_STATUS
[21:11:21.403852] [46] VFR_HUD
[21:11:21.747910] [47] HEARTBEAT
[21:11:21.755883] [48] ATTITUDE_TARGET
[21:11:21.847966] [213] RADIO
[21:11:21.850862] [213] RADIO_STATUS
[21:11:22.198980] [49] VFR_HUD
[21:11:22.774044] [50] HEARTBEAT
[21:11:22.893109] [214] RADIO
[21:11:22.896107] [214] RADIO_STATUS
[21:11:23.013135] [51] VFR_HUD
[21:11:23.815247] [52] HEARTBEAT
[21:11:23.822235] [53] SYS_STATUS
[21:11:23.917225] [215] RADIO
[21:11:23.920178] [215] RADIO_STATUS
[21:11:23.987272] [54] BATTERY_STATUS
[21:11:23.994299] [55] ATTITUDE_TARGET
[21:11:23.999220] [56] VFR_HUD
[21:11:24.733427] [57] VFR_HUD
[21:11:24.736436] [58] HEARTBEAT
[21:11:24.836355] [216] RADIO
[21:11:24.839546] [216] RADIO_STATUS
[21:11:25.417566] [59] VFR_HUD
[21:11:25.885535] [60] HEARTBEAT
[21:11:25.893562] [61] ATTITUDE_TARGET
[21:11:25.986637] [217] RADIO
[21:11:25.989537] [217] RADIO_STATUS
[21:11:26.226595] [62] VFR_HUD
[21:11:26.792677] [63] HEARTBEAT
[21:11:26.907931] [218] RADIO
[21:11:26.908641] [218] RADIO_STATUS
[21:11:27.026658] [64] VFR_HUD
[21:11:27.825799] [219] RADIO
[21:11:27.831751] [219] RADIO_STATUS
[21:11:27.953852] [65] HEARTBEAT
[21:11:27.960844] [66] SYS_STATUS
[21:11:28.192895] [68] ATTITUDE_TARGET
[21:11:28.197879] [69] VFR_HUD
[21:11:28.525890] [70] VFR_HUD
[21:11:28.756986] [71] HEARTBEAT
[21:11:28.865003] [220] RADIO
[21:11:28.867932] [220] RADIO_STATUS
[21:11:29.446038] [72] VFR_HUD
[21:11:29.795220] [73] HEARTBEAT
[21:11:29.803233] [74] ATTITUDE_TARGET
[21:11:29.895361] [221] RADIO
[21:11:29.898157] [221] RADIO_STATUS
[21:11:30.140252] [75] VFR_HUD
[21:11:30.814406] [222] RADIO
[21:11:30.817370] [222] RADIO_STATUS
[21:11:30.938419] [76] HEARTBEAT
[21:11:30.943390] [77] VFR_HUD
[21:11:31.757514] [78] HEARTBEAT
[21:11:31.764501] [79] SYS_STATUS
[21:11:31.798522] [80] BATTERY_STATUS
[21:11:31.800470] [81] EXTENDED_SYS_STATE
[21:11:31.807487] [82] ATTITUDE_TARGET
[21:11:31.812479] [83] VFR_HUD
[21:11:31.816503] [84] SYSTEM_TIME
[21:11:31.853491] [223] RADIO
[21:11:31.856449] [223] RADIO_STATUS
[21:11:32.544588] [85] VFR_HUD
[21:11:32.769657] [86] HEARTBEAT
[21:11:32.886612] [224] RADIO
[21:11:32.889632] [224] RADIO_STATUS
[21:11:33.358701] [87] VFR_HUD
[21:11:33.923099] [225] RADIO
[21:11:33.926269] [225] RADIO_STATUS
[21:11:34.153895] [90] VFR_HUD
[21:11:34.733949] [91] HEARTBEAT
[21:11:34.847987] [226] RADIO
[21:11:34.850950] [226] RADIO_STATUS
[21:11:35.771223] [93] HEARTBEAT
[21:11:35.778164] [94] SYS_STATUS
[21:11:35.873148] [227] RADIO
[21:11:35.876107] [227] RADIO_STATUS
[21:11:35.942139] [95] BATTERY_STATUS
[21:11:35.950188] [96] ATTITUDE_TARGET
[21:11:35.955159] [97] VFR_HUD
[21:11:36.814352] [98] VFR_HUD
[21:11:36.816368] [99] HEARTBEAT
[21:11:37.022508] [228] RADIO
[21:11:37.025526] [228] RADIO_STATUS
[21:11:37.372460] [100] VFR_HUD
[21:11:37.718632] [101] HEARTBEAT
[21:11:37.740500] [102] ATTITUDE_TARGET
[21:11:37.941568] [229] RADIO
[21:11:37.944506] [229] RADIO_STATUS
[21:11:38.182626] [103] VFR_HUD
[21:11:38.747708] [104] HEARTBEAT
[21:11:38.861702] [230] RADIO
[21:11:38.864755] [230] RADIO_STATUS
[21:11:38.981738] [105] VFR_HUD
[21:11:39.804884] [106] HEARTBEAT
[21:11:39.811090] [107] SYS_STATUS
[21:11:39.850862] [108] BATTERY_STATUS
[21:11:39.858837] [109] ATTITUDE_TARGET
[21:11:39.863839] [110] VFR_HUD
[21:11:39.905900] [231] RADIO
[21:11:39.908851] [231] RADIO_STATUS
[21:11:40.827069] [111] VFR_HUD
[21:11:40.830474] [112] HEARTBEAT
[21:11:40.929967] [232] RADIO
[21:11:40.932964] [232] RADIO_STATUS
[21:11:41.406115] [113] VFR_HUD
[21:11:41.750189] [114] HEARTBEAT
[21:11:41.758194] [115] ATTITUDE_TARGET
[21:11:41.975146] [233] RADIO
[21:11:41.978180] [233] RADIO_STATUS
[21:11:42.201316] [116] VFR_HUD
[21:11:42.776368] [117] HEARTBEAT
[21:11:42.894547] [234] RADIO
[21:11:42.897432] [234] RADIO_STATUS
[21:11:43.121731] [118] VFR_HUD
[21:11:43.817566] [119] HEARTBEAT
[21:11:43.824578] [120] SYS_STATUS
[21:11:43.919587] [235] RADIO
[21:11:43.922541] [235] RADIO_STATUS
[21:11:43.988595] [121] BATTERY_STATUS
[21:11:43.996639] [122] ATTITUDE_TARGET
[21:11:44.001562] [123] VFR_HUD
[21:11:44.735685] [124] VFR_HUD
[21:11:44.738674] [125] HEARTBEAT
[21:11:44.963760] [236] RADIO
[21:11:44.966698] [236] RADIO_STATUS
[21:11:45.419833] [126] VFR_HUD
[21:11:45.778961] [127] HEARTBEAT
[21:11:45.786874] [128] ATTITUDE_TARGET
[21:11:45.906962] [237] RADIO
[21:11:45.909907] [237] RADIO_STATUS
[21:11:46.229208] [129] VFR_HUD
[21:11:46.795368] [130] HEARTBEAT
[21:11:47.029924] [131] VFR_HUD
[21:11:47.061150] [238] RADIO
[21:11:47.064096] [238] RADIO_STATUS
[21:11:47.714251] [132] HEARTBEAT
[21:11:47.734209] [133] SYS_STATUS
[21:11:47.865257] [134] BATTERY_STATUS
[21:11:47.894315] [135] ATTITUDE_TARGET
[21:11:47.899176] [136] VFR_HUD
[21:11:47.953224] [239] RADIO
[21:11:47.956172] [239] RADIO_STATUS
[21:11:48.533342] [137] VFR_HUD
[21:11:48.977470] [240] RADIO
[21:11:48.980455] [240] RADIO_STATUS
[21:11:49.328541] [139] VFR_HUD
[21:11:49.797667] [140] HEARTBEAT
[21:11:49.804604] [141] ATTITUDE_TARGET
[21:11:50.022663] [241] RADIO
[21:11:50.025603] [241] RADIO_STATUS
[21:11:50.142612] [142] VFR_HUD
[21:11:50.822736] [143] HEARTBEAT
[21:11:50.937758] [144] VFR_HUD
[21:11:50.964699] [242] RADIO
[21:11:50.967723] [242] RADIO_STATUS
[21:11:51.759897] [145] HEARTBEAT
[21:11:51.766858] [146] SYS_STATUS
[21:11:51.800838] [147] BATTERY_STATUS
[21:11:51.802812] [148] EXTENDED_SYS_STATE
[21:11:51.812411] [149] ATTITUDE_TARGET
[21:11:51.815818] [150] VFR_HUD
[21:11:51.818810] [151] SYSTEM_TIME
[21:11:51.965867] [243] RADIO
[21:11:51.968874] [243] RADIO_STATUS
[21:11:52.546963] [152] VFR_HUD
[21:11:52.772071] [153] HEARTBEAT
[21:11:53.006066] [244] RADIO
[21:11:53.009872] [244] RADIO_STATUS
[21:11:53.825195] [155] HEARTBEAT
[21:11:53.833197] [156] ATTITUDE_TARGET
[21:11:54.035232] [245] RADIO
[21:11:54.038154] [245] RADIO_STATUS
[21:11:54.156238] [157] VFR_HUD
[21:11:54.736344] [158] HEARTBEAT
[21:11:54.955346] [246] RADIO
[21:11:54.958289] [246] RADIO_STATUS
[21:11:55.075458] [159] VFR_HUD
[21:11:55.772509] [160] HEARTBEAT
[21:11:55.779615] [161] SYS_STATUS
[21:11:55.894510] [162] BATTERY_STATUS
[21:11:56.013538] [163] ATTITUDE_TARGET
[21:11:56.016460] [164] VFR_HUD
[21:11:56.022510] [247] RADIO
[21:11:56.025549] [247] RADIO_STATUS
[21:11:56.575649] [165] VFR_HUD
[21:11:57.024732] [248] RADIO
[21:11:57.027707] [248] RADIO_STATUS
[21:11:57.374802] [167] VFR_HUD
[21:11:57.738889] [168] HEARTBEAT
[21:11:57.746827] [169] ATTITUDE_TARGET
[21:11:58.063931] [249] RADIO
[21:11:58.067007] [249] RADIO_STATUS
[21:11:58.189949] [170] VFR_HUD
[21:11:58.750313] [171] HEARTBEAT
[21:11:58.984062] [172] VFR_HUD
[21:11:59.011071] [250] RADIO
[21:11:59.014032] [250] RADIO_STATUS
[21:11:59.807166] [173] HEARTBEAT
[21:11:59.813182] [174] SYS_STATUS
[21:11:59.853148] [175] BATTERY_STATUS
[21:11:59.861184] [176] ATTITUDE_TARGET
[21:11:59.866167] [177] VFR_HUD
[21:12:00.013377] [251] RADIO
[21:12:00.016162] [251] RADIO_STATUS
[21:12:00.829521] [178] VFR_HUD
[21:12:00.832319] [179] HEARTBEAT
[21:12:01.052405] [252] RADIO
[21:12:01.055323] [252] RADIO_STATUS
[21:12:01.512471] [180] VFR_HUD
[21:12:01.752581] [181] HEARTBEAT
[21:12:01.759534] [182] ATTITUDE_TARGET
[21:12:02.081511] [253] RADIO
[21:12:02.084576] [253] RADIO_STATUS
[21:12:02.202565] [183] VFR_HUD
[21:12:02.782681] [184] HEARTBEAT
[21:12:03.001646] [254] RADIO
[21:12:03.004607] [254] RADIO_STATUS
[21:12:03.122667] [185] VFR_HUD
[21:12:03.819825] [186] HEARTBEAT
[21:12:03.826778] [187] SYS_STATUS
[21:12:03.945814] [188] BATTERY_STATUS
[21:12:04.058946] [189] ATTITUDE_TARGET
[21:12:04.063806] [190] VFR_HUD
[21:12:04.068784] [255] RADIO
[21:12:04.071854] [255] RADIO_STATUS
[21:12:04.622077] [191] VFR_HUD
[21:12:04.726912] [192] HEARTBEAT
[21:12:05.070957] [0] RADIO
[21:12:05.073950] [0] RADIO_STATUS
[21:12:05.421061] [193] VFR_HUD
[21:12:05.780132] [194] HEARTBEAT
[21:12:05.789871] [195] ATTITUDE_TARGET
[21:12:06.110141] [1] RADIO
[21:12:06.113159] [1] RADIO_STATUS
[21:12:06.231137] [196] VFR_HUD
[21:12:06.796294] [197] HEARTBEAT
[21:12:07.031233] [198] VFR_HUD
[21:12:07.063232] [2] RADIO
[21:12:07.066181] [2] RADIO_STATUS
[21:12:07.716479] [199] HEARTBEAT
[21:12:07.736383] [200] SYS_STATUS
[21:12:07.849546] [201] BATTERY_STATUS
[21:12:07.967507] [202] ATTITUDE_TARGET
[21:12:07.971410] [203] VFR_HUD
[21:12:08.059461] [3] RADIO
[21:12:08.062470] [3] RADIO_STATUS
[21:12:08.535553] [204] VFR_HUD
[21:12:08.755643] [205] HEARTBEAT
[21:12:09.104642] [4] RADIO
[21:12:09.107580] [4] RADIO_STATUS
[21:12:09.330088] [206] VFR_HUD
[21:12:09.798746] [207] HEARTBEAT
[21:12:09.806759] [208] ATTITUDE_TARGET
[21:12:10.024730] [5] RADIO
[21:12:10.027728] [5] RADIO_STATUS
[21:12:10.144747] [209] VFR_HUD
[21:12:10.824939] [210] HEARTBEAT
[21:12:10.939961] [211] VFR_HUD
[21:12:11.048893] [6] RADIO
[21:12:11.051909] [6] RADIO_STATUS
[21:12:11.885116] [214] BATTERY_STATUS
[21:12:11.887023] [215] EXTENDED_SYS_STATE
[21:12:11.895213] [216] ATTITUDE_TARGET
[21:12:11.899024] [217] VFR_HUD
[21:12:11.903006] [218] SYSTEM_TIME
[21:12:12.093130] [7] RADIO
[21:12:12.096121] [7] RADIO_STATUS
[21:12:12.549290] [219] VFR_HUD
[21:12:12.774223] [220] HEARTBEAT
[21:12:13.118370] [8] RADIO
[21:12:13.121210] [8] RADIO_STATUS
[21:12:13.358323] [221] VFR_HUD
[21:12:13.827535] [222] HEARTBEAT
[21:12:13.835522] [223] ATTITUDE_TARGET
[21:12:14.037448] [9] RADIO
[21:12:14.040605] [9] RADIO_STATUS
[21:12:14.158478] [224] VFR_HUD
[21:12:14.738599] [225] HEARTBEAT
[21:12:14.967636] [226] VFR_HUD
[21:12:15.082671] [10] RADIO
[21:12:15.085572] [10] RADIO_STATUS
[21:12:15.774766] [227] HEARTBEAT
[21:12:15.781767] [228] SYS_STATUS
[21:12:15.896803] [229] BATTERY_STATUS
[21:12:16.013839] [230] ATTITUDE_TARGET
[21:12:16.018855] [231] VFR_HUD
[21:12:16.106828] [11] RADIO
[21:12:16.109820] [11] RADIO_STATUS
[21:12:16.582860] [232] VFR_HUD
[21:12:16.802969] [233] HEARTBEAT
[21:12:17.150976] [12] RADIO
[21:12:17.153926] [12] RADIO_STATUS
[21:12:17.377028] [234] VFR_HUD
[21:12:17.741202] [235] HEARTBEAT
[21:12:17.749080] [236] ATTITUDE_TARGET
[21:12:18.066151] [13] RADIO
[21:12:18.069116] [13] RADIO_STATUS
[21:12:18.192166] [237] VFR_HUD
[21:12:18.751277] [238] HEARTBEAT
[21:12:18.986313] [239] VFR_HUD
[21:12:19.095273] [14] RADIO
[21:12:19.098373] [14] RADIO_STATUS
[21:12:20.135470] [15] RADIO
[21:12:20.137433] [15] RADIO_STATUS
[21:12:20.726610] [245] VFR_HUD
[21:12:20.729707] [246] HEARTBEAT
[21:12:21.054628] [16] RADIO
[21:12:21.057552] [16] RADIO_STATUS
[21:12:21.410668] [247] VFR_HUD
[21:12:21.754795] [248] HEARTBEAT
[21:12:21.765046] [249] ATTITUDE_TARGET
[21:12:22.084964] [17] RADIO
[21:12:22.087822] [17] RADIO_STATUS
[21:12:22.204826] [250] VFR_HUD
[21:12:22.785906] [251] HEARTBEAT
[21:12:23.014987] [252] VFR_HUD
[21:12:23.123912] [18] RADIO
[21:12:23.126885] [18] RADIO_STATUS
[21:12:23.822116] [253] HEARTBEAT
[21:12:23.829106] [254] SYS_STATUS
[21:12:23.949115] [255] BATTERY_STATUS
[21:12:24.061140] [0] ATTITUDE_TARGET
[21:12:24.066108] [1] VFR_HUD
[21:12:24.072056] [19] RADIO
[21:12:24.074059] [19] RADIO_STATUS
[21:12:24.624163] [2] VFR_HUD
[21:12:24.730293] [3] HEARTBEAT
[21:12:25.073421] [20] RADIO
[21:12:25.076225] [20] RADIO_STATUS
[21:12:25.319336] [4] VFR_HUD
[21:12:25.783883] [5] HEARTBEAT
[21:12:25.791496] [6] ATTITUDE_TARGET
[21:12:26.113524] [21] RADIO
[21:12:26.116459] [21] RADIO_STATUS
[21:12:26.233466] [7] VFR_HUD
[21:12:26.799572] [8] HEARTBEAT
[21:12:26.928522] [9] VFR_HUD
[21:12:27.142535] [22] RADIO
[21:12:27.145543] [22] RADIO_STATUS
[21:12:27.731706] [10] HEARTBEAT
[21:12:27.737662] [11] SYS_STATUS
[21:12:27.969831] [13] ATTITUDE_TARGET
[21:12:27.974725] [14] VFR_HUD
[21:12:28.182712] [23] RADIO
[21:12:28.185691] [23] RADIO_STATUS
[21:12:28.538790] [15] VFR_HUD
[21:12:28.758845] [16] HEARTBEAT
[21:12:29.102849] [24] RADIO
[21:12:29.105888] [24] RADIO_STATUS
[21:12:29.332873] [17] VFR_HUD
[21:12:29.801970] [18] HEARTBEAT
[21:12:29.813812] [19] ATTITUDE_TARGET
[21:12:30.132014] [25] RADIO
[21:12:30.135025] [25] RADIO_STATUS
[21:12:30.253021] [20] VFR_HUD
[21:12:30.828205] [21] HEARTBEAT
[21:12:30.942184] [22] VFR_HUD
[21:12:31.171248] [26] RADIO
[21:12:31.174305] [26] RADIO_STATUS
[21:12:31.759266] [23] HEARTBEAT
[21:12:31.766311] [24] SYS_STATUS
[21:12:31.888316] [25] BATTERY_STATUS
[21:12:31.889646] [26] EXTENDED_SYS_STATE
[21:12:31.898013] [27] ATTITUDE_TARGET
[21:12:31.902266] [28] VFR_HUD
[21:12:31.906225] [29] SYSTEM_TIME
[21:12:32.201504] [27] RADIO
[21:12:32.204257] [27] RADIO_STATUS
[21:12:32.551320] [30] VFR_HUD
[21:12:32.777382] [31] HEARTBEAT
[21:12:33.120471] [28] RADIO
[21:12:33.123435] [28] RADIO_STATUS
[21:12:33.361507] [32] VFR_HUD
[21:12:33.830522] [33] HEARTBEAT
[21:12:33.837566] [34] ATTITUDE_TARGET
[21:12:34.160570] [35] VFR_HUD
[21:12:34.193875] [29] RADIO
[21:12:34.195942] [29] RADIO_STATUS
[21:12:34.970745] [37] VFR_HUD
[21:12:35.193840] [30] RADIO
[21:12:35.194020] [30] RADIO_STATUS
[21:12:35.777900] [38] HEARTBEAT
[21:12:35.785977] [39] SYS_STATUS
[21:12:36.017136] [41] ATTITUDE_TARGET
[21:12:36.021944] [42] VFR_HUD
[21:12:36.262030] [31] RADIO
[21:12:36.265921] [31] RADIO_STATUS
[21:12:36.585295] [43] VFR_HUD
[21:12:36.805145] [44] HEARTBEAT
[21:12:37.154065] [32] RADIO
[21:12:37.157225] [32] RADIO_STATUS
[21:12:37.379238] [45] VFR_HUD
[21:12:37.743331] [46] HEARTBEAT
[21:12:37.751442] [47] ATTITUDE_TARGET
[21:12:38.178309] [33] RADIO
[21:12:38.181273] [33] RADIO_STATUS
[21:12:38.754436] [49] HEARTBEAT
[21:12:38.988483] [50] VFR_HUD
[21:12:39.222557] [34] RADIO
[21:12:39.225569] [34] RADIO_STATUS
[21:12:39.810723] [51] HEARTBEAT
[21:12:39.817676] [52] SYS_STATUS
[21:12:39.857679] [53] BATTERY_STATUS
[21:12:39.865900] [54] ATTITUDE_TARGET
[21:12:39.869857] [55] VFR_HUD
[21:12:40.248182] [35] RADIO
[21:12:40.254069] [35] RADIO_STATUS
[21:12:40.597784] [56] VFR_HUD
[21:12:40.718719] [57] HEARTBEAT
[21:12:41.169929] [36] RADIO
[21:12:41.170134] [36] RADIO_STATUS
[21:12:41.408007] [58] VFR_HUD
[21:12:41.756911] [59] HEARTBEAT
[21:12:41.764928] [60] ATTITUDE_TARGET
[21:12:42.208589] [61] VFR_HUD
[21:12:42.240030] [37] RADIO
[21:12:42.242955] [37] RADIO_STATUS
[21:12:43.017144] [63] VFR_HUD
[21:12:43.236130] [38] RADIO
[21:12:43.239098] [38] RADIO_STATUS
[21:12:43.824166] [64] HEARTBEAT
[21:12:43.831272] [65] SYS_STATUS
[21:12:44.063304] [67] ATTITUDE_TARGET
[21:12:44.068247] [68] VFR_HUD
[21:12:44.281199] [39] RADIO
[21:12:44.284225] [39] RADIO_STATUS
[21:12:44.626287] [69] VFR_HUD
[21:12:44.732325] [70] HEARTBEAT
[21:12:45.195352] [40] RADIO
[21:12:45.198314] [40] RADIO_STATUS
[21:12:45.426474] [71] VFR_HUD
[21:12:45.790445] [72] HEARTBEAT
[21:12:45.798986] [73] ATTITUDE_TARGET
[21:12:46.225461] [41] RADIO
[21:12:46.228468] [41] RADIO_STATUS
[21:12:46.801712] [75] HEARTBEAT
[21:12:46.930900] [76] VFR_HUD
[21:12:47.264575] [42] RADIO
[21:12:47.267543] [42] RADIO_STATUS
[21:12:47.721646] [77] HEARTBEAT
[21:12:47.740667] [78] SYS_STATUS
[21:12:47.881774] [79] BATTERY_STATUS
[21:12:47.905667] [80] ATTITUDE_TARGET
[21:12:47.910712] [81] VFR_HUD
[21:12:48.294822] [43] RADIO
[21:12:48.297800] [43] RADIO_STATUS
[21:12:48.760851] [83] HEARTBEAT
[21:12:49.213849] [44] RADIO
[21:12:49.216771] [44] RADIO_STATUS
[21:12:49.334862] [84] VFR_HUD
[21:12:49.803952] [85] HEARTBEAT
[21:12:49.811966] [86] ATTITUDE_TARGET
[21:12:50.145049] [87] VFR_HUD
[21:12:50.254053] [45] RADIO
[21:12:50.257088] [45] RADIO_STATUS
[21:12:50.944212] [89] VFR_HUD
[21:12:51.283227] [46] RADIO
[21:12:51.286199] [46] RADIO_STATUS
[21:12:51.761325] [90] HEARTBEAT
[21:12:51.768314] [91] SYS_STATUS
[21:12:51.889282] [92] BATTERY_STATUS
[21:12:51.891305] [93] EXTENDED_SYS_STATE
[21:12:51.899328] [94] ATTITUDE_TARGET
[21:12:51.904344] [95] VFR_HUD
[21:12:51.907300] [96] SYSTEM_TIME
[21:12:52.323387] [47] RADIO
[21:12:52.330037] [47] RADIO_STATUS
[21:12:52.553435] [97] VFR_HUD
[21:12:52.779475] [98] HEARTBEAT
[21:12:53.242505] [48] RADIO
[21:12:53.245630] [48] RADIO_STATUS
[21:12:53.363537] [99] VFR_HUD
[21:12:53.832672] [100] HEARTBEAT
[21:12:53.840603] [101] ATTITUDE_TARGET
[21:12:54.165819] [102] VFR_HUD
[21:12:54.272661] [49] RADIO
[21:12:54.275634] [49] RADIO_STATUS
[21:12:54.739015] [103] HEARTBEAT
[21:12:54.977859] [104] VFR_HUD
[21:12:55.311826] [50] RADIO
[21:12:55.314850] [50] RADIO_STATUS
[21:12:55.779982] [105] HEARTBEAT
[21:12:55.786960] [106] SYS_STATUS
[21:12:55.901960] [107] BATTERY_STATUS
[21:12:56.018992] [108] ATTITUDE_TARGET
[21:12:56.023921] [109] VFR_HUD
[21:12:56.342031] [51] RADIO
[21:12:56.345147] [51] RADIO_STATUS
[21:12:56.692040] [110] VFR_HUD
[21:12:56.808097] [111] HEARTBEAT
[21:12:57.261184] [52] RADIO
[21:12:57.264134] [52] RADIO_STATUS
[21:12:57.382162] [112] VFR_HUD
[21:12:57.850371] [113] HEARTBEAT
[21:12:57.858253] [114] ATTITUDE_TARGET
[21:12:58.196322] [115] VFR_HUD
[21:12:58.313165] [53] RADIO
[21:12:58.316249] [53] RADIO_STATUS
[21:12:58.756399] [116] HEARTBEAT
[21:12:58.990562] [117] VFR_HUD
[21:12:59.329887] [54] RADIO
[21:12:59.332680] [54] RADIO_STATUS
[21:12:59.807562] [118] HEARTBEAT
[21:12:59.814563] [119] SYS_STATUS
[21:12:59.933614] [120] BATTERY_STATUS
[21:12:59.941574] [121] ATTITUDE_TARGET
[21:12:59.971530] [122] VFR_HUD
[21:13:00.369662] [55] RADIO
[21:13:00.372675] [55] RADIO_STATUS
[21:13:00.601775] [123] VFR_HUD
[21:13:00.720745] [124] HEARTBEAT
[21:13:01.295036] [56] RADIO
[21:13:01.297985] [56] RADIO_STATUS
[21:13:01.409944] [125] VFR_HUD
[21:13:01.758953] [126] HEARTBEAT
[21:13:01.767074] [127] ATTITUDE_TARGET
[21:13:02.209955] [128] VFR_HUD
[21:13:02.319018] [57] RADIO
[21:13:02.322046] [57] RADIO_STATUS
[21:13:02.790151] [129] HEARTBEAT
[21:13:03.019203] [130] VFR_HUD
[21:13:03.364152] [58] RADIO
[21:13:03.367343] [58] RADIO_STATUS
[21:13:03.827235] [131] HEARTBEAT
[21:13:03.834242] [132] SYS_STATUS
[21:13:03.948275] [133] BATTERY_STATUS
[21:13:04.066428] [134] ATTITUDE_TARGET
[21:13:04.071268] [135] VFR_HUD
[21:13:04.317791] [59] RADIO
[21:13:04.317929] [59] RADIO_STATUS
[21:13:04.738500] [136] VFR_HUD
[21:13:04.745361] [137] HEARTBEAT
[21:13:05.308489] [60] RADIO
[21:13:05.310492] [60] RADIO_STATUS
[21:13:05.346503] [138] VFR_HUD
[21:13:06.118655] [141] VFR_HUD
[21:13:06.352878] [61] RADIO
[21:13:06.355839] [61] RADIO_STATUS
[21:13:06.803779] [142] HEARTBEAT
[21:13:07.376992] [62] RADIO
[21:13:07.379901] [62] RADIO_STATUS
[21:13:07.736004] [144] HEARTBEAT
[21:13:07.741984] [145] SYS_STATUS
[21:13:07.861966] [146] BATTERY_STATUS
[21:13:07.973977] [147] ATTITUDE_TARGET
[21:13:07.978936] [148] VFR_HUD
[21:13:08.421984] [63] RADIO
[21:13:08.424976] [63] RADIO_STATUS
[21:13:08.536991] [149] VFR_HUD
[21:13:08.768242] [150] HEARTBEAT
[21:13:09.337173] [151] VFR_HUD
[21:13:09.369239] [64] RADIO
[21:13:09.372214] [64] RADIO_STATUS
[21:13:09.806206] [152] HEARTBEAT
[21:13:09.814236] [153] ATTITUDE_TARGET
[21:13:10.147276] [154] VFR_HUD
[21:13:10.366422] [65] RADIO
[21:13:10.369498] [65] RADIO_STATUS
[21:13:10.712414] [155] HEARTBEAT
[21:13:10.947529] [156] VFR_HUD
[21:13:11.411665] [66] RADIO
[21:13:11.414527] [66] RADIO_STATUS
[21:13:11.764722] [157] HEARTBEAT
[21:13:11.770557] [158] SYS_STATUS
[21:13:11.892667] [159] BATTERY_STATUS
[21:13:11.894716] [160] EXTENDED_SYS_STATE
[21:13:11.901612] [161] ATTITUDE_TARGET
[21:13:11.906545] [162] VFR_HUD
[21:13:11.910596] [163] SYSTEM_TIME
[21:13:12.325808] [67] RADIO
[21:13:12.328674] [67] RADIO_STATUS
[21:13:12.556726] [164] VFR_HUD
[21:13:12.781897] [165] HEARTBEAT
[21:13:13.355807] [68] RADIO
[21:13:13.357800] [68] RADIO_STATUS
[21:13:13.393769] [166] VFR_HUD
[21:13:14.166228] [169] VFR_HUD
[21:13:14.394998] [69] RADIO
[21:13:14.401731] [69] RADIO_STATUS
[21:13:14.741209] [170] HEARTBEAT
[21:13:15.085103] [171] VFR_HUD
[21:13:15.424164] [70] RADIO
[21:13:15.427131] [70] RADIO_STATUS
[21:13:15.783211] [172] HEARTBEAT
[21:13:15.789186] [173] SYS_STATUS
[21:13:15.909360] [174] BATTERY_STATUS
[21:13:16.021310] [175] ATTITUDE_TARGET
[21:13:16.026246] [176] VFR_HUD
[21:13:16.344309] [71] RADIO
[21:13:16.347387] [71] RADIO_STATUS
[21:13:16.585266] [177] VFR_HUD
[21:13:16.810408] [178] HEARTBEAT
[21:13:17.384537] [179] VFR_HUD
[21:13:17.413097] [72] RADIO
[21:13:17.414447] [72] RADIO_STATUS
[21:13:17.743565] [180] HEARTBEAT
[21:13:17.751614] [181] ATTITUDE_TARGET
[21:13:18.194617] [182] VFR_HUD
[21:13:18.413634] [73] RADIO
[21:13:18.416589] [73] RADIO_STATUS
[21:13:18.759839] [183] HEARTBEAT
[21:13:18.993753] [184] VFR_HUD
[21:13:19.456119] [74] RADIO
[21:13:19.456245] [74] RADIO_STATUS
[21:13:19.810885] [185] HEARTBEAT
[21:13:19.817904] [186] SYS_STATUS
[21:13:19.935876] [187] BATTERY_STATUS
[21:13:19.943889] [188] ATTITUDE_TARGET
[21:13:19.975047] [189] VFR_HUD
[21:13:20.372974] [75] RADIO
[21:13:20.375919] [75] RADIO_STATUS
[21:13:20.603026] [190] VFR_HUD
[21:13:21.402089] [76] RADIO
[21:13:21.405079] [76] RADIO_STATUS
[21:13:21.523178] [192] VFR_HUD
[21:13:21.762201] [193] HEARTBEAT
[21:13:21.770182] [194] ATTITUDE_TARGET
[21:13:22.213391] [195] VFR_HUD
[21:13:22.442263] [77] RADIO
[21:13:22.445302] [77] RADIO_STATUS
[21:13:22.788400] [196] HEARTBEAT
[21:13:23.132366] [197] VFR_HUD
[21:13:23.471470] [78] RADIO
[21:13:23.474474] [78] RADIO_STATUS
[21:13:23.713510] [198] HEARTBEAT
[21:13:23.842493] [199] SYS_STATUS
[21:13:23.850488] [200] BATTERY_STATUS
[21:13:23.959565] [201] ATTITUDE_TARGET
[21:13:23.964521] [202] VFR_HUD
[21:13:24.391640] [79] RADIO
[21:13:24.394567] [79] RADIO_STATUS
[21:13:24.637685] [203] VFR_HUD
[21:13:24.749666] [204] HEARTBEAT
[21:13:25.432748] [205] VFR_HUD
[21:13:25.459767] [80] RADIO
[21:13:25.462722] [80] RADIO_STATUS
[21:13:25.796875] [206] HEARTBEAT
[21:13:25.804915] [207] ATTITUDE_TARGET
[21:13:26.121905] [208] VFR_HUD
[21:13:26.461153] [81] RADIO
[21:13:26.465840] [81] RADIO_STATUS
[21:13:26.807075] [209] HEARTBEAT
[21:13:26.932044] [210] VFR_HUD
[21:13:27.501280] [82] RADIO
[21:13:27.504120] [82] RADIO_STATUS
[21:13:27.739152] [211] HEARTBEAT
[21:13:27.746206] [212] SYS_STATUS
[21:13:27.860128] [213] BATTERY_STATUS
[21:13:27.978219] [214] ATTITUDE_TARGET
[21:13:27.983227] [215] VFR_HUD
[21:13:28.426450] [83] RADIO
[21:13:28.429307] [83] RADIO_STATUS
[21:13:28.541457] [216] VFR_HUD
[21:13:29.341385] [218] VFR_HUD
[21:13:29.450465] [84] RADIO
[21:13:29.454189] [84] RADIO_STATUS
[21:13:29.809563] [219] HEARTBEAT
[21:13:29.817498] [220] ATTITUDE_TARGET
[21:13:30.150551] [221] VFR_HUD
[21:13:30.494871] [85] RADIO
[21:13:30.497626] [85] RADIO_STATUS
[21:13:30.715906] [222] HEARTBEAT
[21:13:30.950746] [223] VFR_HUD
[21:13:31.518834] [86] RADIO
[21:13:31.521733] [86] RADIO_STATUS
[21:13:31.772865] [224] HEARTBEAT
[21:13:31.778852] [225] SYS_STATUS
[21:13:31.813893] [226] BATTERY_STATUS
[21:13:31.814782] [227] EXTENDED_SYS_STATE
[21:13:31.822816] [228] ATTITUDE_TARGET
[21:13:31.827797] [229] VFR_HUD
[21:13:31.831801] [230] SYSTEM_TIME
[21:13:32.438935] [87] RADIO
[21:13:32.441879] [87] RADIO_STATUS
[21:13:32.559959] [231] VFR_HUD
[21:13:32.785129] [232] HEARTBEAT
[21:13:33.478141] [233] VFR_HUD
[21:13:33.494180] [88] RADIO
[21:13:33.497101] [88] RADIO_STATUS
[21:13:33.843135] [234] HEARTBEAT
[21:13:33.851263] [235] ATTITUDE_TARGET
[21:13:34.168224] [236] VFR_HUD
[21:13:34.507327] [89] RADIO
[21:13:34.510245] [89] RADIO_STATUS
[21:13:34.743353] [237] HEARTBEAT
[21:13:34.983332] [238] VFR_HUD
[21:13:35.552401] [90] RADIO
[21:13:35.555456] [90] RADIO_STATUS
[21:13:35.785521] [239] HEARTBEAT
[21:13:35.791519] [240] SYS_STATUS
[21:13:35.911518] [241] BATTERY_STATUS
[21:13:36.024554] [242] ATTITUDE_TARGET
[21:13:36.029904] [243] VFR_HUD
[21:13:36.471585] [91] RADIO
[21:13:36.474624] [91] RADIO_STATUS
[21:13:36.587660] [244] VFR_HUD
[21:13:37.389873] [246] VFR_HUD
[21:13:37.498052] [92] RADIO
[21:13:37.499769] [92] RADIO_STATUS
[21:13:37.745875] [247] HEARTBEAT
[21:13:37.754103] [248] ATTITUDE_TARGET
[21:13:38.196928] [249] VFR_HUD
[21:13:38.540883] [93] RADIO
[21:13:38.543886] [93] RADIO_STATUS
[21:13:38.762076] [250] HEARTBEAT
[21:13:38.996009] [251] VFR_HUD
[21:13:39.455299] [94] RADIO
[21:13:39.458052] [94] RADIO_STATUS
[21:13:39.813149] [252] HEARTBEAT
[21:13:39.820172] [253] SYS_STATUS
[21:13:39.939224] [254] BATTERY_STATUS
[21:13:39.947290] [255] ATTITUDE_TARGET
[21:13:39.977172] [0] VFR_HUD
[21:13:40.485212] [95] RADIO
[21:13:40.488229] [95] RADIO_STATUS
[21:13:40.606285] [1] VFR_HUD
[21:13:40.722148] [2] HEARTBEAT
[21:13:41.525414] [3] VFR_HUD
[21:13:41.536402] [96] RADIO
[21:13:41.539409] [96] RADIO_STATUS
[21:13:41.764552] [4] HEARTBEAT
[21:13:41.772458] [5] ATTITUDE_TARGET
[21:13:42.215512] [6] VFR_HUD
[21:13:42.554533] [97] RADIO
[21:13:42.557532] [97] RADIO_STATUS
[21:13:42.790633] [7] HEARTBEAT
[21:13:43.029750] [8] VFR_HUD
[21:13:43.473701] [98] RADIO
[21:13:43.476642] [98] RADIO_STATUS
[21:13:44.512958] [99] RADIO
[21:13:44.516020] [99] RADIO_STATUS
[21:13:44.749939] [14] VFR_HUD
[21:13:44.752872] [15] HEARTBEAT
[21:13:45.323978] [16] VFR_HUD
[21:13:45.543002] [100] RADIO
[21:13:45.545999] [100] RADIO_STATUS
[21:13:45.793077] [17] HEARTBEAT
[21:13:45.800075] [18] ATTITUDE_TARGET
[21:13:46.243143] [19] VFR_HUD
[21:13:46.582189] [101] RADIO
[21:13:46.585140] [101] RADIO_STATUS
[21:13:46.808242] [20] HEARTBEAT
[21:13:46.933263] [21] VFR_HUD
[21:13:47.502494] [102] RADIO
[21:13:47.505279] [102] RADIO_STATUS
[21:13:47.740383] [22] HEARTBEAT
[21:13:47.747530] [23] SYS_STATUS
[21:13:47.861370] [24] BATTERY_STATUS
[21:13:47.979636] [25] ATTITUDE_TARGET
[21:13:47.984385] [26] VFR_HUD
[21:13:48.531484] [103] RADIO
[21:13:48.534574] [103] RADIO_STATUS
[21:13:48.570478] [27] VFR_HUD
[21:13:48.767572] [28] HEARTBEAT
[21:13:49.342709] [29] VFR_HUD
[21:13:49.573803] [104] RADIO
[21:13:49.574591] [104] RADIO_STATUS
[21:13:49.811820] [30] HEARTBEAT
[21:13:49.818729] [31] ATTITUDE_TARGET
[21:13:50.156774] [32] VFR_HUD
[21:13:50.600835] [105] RADIO
[21:13:50.603784] [105] RADIO_STATUS
[21:13:50.716946] [33] HEARTBEAT
[21:13:50.951916] [34] VFR_HUD
[21:13:51.521031] [106] RADIO
[21:13:51.526173] [106] RADIO_STATUS
[21:13:52.561277] [42] VFR_HUD
[21:13:52.588237] [107] RADIO
[21:13:52.591190] [107] RADIO_STATUS
[21:13:52.786273] [43] HEARTBEAT
[21:13:53.376381] [44] VFR_HUD
[21:13:53.590337] [108] RADIO
[21:13:53.592276] [108] RADIO_STATUS
[21:13:53.845513] [45] HEARTBEAT
[21:13:53.852390] [46] ATTITUDE_TARGET
[21:13:54.170531] [47] VFR_HUD
[21:13:54.629505] [109] RADIO
[21:13:54.632622] [109] RADIO_STATUS
[21:13:54.750546] [48] HEARTBEAT
[21:13:54.979587] [49] VFR_HUD
[21:13:55.554687] [110] RADIO
[21:13:55.557672] [110] RADIO_STATUS
[21:13:55.787731] [50] HEARTBEAT
[21:13:55.793860] [51] SYS_STATUS
[21:13:55.913768] [52] BATTERY_STATUS
[21:13:56.026781] [53] ATTITUDE_TARGET
[21:13:56.031706] [54] VFR_HUD
[21:13:56.578807] [111] RADIO
[21:13:56.581787] [111] RADIO_STATUS
[21:13:56.699847] [55] VFR_HUD
[21:13:56.819909] [56] HEARTBEAT
[21:13:57.389000] [57] VFR_HUD
[21:13:57.621204] [112] RADIO
[21:13:57.621331] [112] RADIO_STATUS
[21:13:57.748093] [58] HEARTBEAT
[21:13:57.756083] [59] ATTITUDE_TARGET
[21:13:58.199170] [60] VFR_HUD
[21:13:58.543169] [113] RADIO
[21:13:58.546336] [113] RADIO_STATUS
[21:13:58.764209] [61] HEARTBEAT
[21:13:58.998335] [62] VFR_HUD
[21:13:59.568321] [114] RADIO
[21:13:59.571371] [114] RADIO_STATUS
[21:13:59.941449] [65] BATTERY_STATUS
[21:13:59.949454] [66] ATTITUDE_TARGET
[21:13:59.979486] [67] VFR_HUD
[21:14:00.608578] [68] VFR_HUD
[21:14:00.640495] [115] RADIO
[21:14:00.643530] [115] RADIO_STATUS
[21:14:00.723552] [69] HEARTBEAT
[21:14:01.423570] [70] VFR_HUD
[21:14:01.637667] [116] RADIO
[21:14:01.640607] [116] RADIO_STATUS
[21:14:01.767686] [71] HEARTBEAT
[21:14:01.774673] [72] ATTITUDE_TARGET
[21:14:02.217733] [73] VFR_HUD
[21:14:02.562788] [117] RADIO
[21:14:02.564717] [117] RADIO_STATUS
[21:14:02.792853] [74] HEARTBEAT
[21:14:03.032847] [75] VFR_HUD
[21:14:03.601971] [118] RADIO
[21:14:03.604970] [118] RADIO_STATUS
[21:14:03.725079] [76] HEARTBEAT
[21:14:03.732005] [77] SYS_STATUS
[21:14:03.849996] [78] BATTERY_STATUS
[21:14:03.858010] [79] ATTITUDE_TARGET
[21:14:03.888068] [80] VFR_HUD
[21:14:04.517127] [81] VFR_HUD
[21:14:04.626087] [119] RADIO
[21:14:04.629947] [119] RADIO_STATUS
[21:14:04.743176] [82] HEARTBEAT
[21:14:05.327257] [83] VFR_HUD
[21:14:05.671355] [120] RADIO
[21:14:05.674352] [120] RADIO_STATUS
[21:14:05.796436] [84] HEARTBEAT
[21:14:05.803360] [85] ATTITUDE_TARGET
[21:14:06.126361] [86] VFR_HUD
[21:14:06.585560] [121] RADIO
