[22:07:08.600236] [251] VFR_HUD
[22:07:08.603207] [252] HEARTBEAT
[22:07:08.939380] [215] RADIO
[22:07:08.942205] [215] RADIO_STATUS
[22:07:09.290293] [253] VFR_HUD
[22:07:09.633466] [254] HEARTBEAT
[22:07:09.641600] [255] ATTITUDE_TARGET
[22:07:09.963540] [216] RADIO
[22:07:09.966505] [216] RADIO_STATUS
[22:07:10.084455] [0] VFR_HUD
[22:07:10.659663] [1] HEARTBEAT
[22:07:10.773548] [2] VFR_HUD
[22:07:10.883602] [217] RADIO
[22:07:10.886569] [217] RADIO_STATUS
[22:07:11.591764] [3] HEARTBEAT
[22:07:11.597710] [4] SYS_STATUS
[22:07:11.719718] [5] BATTERY_STATUS
[22:07:11.721688] [6] EXTENDED_SYS_STATE
[22:07:11.728820] [7] ATTITUDE_TARGET
[22:07:11.733661] [8] VFR_HUD
[22:07:11.737658] [9] SYSTEM_TIME
[22:07:11.927719] [218] RADIO
[22:07:11.930743] [218] RADIO_STATUS
[22:07:12.383803] [10] VFR_HUD
[22:07:12.608865] [11] HEARTBEAT
[22:07:12.952852] [219] RADIO
[22:07:12.955895] [219] RADIO_STATUS
[22:07:13.192883] [12] VFR_HUD
[22:07:13.662048] [13] HEARTBEAT
[22:07:13.670016] [14] ATTITUDE_TARGET
[22:07:13.993080] [15] VFR_HUD
[22:07:14.025012] [220] RADIO
[22:07:14.028028] [220] RADIO_STATUS
[22:07:14.568296] [16] HEARTBEAT
[22:07:14.807248] [17] VFR_HUD
[22:07:14.928151] [221] RADIO
[22:07:14.931235] [221] RADIO_STATUS
[22:07:15.609315] [18] HEARTBEAT
[22:07:15.616302] [19] SYS_STATUS
[22:07:15.731330] [20] BATTERY_STATUS
[22:07:15.848299] [21] ATTITUDE_TARGET
[22:07:15.853458] [22] VFR_HUD
[22:07:15.941369] [222] RADIO
[22:07:15.944434] [222] RADIO_STATUS
[22:07:16.416411] [23] VFR_HUD
[22:07:16.636518] [24] HEARTBEAT
[22:07:16.985666] [223] RADIO
[22:07:16.988471] [223] RADIO_STATUS
[22:07:17.211551] [25] VFR_HUD
[22:07:17.680719] [26] HEARTBEAT
[22:07:17.687847] [27] ATTITUDE_TARGET
[22:07:17.900814] [224] RADIO
[22:07:17.903661] [224] RADIO_STATUS
[22:07:18.025689] [28] VFR_HUD
[22:07:18.586822] [29] HEARTBEAT
[22:07:18.820927] [30] VFR_HUD
[22:07:18.932778] [225] RADIO
[22:07:18.935802] [225] RADIO_STATUS
[22:07:19.638068] [31] HEARTBEAT
[22:07:19.643974] [32] SYS_STATUS
[22:07:19.763011] [33] BATTERY_STATUS
[22:07:19.770926] [34] ATTITUDE_TARGET
[22:07:19.800929] [35] VFR_HUD
[22:07:19.974013] [226] RADIO
[22:07:19.976967] [226] RADIO_STATUS
[22:07:20.430054] [36] VFR_HUD
[22:07:20.655241] [37] HEARTBEAT
[22:07:20.999224] [227] RADIO
[22:07:21.002138] [227] RADIO_STATUS
[22:07:21.239260] [38] VFR_HUD
[22:07:21.588281] [39] HEARTBEAT
[22:07:21.596277] [40] ATTITUDE_TARGET
[22:07:21.918348] [228] RADIO
[22:07:21.921283] [228] RADIO_STATUS
[22:07:22.039361] [41] VFR_HUD
[22:07:22.619468] [42] HEARTBEAT
[22:07:22.848501] [43] VFR_HUD
[22:07:22.958501] [229] RADIO
[22:07:22.961483] [229] RADIO_STATUS
[22:07:23.656646] [44] HEARTBEAT
[22:07:23.662608] [45] SYS_STATUS
[22:07:23.777595] [46] BATTERY_STATUS
[22:07:23.895736] [47] ATTITUDE_TARGET
[22:07:23.899763] [48] VFR_HUD
[22:07:23.987697] [230] RADIO
[22:07:23.990663] [230] RADIO_STATUS
[22:07:24.458887] [49] VFR_HUD
[22:07:24.563823] [50] HEARTBEAT
[22:07:25.027980] [231] RADIO
[22:07:25.030856] [231] RADIO_STATUS
[22:07:25.257851] [51] VFR_HUD
[22:07:25.623079] [52] HEARTBEAT
[22:07:25.629965] [53] ATTITUDE_TARGET
[22:07:25.946992] [232] RADIO
[22:07:25.949977] [232] RADIO_STATUS
[22:07:26.073052] [54] VFR_HUD
[22:07:26.633160] [55] HEARTBEAT
[22:07:26.868329] [56] VFR_HUD
[22:07:26.977231] [233] RADIO
[22:07:26.980133] [233] RADIO_STATUS
[22:07:27.690414] [57] HEARTBEAT
[22:07:27.697298] [58] SYS_STATUS
[22:07:27.737133] [59] BATTERY_STATUS
[22:07:27.744308] [60] ATTITUDE_TARGET
[22:07:27.749278] [61] VFR_HUD
[22:07:28.016389] [234] RADIO
[22:07:28.019371] [234] RADIO_STATUS
[22:07:28.608509] [62] VFR_HUD
[22:07:28.611667] [63] HEARTBEAT
[22:07:28.936511] [235] RADIO
[22:07:28.939470] [235] RADIO_STATUS
[22:07:29.292576] [64] VFR_HUD
[22:07:29.636599] [65] HEARTBEAT
[22:07:29.643628] [66] ATTITUDE_TARGET
[22:07:29.965768] [236] RADIO
[22:07:29.968736] [236] RADIO_STATUS
[22:07:30.086768] [67] VFR_HUD
[22:07:30.666908] [68] HEARTBEAT
[22:07:30.775797] [69] VFR_HUD
[22:07:31.005896] [237] RADIO
[22:07:31.008817] [237] RADIO_STATUS
[22:07:31.593968] [70] HEARTBEAT
[22:07:31.599967] [71] SYS_STATUS
[22:07:31.721968] [72] BATTERY_STATUS
[22:07:31.723004] [73] EXTENDED_SYS_STATE
[22:07:31.731006] [74] ATTITUDE_TARGET
[22:07:31.735971] [75] VFR_HUD
[22:07:31.740001] [76] SYSTEM_TIME
[22:07:32.035011] [238] RADIO
[22:07:32.038035] [238] RADIO_STATUS
[22:07:32.386143] [77] VFR_HUD
[22:07:32.611304] [78] HEARTBEAT
[22:07:32.954316] [239] RADIO
[22:07:32.957151] [239] RADIO_STATUS
[22:07:33.200249] [79] VFR_HUD
[22:07:33.664345] [80] HEARTBEAT
[22:07:33.672441] [81] ATTITUDE_TARGET
[22:07:33.994552] [82] VFR_HUD
[22:07:34.025565] [240] RADIO
[22:07:34.028403] [240] RADIO_STATUS
[22:07:34.570528] [83] HEARTBEAT
[22:07:34.809581] [84] VFR_HUD
[22:07:35.023684] [241] RADIO
[22:07:35.026507] [241] RADIO_STATUS
[22:07:35.611885] [85] HEARTBEAT
[22:07:35.618659] [86] SYS_STATUS
[22:07:35.733733] [87] BATTERY_STATUS
[22:07:35.850769] [88] ATTITUDE_TARGET
[22:07:35.855686] [89] VFR_HUD
[22:07:36.062829] [242] RADIO
[22:07:36.065689] [242] RADIO_STATUS
[22:07:36.418774] [90] VFR_HUD
[22:07:36.638853] [91] HEARTBEAT
[22:07:36.987863] [243] RADIO
[22:07:36.990794] [243] RADIO_STATUS
[22:07:37.213923] [92] VFR_HUD
[22:07:37.683027] [93] HEARTBEAT
[22:07:37.689975] [94] ATTITUDE_TARGET
[22:07:38.012157] [244] RADIO
[22:07:38.014990] [244] RADIO_STATUS
[22:07:38.133121] [95] VFR_HUD
[22:07:38.588127] [96] HEARTBEAT
[22:07:38.823154] [97] VFR_HUD
[22:07:39.057256] [245] RADIO
[22:07:39.060214] [245] RADIO_STATUS
[22:07:39.640314] [98] HEARTBEAT
[22:07:39.646271] [99] SYS_STATUS
[22:07:39.765292] [100] BATTERY_STATUS
[22:07:39.773302] [101] ATTITUDE_TARGET
[22:07:39.803275] [102] VFR_HUD
[22:07:39.976323] [246] RADIO
[22:07:39.979405] [246] RADIO_STATUS
[22:07:40.432428] [103] VFR_HUD
[22:07:40.657460] [104] HEARTBEAT
[22:07:41.001550] [247] RADIO
[22:07:41.004476] [247] RADIO_STATUS
[22:07:41.241687] [105] VFR_HUD
[22:07:41.590685] [106] HEARTBEAT
[22:07:41.598643] [107] ATTITUDE_TARGET
[22:07:42.041796] [108] VFR_HUD
[22:07:42.073821] [248] RADIO
[22:07:42.076771] [248] RADIO_STATUS
[22:07:42.616973] [109] HEARTBEAT
[22:07:42.850806] [110] VFR_HUD
[22:07:43.070978] [249] RADIO
[22:07:43.073933] [249] RADIO_STATUS
[22:07:43.658034] [111] HEARTBEAT
[22:07:43.664996] [112] SYS_STATUS
[22:07:43.780045] [113] BATTERY_STATUS
[22:07:43.897034] [114] ATTITUDE_TARGET
[22:07:43.902103] [115] VFR_HUD
[22:07:43.990036] [250] RADIO
[22:07:43.993098] [250] RADIO_STATUS
[22:07:44.468199] [116] VFR_HUD
[22:07:44.577132] [117] HEARTBEAT
[22:07:45.035289] [251] RADIO
[22:07:45.038249] [251] RADIO_STATUS
[22:07:45.260275] [118] VFR_HUD
[22:07:45.624453] [119] HEARTBEAT
[22:07:45.632284] [120] ATTITUDE_TARGET
[22:07:46.059394] [252] RADIO
[22:07:46.062470] [252] RADIO_STATUS
[22:07:46.097356] [121] VFR_HUD
[22:07:46.635439] [122] HEARTBEAT
[22:07:46.869566] [123] VFR_HUD
[22:07:47.103577] [253] RADIO
[22:07:47.106602] [253] RADIO_STATUS
[22:07:47.691761] [124] HEARTBEAT
[22:07:47.698629] [125] SYS_STATUS
[22:07:47.738642] [126] BATTERY_STATUS
[22:07:47.745827] [127] ATTITUDE_TARGET
[22:07:47.750595] [128] VFR_HUD
[22:07:48.019033] [254] RADIO
[22:07:48.021678] [254] RADIO_STATUS
[22:07:48.609817] [129] VFR_HUD
[22:07:48.612749] [130] HEARTBEAT
[22:07:49.047874] [255] RADIO
[22:07:49.052061] [255] RADIO_STATUS
[22:07:49.174900] [131] VFR_HUD
[22:07:49.639188] [132] HEARTBEAT
[22:07:49.645949] [133] ATTITUDE_TARGET
[22:07:49.978031] [134] VFR_HUD
[22:07:50.087973] [0] RADIO
[22:07:50.090988] [0] RADIO_STATUS
[22:07:50.670012] [135] HEARTBEAT
[22:07:50.778060] [136] VFR_HUD
[22:07:51.117109] [1] RADIO
[22:07:51.120079] [1] RADIO_STATUS
[22:07:51.600264] [137] HEARTBEAT
[22:07:51.607261] [138] SYS_STATUS
[22:07:51.641261] [139] BATTERY_STATUS
[22:07:51.643163] [140] EXTENDED_SYS_STATE
[22:07:51.651314] [141] ATTITUDE_TARGET
[22:07:51.656237] [142] VFR_HUD
[22:07:51.659294] [143] SYSTEM_TIME
[22:07:52.037330] [2] RADIO
[22:07:52.040226] [2] RADIO_STATUS
[22:07:52.387323] [144] VFR_HUD
[22:07:53.076485] [3] RADIO
[22:07:53.079412] [3] RADIO_STATUS
[22:07:53.202515] [146] VFR_HUD
[22:07:53.671549] [147] HEARTBEAT
[22:07:53.679615] [148] ATTITUDE_TARGET
[22:07:53.996608] [149] VFR_HUD
[22:07:54.105577] [4] RADIO
[22:07:54.108665] [4] RADIO_STATUS
[22:07:54.571689] [150] HEARTBEAT
[22:07:54.811859] [151] VFR_HUD
[22:07:55.145832] [5] RADIO
[22:07:55.147760] [5] RADIO_STATUS
[22:07:55.612914] [152] HEARTBEAT
[22:07:55.619900] [153] SYS_STATUS
[22:07:55.739908] [154] BATTERY_STATUS
[22:07:55.851997] [155] ATTITUDE_TARGET
[22:07:55.856901] [156] VFR_HUD
[22:07:56.175063] [6] RADIO
[22:07:56.177968] [6] RADIO_STATUS
[22:07:56.415053] [157] VFR_HUD
[22:07:56.641171] [158] HEARTBEAT
[22:07:57.094310] [7] RADIO
[22:07:57.097169] [7] RADIO_STATUS
[22:07:57.560276] [160] HEARTBEAT
[22:07:57.582265] [161] ATTITUDE_TARGET
[22:07:58.024309] [162] VFR_HUD
[22:07:58.133256] [8] RADIO
[22:07:58.136295] [8] RADIO_STATUS
[22:07:58.589333] [163] HEARTBEAT
[22:07:58.824350] [164] VFR_HUD
[22:07:58.895484] JAMMING_START
[22:07:59.163413] [9] RADIO
[22:07:59.166424] [9] RADIO_STATUS
[22:07:59.641504] [165] HEARTBEAT
[22:07:59.647457] [166] SYS_STATUS
[22:07:59.766543] [167] BATTERY_STATUS
[22:07:59.774533] [168] ATTITUDE_TARGET
[22:07:59.804474] [169] VFR_HUD
[22:08:00.082526] [10] RADIO
[22:08:00.085521] [10] RADIO_STATUS
[22:08:00.433895] [170] VFR_HUD
[22:08:01.127697] [11] RADIO
[22:08:01.130697] [11] RADIO_STATUS
[22:08:01.242693] [172] VFR_HUD
[22:08:01.591885] [173] HEARTBEAT
[22:08:01.600641] [174] ATTITUDE_TARGET
[22:08:02.042897] [175] VFR_HUD
[22:08:02.151873] [12] RADIO
[22:08:02.154913] [12] RADIO_STATUS
[22:08:02.617976] [176] HEARTBEAT
[22:08:02.857023] [177] VFR_HUD
[22:08:03.190998] [13] RADIO
[22:08:03.194155] [13] RADIO_STATUS
[22:08:03.659147] [178] HEARTBEAT
[22:08:03.666114] [179] SYS_STATUS
[22:08:03.781104] [180] BATTERY_STATUS
[22:08:03.898131] [181] ATTITUDE_TARGET
[22:08:03.903115] [182] VFR_HUD
[22:08:04.221211] [14] RADIO
[22:08:04.223131] [14] RADIO_STATUS
[22:08:04.466230] [183] VFR_HUD
[22:08:04.578280] [184] HEARTBEAT
[22:08:05.140328] [15] RADIO
[22:08:05.143264] [15] RADIO_STATUS
[22:08:05.625440] [186] HEARTBEAT
[22:08:05.633487] [187] ATTITUDE_TARGET
[22:08:06.075516] [188] VFR_HUD
[22:08:06.196440] [16] RADIO
[22:08:06.199427] [16] RADIO_STATUS
[22:08:06.635559] [189] HEARTBEAT
[22:08:06.870561] [190] VFR_HUD
[22:08:07.208729] [17] RADIO
[22:08:07.211634] [17] RADIO_STATUS
[22:08:08.128815] [18] RADIO
[22:08:08.131778] [18] RADIO_STATUS
[22:08:08.197859] [193] BATTERY_STATUS
[22:08:08.204822] [194] ATTITUDE_TARGET
[22:08:08.209925] [195] VFR_HUD
[22:08:08.368855] [196] VFR_HUD
[22:08:08.599952] [197] HEARTBEAT
[22:08:09.174068] [198] VFR_HUD
[22:08:09.277021] [19] RADIO
[22:08:09.279991] [19] RADIO_STATUS
[22:08:09.637078] [199] HEARTBEAT
[22:08:09.645059] [200] ATTITUDE_TARGET
[22:08:09.978169] [201] VFR_HUD
[22:08:10.197154] [20] RADIO
[22:08:10.200132] [20] RADIO_STATUS
[22:08:10.668270] [202] HEARTBEAT
[22:08:10.777287] [203] VFR_HUD
[22:08:11.122321] [21] RADIO
[22:08:11.125371] [21] RADIO_STATUS
[22:08:11.600366] [204] HEARTBEAT
[22:08:11.606365] [205] SYS_STATUS
[22:08:11.641387] [206] BATTERY_STATUS
[22:08:11.642350] [207] EXTENDED_SYS_STATE
[22:08:11.650567] [208] ATTITUDE_TARGET
[22:08:11.655392] [209] VFR_HUD
[22:08:11.659351] [210] SYSTEM_TIME
[22:08:12.266512] [22] RADIO
[22:08:12.269469] [22] RADIO_STATUS
[22:08:12.386493] [211] VFR_HUD
[22:08:12.612557] [212] HEARTBEAT
[22:08:13.185706] [23] RADIO
[22:08:13.189259] [23] RADIO_STATUS
[22:08:13.224686] [213] VFR_HUD
[22:08:13.670732] [214] HEARTBEAT
[22:08:13.678683] [215] ATTITUDE_TARGET
[22:08:13.996732] [216] VFR_HUD
[22:08:14.230759] [24] RADIO
[22:08:14.233762] [24] RADIO_STATUS
[22:08:14.571865] [217] HEARTBEAT
[22:08:14.810941] [218] VFR_HUD
[22:08:15.144905] [25] RADIO
[22:08:15.147828] [25] RADIO_STATUS
[22:08:15.739958] [221] BATTERY_STATUS
[22:08:15.852040] [222] ATTITUDE_TARGET
[22:08:15.857206] [223] VFR_HUD
[22:08:16.175044] [26] RADIO
[22:08:16.178133] [26] RADIO_STATUS
[22:08:16.415117] [224] VFR_HUD
[22:08:16.646355] [225] HEARTBEAT
[22:08:17.215196] [226] VFR_HUD
[22:08:17.242201] [27] RADIO
[22:08:17.245357] [27] RADIO_STATUS
[22:08:17.560278] [227] HEARTBEAT
[22:08:17.683319] [228] ATTITUDE_TARGET
[22:08:18.024345] [229] VFR_HUD
[22:08:18.244524] [28] RADIO
[22:08:18.246336] [28] RADIO_STATUS
[22:08:18.589430] [230] HEARTBEAT
[22:08:18.824425] [231] VFR_HUD
[22:08:19.163507] [29] RADIO
[22:08:19.169797] [29] RADIO_STATUS
[22:08:19.642000] [232] HEARTBEAT
[22:08:19.647572] [233] SYS_STATUS
[22:08:19.766653] [234] BATTERY_STATUS
[22:08:19.774753] [235] ATTITUDE_TARGET
[22:08:19.804590] [236] VFR_HUD
[22:08:20.312696] [30] RADIO
[22:08:20.315682] [30] RADIO_STATUS
[22:08:20.437751] [237] VFR_HUD
[22:08:20.658789] [238] HEARTBEAT
[22:08:21.231797] [31] RADIO
[22:08:21.234825] [31] RADIO_STATUS
[22:08:21.270795] [239] VFR_HUD
[22:08:21.591895] [240] HEARTBEAT
[22:08:21.599926] [241] ATTITUDE_TARGET
[22:08:22.042932] [242] VFR_HUD
[22:08:22.271994] [32] RADIO
[22:08:22.274953] [32] RADIO_STATUS
[22:08:22.618067] [243] HEARTBEAT
[22:08:22.857064] [244] VFR_HUD
[22:08:23.191111] [33] RADIO
[22:08:23.194074] [33] RADIO_STATUS
[22:08:23.781249] [247] BATTERY_STATUS
[22:08:23.898274] [248] ATTITUDE_TARGET
[22:08:23.903239] [249] VFR_HUD
[22:08:24.221317] [34] RADIO
[22:08:24.224280] [34] RADIO_STATUS
[22:08:24.466381] [250] VFR_HUD
[22:08:24.578392] [251] HEARTBEAT
[22:08:25.261440] [252] VFR_HUD
[22:08:25.288541] [35] RADIO
[22:08:25.291458] [35] RADIO_STATUS
[22:08:25.620584] [253] HEARTBEAT
[22:08:25.627519] [254] ATTITUDE_TARGET
[22:08:26.070626] [255] VFR_HUD
[22:08:26.289719] [36] RADIO
[22:08:26.292584] [36] RADIO_STATUS
[22:08:26.635742] [0] HEARTBEAT
[22:08:26.870806] [1] VFR_HUD
[22:08:27.209762] [37] RADIO
[22:08:27.212869] [37] RADIO_STATUS
[22:08:27.555862] [2] HEARTBEAT
[22:08:27.575828] [3] SYS_STATUS
[22:08:27.623820] [4] BATTERY_STATUS
[22:08:27.631830] [5] ATTITUDE_TARGET
[22:08:27.636872] [6] VFR_HUD
[22:08:28.362127] [38] RADIO
[22:08:28.364098] [38] RADIO_STATUS
[22:08:28.433921] [7] VFR_HUD
[22:08:28.597031] [8] HEARTBEAT
[22:08:29.171081] [9] VFR_HUD
[22:08:29.203044] [39] RADIO
[22:08:29.206049] [39] RADIO_STATUS
[22:08:29.640115] [10] HEARTBEAT
[22:08:29.648118] [11] ATTITUDE_TARGET
[22:08:29.986190] [12] VFR_HUD
[22:08:30.320216] [40] RADIO
[22:08:30.323202] [40] RADIO_STATUS
[22:08:30.666298] [13] HEARTBEAT
[22:08:30.780285] [14] VFR_HUD
[22:08:31.244350] [41] RADIO
[22:08:31.247305] [41] RADIO_STATUS
[22:08:31.602447] [15] HEARTBEAT
[22:08:31.609429] [16] SYS_STATUS
[22:08:31.643384] [17] BATTERY_STATUS
[22:08:31.645382] [18] EXTENDED_SYS_STATE
[22:08:31.653428] [19] ATTITUDE_TARGET
[22:08:31.658428] [20] VFR_HUD
[22:08:31.661387] [21] SYSTEM_TIME
[22:08:32.268518] [42] RADIO
[22:08:32.271530] [42] RADIO_STATUS
[22:08:32.389532] [22] VFR_HUD
[22:08:32.614621] [23] HEARTBEAT
[22:08:33.204766] [24] VFR_HUD
[22:08:33.324737] [43] RADIO
[22:08:33.327853] [43] RADIO_STATUS
[22:08:33.673818] [25] HEARTBEAT
[22:08:33.680864] [26] ATTITUDE_TARGET
[22:08:34.232802] [44] RADIO
[22:08:34.235864] [44] RADIO_STATUS
[22:08:34.578954] [28] HEARTBEAT
[22:08:34.807888] [29] VFR_HUD
[22:08:35.257005] [45] RADIO
[22:08:35.259905] [45] RADIO_STATUS
[22:08:35.615073] [30] HEARTBEAT
[22:08:35.621998] [31] SYS_STATUS
[22:08:35.742011] [32] BATTERY_STATUS
[22:08:35.854010] [33] ATTITUDE_TARGET
[22:08:35.858957] [34] VFR_HUD
[22:08:36.407081] [46] RADIO
[22:08:36.410050] [46] RADIO_STATUS
[22:08:36.527125] [35] VFR_HUD
[22:08:36.648183] [36] HEARTBEAT
[22:08:37.217271] [37] VFR_HUD
[22:08:37.249235] [47] RADIO
[22:08:37.252244] [47] RADIO_STATUS
[22:08:37.562332] [38] HEARTBEAT
[22:08:37.584276] [39] ATTITUDE_TARGET
[22:08:38.026344] [40] VFR_HUD
[22:08:38.245351] [48] RADIO
[22:08:38.248324] [48] RADIO_STATUS
[22:08:38.826535] [42] VFR_HUD
[22:08:39.290560] [49] RADIO
[22:08:39.293554] [49] RADIO_STATUS
[22:08:39.648638] [43] HEARTBEAT
[22:08:39.655629] [44] SYS_STATUS
[22:08:39.694660] [45] BATTERY_STATUS
[22:08:39.702632] [46] ATTITUDE_TARGET
[22:08:39.707596] [47] VFR_HUD
[22:08:40.316724] [50] RADIO
[22:08:40.319714] [50] RADIO_STATUS
[22:08:40.390736] [48] VFR_HUD
[22:08:40.662795] [49] HEARTBEAT
[22:08:41.251948] [50] VFR_HUD
[22:08:41.372911] [51] RADIO
[22:08:41.375908] [51] RADIO_STATUS
[22:08:41.596001] [51] HEARTBEAT
[22:08:41.603977] [52] ATTITUDE_TARGET
[22:08:42.276007] [52] RADIO
[22:08:42.278969] [52] RADIO_STATUS
[22:08:42.622077] [54] HEARTBEAT
[22:08:42.861081] [55] VFR_HUD
[22:08:43.305178] [53] RADIO
[22:08:43.308158] [53] RADIO_STATUS
[22:08:43.663274] [56] HEARTBEAT
[22:08:43.669320] [57] SYS_STATUS
[22:08:43.789321] [58] BATTERY_STATUS
[22:08:43.902339] [59] ATTITUDE_TARGET
[22:08:43.906308] [60] VFR_HUD
[22:08:44.454378] [54] RADIO
[22:08:44.461763] [54] RADIO_STATUS
[22:08:44.580461] [61] VFR_HUD
[22:08:44.583425] [62] HEARTBEAT
[22:08:45.264584] [63] VFR_HUD
[22:08:45.291651] [55] RADIO
[22:08:45.294692] [55] RADIO_STATUS
[22:08:45.623584] [64] HEARTBEAT
[22:08:45.631563] [65] ATTITUDE_TARGET
[22:08:46.073692] [66] VFR_HUD
[22:08:46.293842] [56] RADIO
[22:08:46.296681] [56] RADIO_STATUS
[22:08:46.873943] [68] VFR_HUD
[22:08:47.332883] [57] RADIO
[22:08:47.335822] [57] RADIO_STATUS
[22:08:47.564028] [69] HEARTBEAT
[22:08:47.584054] [70] SYS_STATUS
[22:08:47.627947] [71] BATTERY_STATUS
[22:08:47.634951] [72] ATTITUDE_TARGET
[22:08:47.639877] [73] VFR_HUD
[22:08:48.364013] [58] RADIO
[22:08:48.367000] [58] RADIO_STATUS
[22:08:48.437058] [74] VFR_HUD
[22:08:48.600114] [75] HEARTBEAT
[22:08:49.174225] [76] VFR_HUD
[22:08:49.283205] [59] RADIO
[22:08:49.286207] [59] RADIO_STATUS
[22:08:49.643283] [77] HEARTBEAT
[22:08:49.651295] [78] ATTITUDE_TARGET
[22:08:49.989332] [79] VFR_HUD
[22:08:50.323369] [60] RADIO
[22:08:50.326452] [60] RADIO_STATUS
[22:08:50.669483] [80] HEARTBEAT
[22:08:50.783421] [81] VFR_HUD
[22:08:51.352527] [61] RADIO
[22:08:51.355497] [61] RADIO_STATUS
[22:08:51.600625] [82] HEARTBEAT
[22:08:51.607591] [83] SYS_STATUS
[22:08:51.728733] [84] BATTERY_STATUS
[22:08:51.730725] [85] EXTENDED_SYS_STATE
[22:08:51.738631] [86] ATTITUDE_TARGET
[22:08:51.743588] [87] VFR_HUD
[22:08:51.746643] [88] SYSTEM_TIME
[22:08:52.500802] [62] RADIO
[22:08:52.503783] [62] RADIO_STATUS
[22:08:52.617838] [90] HEARTBEAT
[22:08:53.201907] [91] VFR_HUD
[22:08:53.310987] [63] RADIO
[22:08:53.313920] [63] RADIO_STATUS
[22:08:53.670991] [92] HEARTBEAT
[22:08:53.679024] [93] ATTITUDE_TARGET
[22:08:54.013041] [94] VFR_HUD
[22:08:54.340015] [64] RADIO
[22:08:54.343028] [64] RADIO_STATUS
[22:08:54.582103] [95] HEARTBEAT
[22:08:54.811253] [96] VFR_HUD
[22:08:55.380190] [65] RADIO
[22:08:55.383437] [65] RADIO_STATUS
[22:08:55.618262] [97] HEARTBEAT
[22:08:55.625299] [98] SYS_STATUS
[22:08:55.740290] [99] BATTERY_STATUS
[22:08:55.976293] [100] ATTITUDE_TARGET
[22:08:55.981355] [101] VFR_HUD
[22:08:56.305331] [66] RADIO
[22:08:56.308392] [66] RADIO_STATUS
[22:08:56.420364] [102] VFR_HUD
[22:08:56.651392] [103] HEARTBEAT
[22:08:57.220482] [104] VFR_HUD
[22:08:57.329719] [67] RADIO
[22:08:57.332487] [67] RADIO_STATUS
[22:08:57.570588] [105] HEARTBEAT
[22:08:57.688559] [106] ATTITUDE_TARGET
[22:08:58.034655] [107] VFR_HUD
[22:08:58.374016] [68] RADIO
[22:08:58.377018] [68] RADIO_STATUS
[22:08:58.594751] [108] HEARTBEAT
[22:08:58.829726] [109] VFR_HUD
[22:08:59.397889] [69] RADIO
[22:08:59.400801] [69] RADIO_STATUS
[22:08:59.651905] [110] HEARTBEAT
[22:08:59.657856] [111] SYS_STATUS
[22:08:59.697872] [112] BATTERY_STATUS
[22:08:59.705888] [113] ATTITUDE_TARGET
[22:08:59.711015] [114] VFR_HUD
[22:09:00.548001] [70] RADIO
[22:09:00.551018] [70] RADIO_STATUS
[22:09:00.592050] [115] VFR_HUD
[22:09:00.595145] [116] HEARTBEAT
[22:09:01.253164] [117] VFR_HUD
[22:09:01.374263] [71] RADIO
[22:09:01.377112] [71] RADIO_STATUS
[22:09:01.723860] [118] HEARTBEAT
[22:09:01.730160] [119] ATTITUDE_TARGET
[22:09:02.048295] [120] VFR_HUD
[22:09:02.387316] [72] RADIO
[22:09:02.390372] [72] RADIO_STATUS
[22:09:02.628390] [121] HEARTBEAT
[22:09:02.857377] [122] VFR_HUD
[22:09:03.431531] [73] RADIO
[22:09:03.434490] [73] RADIO_STATUS
[22:09:03.664581] [123] HEARTBEAT
[22:09:03.671521] [124] SYS_STATUS
[22:09:03.791549] [125] BATTERY_STATUS
[22:09:04.351646] [74] RADIO
[22:09:04.354647] [74] RADIO_STATUS
[22:09:04.466764] [128] VFR_HUD
[22:09:04.572732] [129] HEARTBEAT
[22:09:05.266885] [130] VFR_HUD
[22:09:05.378514] [75] RADIO
[22:09:05.378769] [75] RADIO_STATUS
[22:09:05.625880] [131] HEARTBEAT
[22:09:05.633075] [132] ATTITUDE_TARGET
[22:09:06.076005] [133] VFR_HUD
[22:09:06.419991] [76] RADIO
[22:09:06.422992] [76] RADIO_STATUS
[22:09:06.641032] [134] HEARTBEAT
[22:09:06.771004] [135] VFR_HUD
[22:09:07.444110] [77] RADIO
[22:09:07.447107] [77] RADIO_STATUS
[22:09:07.566303] [136] HEARTBEAT
[22:09:07.587681] [137] SYS_STATUS
[22:09:07.629141] [138] BATTERY_STATUS
[22:09:07.637486] [139] ATTITUDE_TARGET
[22:09:07.642371] [140] VFR_HUD
[22:09:08.366207] [78] RADIO
[22:09:08.368228] [78] RADIO_STATUS
[22:09:08.439288] [141] VFR_HUD
[22:09:08.601315] [142] HEARTBEAT
[22:09:09.176372] [143] VFR_HUD
[22:09:09.405556] [79] RADIO
[22:09:09.408675] [79] RADIO_STATUS
[22:09:09.764606] [144] HEARTBEAT
[22:09:09.772436] [145] ATTITUDE_TARGET
[22:09:09.991566] [146] VFR_HUD
[22:09:10.435526] [80] RADIO
[22:09:10.437499] [80] RADIO_STATUS
[22:09:10.556556] [147] HEARTBEAT
[22:09:11.474866] [81] RADIO
[22:09:11.477866] [81] RADIO_STATUS
[22:09:11.602999] [149] HEARTBEAT
[22:09:11.610286] [150] SYS_STATUS
[22:09:11.730890] [151] BATTERY_STATUS
[22:09:11.732788] [152] EXTENDED_SYS_STATE
[22:09:11.740846] [153] ATTITUDE_TARGET
[22:09:11.745782] [154] VFR_HUD
[22:09:11.748958] [155] SYSTEM_TIME
[22:09:12.395006] [156] VFR_HUD
[22:09:12.422269] [82] RADIO
[22:09:12.424988] [82] RADIO_STATUS
[22:09:12.621838] [157] HEARTBEAT
[22:09:13.204027] [158] VFR_HUD
[22:09:13.424142] [83] RADIO
[22:09:13.427201] [83] RADIO_STATUS
[22:09:13.673612] [159] HEARTBEAT
[22:09:13.681173] [160] ATTITUDE_TARGET
[22:09:14.004178] [161] VFR_HUD
[22:09:14.463279] [84] RADIO
[22:09:14.466252] [84] RADIO_STATUS
[22:09:14.584375] [162] HEARTBEAT
[22:09:14.813327] [163] VFR_HUD
[22:09:15.492509] [85] RADIO
[22:09:15.495656] [85] RADIO_STATUS
[22:09:15.620472] [164] HEARTBEAT
[22:09:15.627606] [165] SYS_STATUS
[22:09:15.742527] [166] BATTERY_STATUS
[22:09:15.859518] [167] ATTITUDE_TARGET
[22:09:15.864505] [168] VFR_HUD
[22:09:16.412652] [86] RADIO
[22:09:16.415695] [86] RADIO_STATUS
[22:09:16.450677] [169] VFR_HUD
[22:09:16.648806] [170] HEARTBEAT
[22:09:17.222873] [171] VFR_HUD
[22:09:17.451867] [87] RADIO
[22:09:17.454836] [87] RADIO_STATUS
[22:09:17.586873] [172] HEARTBEAT
[22:09:17.594949] [173] ATTITUDE_TARGET
[22:09:18.037908] [174] VFR_HUD
[22:09:18.482033] [88] RADIO
[22:09:18.485160] [88] RADIO_STATUS
[22:09:18.598194] [175] HEARTBEAT
[22:09:19.521115] [89] RADIO
[22:09:19.524086] [89] RADIO_STATUS
[22:09:19.654232] [177] HEARTBEAT
[22:09:19.661197] [178] SYS_STATUS
[22:09:19.700324] [179] BATTERY_STATUS
[22:09:19.708358] [180] ATTITUDE_TARGET
[22:09:19.713243] [181] VFR_HUD
[22:09:20.550379] [90] RADIO
[22:09:20.553343] [90] RADIO_STATUS
[22:09:20.594307] [182] VFR_HUD
[22:09:20.597321] [183] HEARTBEAT
[22:09:21.250428] [184] VFR_HUD
[22:09:21.469439] [91] RADIO
[22:09:21.472430] [91] RADIO_STATUS
[22:09:21.599534] [185] HEARTBEAT
[22:09:21.607484] [186] ATTITUDE_TARGET
[22:09:22.050586] [187] VFR_HUD
[22:09:22.509763] [92] RADIO
[22:09:22.513038] [92] RADIO_STATUS
[22:09:22.630737] [188] HEARTBEAT
[22:09:22.859747] [189] VFR_HUD
[22:09:23.539031] [93] RADIO
[22:09:23.541927] [93] RADIO_STATUS
[22:09:23.598865] [190] HEARTBEAT
[22:09:23.605832] [191] SYS_STATUS
[22:09:23.612925] [192] BATTERY_STATUS
[22:09:23.625865] [193] ATTITUDE_TARGET
[22:09:23.630804] [194] VFR_HUD
[22:09:24.458908] [94] RADIO
[22:09:24.461871] [94] RADIO_STATUS
[22:09:24.710084] [195] VFR_HUD
[22:09:24.713090] [196] HEARTBEAT
[22:09:25.269037] [197] VFR_HUD
[22:09:25.503134] [95] RADIO
[22:09:25.506054] [95] RADIO_STATUS
[22:09:25.633152] [198] HEARTBEAT
[22:09:25.641092] [199] ATTITUDE_TARGET
[22:09:25.964171] [200] VFR_HUD
[22:09:26.528223] [96] RADIO
[22:09:26.530273] [96] RADIO_STATUS
[22:09:26.644291] [201] HEARTBEAT
[22:09:26.773275] [202] VFR_HUD
[22:09:27.447578] [97] RADIO
[22:09:27.450454] [97] RADIO_STATUS
[22:09:27.563450] [203] HEARTBEAT
[22:09:27.583461] [204] SYS_STATUS
[22:09:27.632404] [205] BATTERY_STATUS
[22:09:27.639427] [206] ATTITUDE_TARGET
[22:09:27.644554] [207] VFR_HUD
[22:09:28.494134] [98] RADIO
[22:09:28.496572] [98] RADIO_STATUS
[22:09:28.614577] [208] VFR_HUD
[22:09:28.617581] [209] HEARTBEAT
[22:09:29.517750] [99] RADIO
[22:09:29.520746] [99] RADIO_STATUS
[22:09:29.647870] [211] HEARTBEAT
[22:09:29.655751] [212] ATTITUDE_TARGET
[22:09:29.987842] [213] VFR_HUD
[22:09:30.553989] [214] HEARTBEAT
[22:09:30.585009] [100] RADIO
[22:09:30.587950] [100] RADIO_STATUS
[22:09:30.787949] [215] VFR_HUD
[22:09:31.587173] [101] RADIO
[22:09:31.590096] [101] RADIO_STATUS
[22:09:31.715192] [216] HEARTBEAT
[22:09:31.721107] [217] SYS_STATUS
[22:09:31.844129] [218] BATTERY_STATUS
[22:09:31.846114] [219] EXTENDED_SYS_STATE
[22:09:31.878159] [220] ATTITUDE_TARGET
[22:09:31.883245] [221] VFR_HUD
[22:09:31.887304] [222] SYSTEM_TIME
[22:09:32.397210] [223] VFR_HUD
[22:09:32.506371] [102] RADIO
[22:09:32.509271] [102] RADIO_STATUS
[22:09:33.206416] [225] VFR_HUD
[22:09:33.550487] [103] RADIO
[22:09:33.553405] [103] RADIO_STATUS
[22:09:33.675437] [226] HEARTBEAT
[22:09:33.683445] [227] ATTITUDE_TARGET
[22:09:34.006520] [228] VFR_HUD
[22:09:34.575507] [104] RADIO
[22:09:34.578545] [104] RADIO_STATUS
[22:09:34.691615] [229] HEARTBEAT
[22:09:34.820578] [230] VFR_HUD
[22:09:35.494752] [105] RADIO
[22:09:35.497707] [105] RADIO_STATUS
[22:09:35.622728] [231] HEARTBEAT
[22:09:35.629901] [232] SYS_STATUS
[22:09:35.744752] [233] BATTERY_STATUS
[22:09:35.861722] [234] ATTITUDE_TARGET
[22:09:35.866755] [235] VFR_HUD
[22:09:36.429880] [236] VFR_HUD
[22:09:36.545862] [106] RADIO
[22:09:36.548805] [106] RADIO_STATUS
[22:09:36.659896] [237] HEARTBEAT
[22:09:37.564117] [107] RADIO
[22:09:37.567510] [107] RADIO_STATUS
[22:09:37.611283] [239] HEARTBEAT
[22:09:37.619057] [240] ATTITUDE_TARGET
[22:09:38.039203] [241] VFR_HUD
[22:09:38.601065] [242] HEARTBEAT
[22:09:38.631286] [108] RADIO
[22:09:38.634402] [108] RADIO_STATUS
[22:09:38.834289] [243] VFR_HUD
[22:09:39.632381] [109] RADIO
[22:09:39.635390] [109] RADIO_STATUS
[22:09:39.760419] [244] HEARTBEAT
[22:09:39.767453] [245] SYS_STATUS
[22:09:39.882429] [246] BATTERY_STATUS
[22:09:39.999529] [247] ATTITUDE_TARGET
[22:09:40.004575] [248] VFR_HUD
[22:09:40.442639] [249] VFR_HUD
[22:09:40.552582] [110] RADIO
[22:09:40.555608] [110] RADIO_STATUS
[22:09:40.586589] [250] HEARTBEAT
[22:09:41.252748] [251] VFR_HUD
[22:09:41.601773] [252] HEARTBEAT
[22:09:41.609777] [253] ATTITUDE_TARGET
[22:09:41.701840] [111] RADIO
[22:09:41.704753] [111] RADIO_STATUS
[22:09:42.051841] [254] VFR_HUD
[22:09:42.620965] [112] RADIO
[22:09:42.623946] [112] RADIO_STATUS
[22:09:42.654932] [255] HEARTBEAT
[22:09:42.861937] [0] VFR_HUD
[22:09:43.540123] [113] RADIO
[22:09:43.543139] [113] RADIO_STATUS
[22:09:43.600153] [1] HEARTBEAT
[22:09:43.607255] [2] SYS_STATUS
[22:09:43.614497] [3] BATTERY_STATUS
[22:09:43.627158] [4] ATTITUDE_TARGET
[22:09:43.632143] [5] VFR_HUD
[22:09:44.470314] [6] VFR_HUD
[22:09:44.576299] [7] HEARTBEAT
[22:09:44.689316] [114] RADIO
[22:09:44.692237] [114] RADIO_STATUS
[22:09:45.609454] [115] RADIO
[22:09:45.613832] [115] RADIO_STATUS
[22:09:45.657595] [9] HEARTBEAT
[22:09:45.665451] [10] ATTITUDE_TARGET
[22:09:46.085501] [11] VFR_HUD
[22:09:46.645656] [12] HEARTBEAT
[22:09:46.758600] [116] RADIO
[22:09:46.761825] [116] RADIO_STATUS
[22:09:46.797628] [13] VFR_HUD
[22:09:47.678726] [117] RADIO
[22:09:47.681729] [117] RADIO_STATUS
[22:09:47.747803] [16] BATTERY_STATUS
[22:09:47.755786] [17] ATTITUDE_TARGET
[22:09:47.760923] [18] VFR_HUD
[22:09:48.597867] [118] RADIO
[22:09:48.600833] [118] RADIO_STATUS
[22:09:48.642886] [19] VFR_HUD
[22:09:48.645927] [20] HEARTBEAT
[22:09:49.178991] [21] VFR_HUD
[22:09:49.648141] [22] HEARTBEAT
[22:09:49.655084] [23] ATTITUDE_TARGET
[22:09:49.748111] [119] RADIO
[22:09:49.750681] [119] RADIO_STATUS
[22:09:49.988281] [24] VFR_HUD
[22:09:50.667271] [120] RADIO
[22:09:50.670258] [120] RADIO_STATUS
[22:09:50.701228] [25] HEARTBEAT
[22:09:50.788217] [26] VFR_HUD
[22:09:51.587364] [121] RADIO
[22:09:51.589301] [121] RADIO_STATUS
[22:09:51.715507] [27] HEARTBEAT
[22:09:51.721437] [28] SYS_STATUS
[22:09:51.844403] [29] BATTERY_STATUS
[22:09:51.846403] [30] EXTENDED_SYS_STATE
[22:09:51.878425] [31] ATTITUDE_TARGET
[22:09:51.883419] [32] VFR_HUD
[22:09:51.887668] [33] SYSTEM_TIME
[22:09:52.397572] [34] VFR_HUD
[22:09:52.622726] [35] HEARTBEAT
[22:09:52.654647] [122] RADIO
[22:09:52.657581] [122] RADIO_STATUS
[22:09:53.211672] [36] VFR_HUD
[22:09:53.655757] [123] RADIO
[22:09:53.658717] [123] RADIO_STATUS
[22:09:53.785874] [37] HEARTBEAT
[22:09:53.793840] [38] ATTITUDE_TARGET
[22:09:54.007039] [39] VFR_HUD
[22:09:54.582025] [40] HEARTBEAT
[22:09:54.700308] [124] RADIO
[22:09:54.703013] [124] RADIO_STATUS
[22:09:54.820947] [41] VFR_HUD
[22:09:55.724115] [125] RADIO
[22:09:55.727027] [125] RADIO_STATUS
[22:09:55.794120] [44] BATTERY_STATUS
[22:09:55.801080] [45] ATTITUDE_TARGET
[22:09:55.806120] [46] VFR_HUD
[22:09:56.643266] [126] RADIO
[22:09:56.646202] [126] RADIO_STATUS
[22:09:56.894338] [47] VFR_HUD
[22:09:56.897293] [48] HEARTBEAT
[22:09:57.224369] [49] VFR_HUD
[22:09:57.583393] [50] HEARTBEAT
[22:09:57.591345] [51] ATTITUDE_TARGET
[22:09:57.712959] [127] RADIO
[22:09:57.714304] [127] RADIO_STATUS
[22:09:58.033430] [52] VFR_HUD
[22:09:58.599542] [53] HEARTBEAT
[22:09:58.630602] [128] RADIO
[22:09:58.633542] [128] RADIO_STATUS
[22:09:58.833562] [54] VFR_HUD
[22:09:59.632731] [129] RADIO
[22:09:59.635783] [129] RADIO_STATUS
[22:09:59.760665] [55] HEARTBEAT
[22:09:59.766780] [56] SYS_STATUS
[22:09:59.886780] [57] BATTERY_STATUS
[22:09:59.999809] [58] ATTITUDE_TARGET
[22:10:00.004779] [59] VFR_HUD
[22:10:00.442863] [60] VFR_HUD
[22:10:00.562818] [61] HEARTBEAT
[22:10:00.676857] [130] RADIO
[22:10:00.679755] [130] RADIO_STATUS
[22:10:01.251902] [62] VFR_HUD
[22:10:01.601070] [63] HEARTBEAT
[22:10:01.609055] [64] ATTITUDE_TARGET
[22:10:01.700920] [131] RADIO
[22:10:01.703902] [131] RADIO_STATUS
[22:10:02.051954] [65] VFR_HUD
[22:10:02.620314] [132] RADIO
[22:10:02.623117] [132] RADIO_STATUS
[22:10:02.737322] [66] HEARTBEAT
[22:10:02.861157] [67] VFR_HUD
[22:10:03.551311] [68] HEARTBEAT
[22:10:03.770257] [133] RADIO
[22:10:03.773207] [133] RADIO_STATUS
[22:10:03.811320] [71] ATTITUDE_TARGET
[22:10:03.834532] [72] VFR_HUD
[22:10:04.475392] [73] VFR_HUD
[22:10:04.587420] [74] HEARTBEAT
[22:10:04.689411] [134] RADIO
[22:10:04.692407] [134] RADIO_STATUS
[22:10:05.165522] [75] VFR_HUD
[22:10:05.633613] [76] HEARTBEAT
[22:10:05.641626] [77] ATTITUDE_TARGET
[22:10:05.728655] [135] RADIO
[22:10:05.731672] [135] RADIO_STATUS
[22:10:06.084748] [78] VFR_HUD
[22:10:06.644795] [79] HEARTBEAT
[22:10:06.757733] [136] RADIO
[22:10:06.760777] [136] RADIO_STATUS
[22:10:06.878786] [80] VFR_HUD
[22:10:07.575888] [81] HEARTBEAT
[22:10:07.582858] [82] SYS_STATUS
[22:10:07.678004] [137] RADIO
[22:10:07.680933] [137] RADIO_STATUS
[22:10:07.746965] [83] BATTERY_STATUS
[22:10:07.755005] [84] ATTITUDE_TARGET
[22:10:07.759949] [85] VFR_HUD
[22:10:08.619009] [86] VFR_HUD
[22:10:08.621986] [87] HEARTBEAT
[22:10:08.733106] [138] RADIO
[22:10:08.736008] [138] RADIO_STATUS
[22:10:09.178111] [88] VFR_HUD
[22:10:09.646139] [89] HEARTBEAT
[22:10:09.654160] [90] ATTITUDE_TARGET
[22:10:09.746133] [139] RADIO
[22:10:09.749133] [139] RADIO_STATUS
[22:10:09.987238] [91] VFR_HUD
[22:10:10.666339] [140] RADIO
[22:10:10.669322] [140] RADIO_STATUS
[22:10:10.700431] [92] HEARTBEAT
[22:10:10.786315] [93] VFR_HUD
[22:10:11.609512] [94] HEARTBEAT
[22:10:11.615470] [95] SYS_STATUS
[22:10:11.650512] [96] BATTERY_STATUS
[22:10:11.651364] [97] EXTENDED_SYS_STATE
[22:10:11.659414] [98] ATTITUDE_TARGET
[22:10:11.664402] [99] VFR_HUD
[22:10:11.668437] [100] SYSTEM_TIME
[22:10:11.815450] [141] RADIO
[22:10:11.818419] [141] RADIO_STATUS
[22:10:12.395540] [101] VFR_HUD
[22:10:12.621610] [102] HEARTBEAT
[22:10:12.734602] [142] RADIO
[22:10:12.737543] [142] RADIO_STATUS
[22:10:13.210704] [103] VFR_HUD
[22:10:13.679780] [104] HEARTBEAT
[22:10:13.687898] [105] ATTITUDE_TARGET
[22:10:13.774795] [143] RADIO
[22:10:13.776784] [143] RADIO_STATUS
[22:10:14.579982] [107] HEARTBEAT
[22:10:14.693927] [144] RADIO
[22:10:14.696891] [144] RADIO_STATUS
[22:10:14.819938] [108] VFR_HUD
[22:10:15.622123] [109] HEARTBEAT
[22:10:15.628111] [110] SYS_STATUS
[22:10:15.723133] [145] RADIO
[22:10:15.726108] [145] RADIO_STATUS
[22:10:15.793188] [111] BATTERY_STATUS
[22:10:15.801198] [112] ATTITUDE_TARGET
[22:10:15.806090] [113] VFR_HUD
[22:10:16.659323] [114] VFR_HUD
[22:10:16.662272] [115] HEARTBEAT
[22:10:16.779305] [146] RADIO
[22:10:16.782601] [146] RADIO_STATUS
[22:10:17.223413] [116] VFR_HUD
[22:10:17.582446] [117] HEARTBEAT
[22:10:17.590439] [118] ATTITUDE_TARGET
[22:10:17.710541] [147] RADIO
[22:10:17.713520] [147] RADIO_STATUS
[22:10:18.033522] [119] VFR_HUD
[22:10:18.712597] [148] RADIO
[22:10:18.714669] [148] RADIO_STATUS
[22:10:18.832669] [121] VFR_HUD
[22:10:19.649821] [122] HEARTBEAT
[22:10:19.656752] [123] SYS_STATUS
[22:10:19.861928] [149] RADIO
[22:10:19.864865] [149] RADIO_STATUS
[22:10:20.442073] [127] VFR_HUD
[22:10:20.667011] [128] HEARTBEAT
[22:10:20.781038] [150] RADIO
[22:10:20.784148] [150] RADIO_STATUS
[22:10:21.251262] [129] VFR_HUD
[22:10:21.601347] [130] HEARTBEAT
[22:10:21.608340] [131] ATTITUDE_TARGET
[22:10:21.821146] [151] RADIO
[22:10:21.824115] [151] RADIO_STATUS
[22:10:22.626367] [133] HEARTBEAT
[22:10:22.745289] [152] RADIO
[22:10:22.748266] [152] RADIO_STATUS
[22:10:22.866286] [134] VFR_HUD
[22:10:23.551491] [135] HEARTBEAT
[22:10:23.680496] [136] SYS_STATUS
[22:10:23.688480] [137] BATTERY_STATUS
[22:10:23.770527] [153] RADIO
[22:10:23.773441] [153] RADIO_STATUS
[22:10:23.810476] [138] ATTITUDE_TARGET
[22:10:23.833524] [139] VFR_HUD
[22:10:24.475610] [140] VFR_HUD
[22:10:24.587606] [141] HEARTBEAT
[22:10:24.814673] [154] RADIO
[22:10:24.817621] [154] RADIO_STATUS
[22:10:25.270741] [142] VFR_HUD
[22:10:25.629782] [143] HEARTBEAT
[22:10:25.636749] [144] ATTITUDE_TARGET
[22:10:25.757831] [155] RADIO
[22:10:25.759698] [155] RADIO_STATUS
[22:10:26.085801] [145] VFR_HUD
[22:10:26.759126] [156] RADIO
[22:10:26.761866] [156] RADIO_STATUS
[22:10:26.879946] [147] VFR_HUD
[22:10:27.577166] [148] HEARTBEAT
[22:10:27.583127] [149] SYS_STATUS
[22:10:27.698097] [150] BATTERY_STATUS
[22:10:27.908138] [157] RADIO
[22:10:27.911102] [157] RADIO_STATUS
[22:10:28.379221] [153] VFR_HUD
[22:10:28.609211] [154] HEARTBEAT
[22:10:28.828371] [158] RADIO
[22:10:28.831270] [158] RADIO_STATUS
[22:10:29.178351] [155] VFR_HUD
[22:10:29.647415] [156] HEARTBEAT
[22:10:29.655475] [157] ATTITUDE_TARGET
[22:10:29.747326] [159] RADIO
[22:10:29.750342] [159] RADIO_STATUS
[22:10:29.993623] [158] VFR_HUD
[22:10:30.678529] [159] HEARTBEAT
[22:10:30.787532] [160] VFR_HUD
[22:10:30.820510] [160] RADIO
[22:10:30.823557] [160] RADIO_STATUS
[22:10:31.610688] [161] HEARTBEAT
[22:10:31.616646] [162] SYS_STATUS
[22:10:31.651673] [163] BATTERY_STATUS
[22:10:31.652638] [164] EXTENDED_SYS_STATE
[22:10:31.660660] [165] ATTITUDE_TARGET
[22:10:31.665653] [166] VFR_HUD
[22:10:31.668675] [167] SYSTEM_TIME
[22:10:31.816739] [161] RADIO
[22:10:31.819601] [161] RADIO_STATUS
[22:10:32.622983] [169] HEARTBEAT
[22:10:32.861918] [162] RADIO
[22:10:32.863848] [162] RADIO_STATUS
[22:10:33.211925] [170] VFR_HUD
[22:10:33.681043] [171] HEARTBEAT
[22:10:33.689005] [172] ATTITUDE_TARGET
[22:10:33.775963] [163] RADIO
[22:10:33.778982] [163] RADIO_STATUS
[22:10:34.006035] [173] VFR_HUD
[22:10:34.587418] [174] HEARTBEAT
[22:10:34.805149] [164] RADIO
[22:10:34.808220] [164] RADIO_STATUS
[22:10:34.926217] [175] VFR_HUD
[22:10:35.623401] [176] HEARTBEAT
[22:10:35.630522] [177] SYS_STATUS
[22:10:35.750429] [178] BATTERY_STATUS
[22:10:35.955340] [165] RADIO
[22:10:35.957290] [165] RADIO_STATUS
[22:10:36.091469] [179] ATTITUDE_TARGET
[22:10:36.096330] [180] VFR_HUD
[22:10:36.425483] [181] VFR_HUD
[22:10:36.655610] [182] HEARTBEAT
[22:10:36.764456] [166] RADIO
[22:10:36.767577] [166] RADIO_STATUS
[22:10:37.224532] [183] VFR_HUD
[22:10:37.583658] [184] HEARTBEAT
[22:10:37.591662] [185] ATTITUDE_TARGET
[22:10:37.793681] [167] RADIO
[22:10:37.796573] [167] RADIO_STATUS
[22:10:38.034659] [186] VFR_HUD
[22:10:38.599802] [187] HEARTBEAT
[22:10:38.833787] [188] VFR_HUD
[22:10:38.860741] [168] RADIO
[22:10:38.863795] [168] RADIO_STATUS
[22:10:39.650950] [189] HEARTBEAT
[22:10:39.657951] [190] SYS_STATUS
[22:10:39.809011] [191] BATTERY_STATUS
[22:10:39.816026] [192] ATTITUDE_TARGET
[22:10:39.820971] [193] VFR_HUD
[22:10:39.837095] [169] RADIO
[22:10:39.839967] [169] RADIO_STATUS
[22:10:40.558145] [195] HEARTBEAT
[22:10:40.902159] [170] RADIO
[22:10:40.905175] [170] RADIO_STATUS
[22:10:41.258224] [196] VFR_HUD
[22:10:41.721307] [197] HEARTBEAT
[22:10:41.729337] [198] ATTITUDE_TARGET
[22:10:41.821543] [171] RADIO
[22:10:41.824371] [171] RADIO_STATUS
[22:10:42.052318] [199] VFR_HUD
[22:10:42.627437] [200] HEARTBEAT
[22:10:42.851569] [172] RADIO
[22:10:42.854524] [172] RADIO_STATUS
[22:10:42.889468] [201] VFR_HUD
[22:10:43.668597] [202] HEARTBEAT
[22:10:43.675588] [203] SYS_STATUS
[22:10:43.795695] [204] BATTERY_STATUS
[22:10:44.000667] [173] RADIO
[22:10:44.003687] [173] RADIO_STATUS
[22:10:44.137729] [205] ATTITUDE_TARGET
[22:10:44.141927] [206] VFR_HUD
[22:10:44.476747] [207] VFR_HUD
[22:10:44.587766] [208] HEARTBEAT
[22:10:44.809901] [174] RADIO
[22:10:44.812966] [174] RADIO_STATUS
[22:10:45.161747] [209] VFR_HUD
[22:10:45.629949] [210] HEARTBEAT
[22:10:45.636963] [211] ATTITUDE_TARGET
[22:10:45.840151] [175] RADIO
[22:10:45.842186] [175] RADIO_STATUS
[22:10:46.080081] [212] VFR_HUD
[22:10:46.646107] [213] HEARTBEAT
[22:10:46.770146] [214] VFR_HUD
[22:10:46.879150] [176] RADIO
[22:10:46.882076] [176] RADIO_STATUS
[22:10:47.577344] [215] HEARTBEAT
[22:10:47.584273] [216] SYS_STATUS
[22:10:47.698275] [217] BATTERY_STATUS
[22:10:47.816361] [218] ATTITUDE_TARGET
[22:10:47.821328] [219] VFR_HUD
[22:10:47.855284] [177] RADIO
[22:10:47.858255] [177] RADIO_STATUS
[22:10:48.384419] [220] VFR_HUD
[22:10:48.604473] [221] HEARTBEAT
[22:10:48.948600] [178] RADIO
[22:10:48.951477] [178] RADIO_STATUS
[22:10:49.178629] [222] VFR_HUD
[22:10:49.767722] [223] HEARTBEAT
[22:10:49.775731] [224] ATTITUDE_TARGET
[22:10:49.872747] [179] RADIO
[22:10:49.875754] [179] RADIO_STATUS
[22:10:49.994095] [225] VFR_HUD
[22:10:50.673891] [226] HEARTBEAT
[22:10:50.897864] [180] RADIO
[22:10:50.900812] [180] RADIO_STATUS
[22:10:51.611084] [228] HEARTBEAT
[22:10:51.618036] [229] SYS_STATUS
[22:10:51.652035] [230] BATTERY_STATUS
[22:10:51.654037] [231] EXTENDED_SYS_STATE
[22:10:51.662087] [232] ATTITUDE_TARGET
[22:10:51.667080] [233] VFR_HUD
[22:10:51.670017] [234] SYSTEM_TIME
[22:10:52.047073] [181] RADIO
[22:10:52.050080] [181] RADIO_STATUS
[22:10:52.398290] [235] VFR_HUD
[22:10:52.623167] [236] HEARTBEAT
[22:10:52.862221] [182] RADIO
[22:10:52.865169] [182] RADIO_STATUS
[22:10:53.207228] [237] VFR_HUD
[22:10:53.681311] [238] HEARTBEAT
[22:10:53.689246] [239] ATTITUDE_TARGET
[22:10:53.886290] [183] RADIO
[22:10:53.889268] [183] RADIO_STATUS
[22:10:54.007329] [240] VFR_HUD
[22:10:54.587669] [241] HEARTBEAT
[22:10:54.816449] [242] VFR_HUD
[22:10:54.931493] [184] RADIO
[22:10:54.934608] [184] RADIO_STATUS
[22:10:55.623554] [243] HEARTBEAT
[22:10:55.630587] [244] SYS_STATUS
[22:10:55.750923] [245] BATTERY_STATUS
[22:10:55.862633] [246] ATTITUDE_TARGET
[22:10:55.867928] [247] VFR_HUD
[22:10:55.901943] [185] RADIO
[22:10:55.904670] [185] RADIO_STATUS
[22:10:56.425772] [248] VFR_HUD
[22:10:56.656792] [249] HEARTBEAT
[22:10:57.000814] [186] RADIO
[22:10:57.003766] [186] RADIO_STATUS
[22:10:57.225848] [250] VFR_HUD
[22:10:57.589929] [251] HEARTBEAT
[22:10:57.597907] [252] ATTITUDE_TARGET
[22:10:57.919956] [187] RADIO
[22:10:57.922945] [187] RADIO_STATUS
[22:10:58.034935] [253] VFR_HUD
[22:10:58.601102] [254] HEARTBEAT
[22:10:58.944115] [188] RADIO
[22:10:58.947080] [188] RADIO_STATUS
[22:10:59.657272] [0] HEARTBEAT
[22:10:59.664278] [1] SYS_STATUS
[22:10:59.704277] [2] BATTERY_STATUS
[22:10:59.711223] [3] ATTITUDE_TARGET
[22:10:59.716412] [4] VFR_HUD
[22:11:00.093344] [189] RADIO
[22:11:00.096313] [189] RADIO_STATUS
[22:11:00.444308] [5] VFR_HUD
[22:11:00.559421] [6] HEARTBEAT
[22:11:00.903381] [190] RADIO
[22:11:00.906479] [190] RADIO_STATUS
[22:11:01.259525] [7] VFR_HUD
[22:11:01.603584] [8] HEARTBEAT
[22:11:01.611565] [9] ATTITUDE_TARGET
[22:11:01.933663] [191] RADIO
[22:11:01.935549] [191] RADIO_STATUS
[22:11:02.053594] [10] VFR_HUD
[22:11:02.628709] [11] HEARTBEAT
[22:11:02.868830] [12] VFR_HUD
[22:11:02.988986] [192] RADIO
[22:11:02.997517] [192] RADIO_STATUS
[22:11:03.670855] [13] HEARTBEAT
[22:11:03.676829] [14] SYS_STATUS
[22:11:03.796856] [15] BATTERY_STATUS
[22:11:03.909860] [16] ATTITUDE_TARGET
[22:11:03.913889] [17] VFR_HUD
[22:11:03.919899] [193] RADIO
[22:11:03.922859] [193] RADIO_STATUS
[22:11:04.473008] [18] VFR_HUD
[22:11:04.921995] [194] RADIO
[22:11:04.924960] [194] RADIO_STATUS
[22:11:05.162074] [20] VFR_HUD
[22:11:05.631147] [21] HEARTBEAT
[22:11:05.639121] [22] ATTITUDE_TARGET
[22:11:05.962173] [23] VFR_HUD
[22:11:05.989209] [195] RADIO
[22:11:05.992144] [195] RADIO_STATUS
[22:11:06.647291] [24] HEARTBEAT
[22:11:06.777242] [25] VFR_HUD
[22:11:06.991293] [196] RADIO
[22:11:06.994300] [196] RADIO_STATUS
[22:11:07.578397] [26] HEARTBEAT
[22:11:07.585438] [27] SYS_STATUS
[22:11:07.700448] [28] BATTERY_STATUS
[22:11:07.817732] [29] ATTITUDE_TARGET
[22:11:07.822453] [30] VFR_HUD
[22:11:08.140491] [197] RADIO
[22:11:08.143453] [197] RADIO_STATUS
[22:11:08.385527] [31] VFR_HUD
[22:11:08.605657] [32] HEARTBEAT
[22:11:08.948606] [198] RADIO
[22:11:08.951589] [198] RADIO_STATUS
[22:11:09.648926] [34] HEARTBEAT
[22:11:09.656817] [35] ATTITUDE_TARGET
[22:11:09.978779] [199] RADIO
[22:11:09.981756] [199] RADIO_STATUS
[22:11:10.017825] [36] VFR_HUD
[22:11:10.554922] [37] HEARTBEAT
[22:11:10.788933] [38] VFR_HUD
[22:11:11.017988] [200] RADIO
[22:11:11.020936] [200] RADIO_STATUS
[22:11:11.606116] [39] HEARTBEAT
[22:11:11.613160] [40] SYS_STATUS
[22:11:11.734108] [41] BATTERY_STATUS
[22:11:11.736808] [42] EXTENDED_SYS_STATE
[22:11:11.744096] [43] ATTITUDE_TARGET
[22:11:11.749078] [44] VFR_HUD
[22:11:11.752054] [45] SYSTEM_TIME
[22:11:12.048180] [201] RADIO
[22:11:12.050183] [201] RADIO_STATUS
[22:11:12.398139] [46] VFR_HUD
[22:11:12.967272] [202] RADIO
[22:11:12.970251] [202] RADIO_STATUS
[22:11:13.207405] [48] VFR_HUD
[22:11:13.681916] [49] HEARTBEAT
[22:11:13.685256] [50] ATTITUDE_TARGET
[22:11:14.007372] [51] VFR_HUD
[22:11:14.034439] [203] RADIO
[22:11:14.037381] [203] RADIO_STATUS
[22:11:14.587613] [52] HEARTBEAT
[22:11:14.817504] [53] VFR_HUD
[22:11:15.037305] [204] RADIO
[22:11:15.039540] [204] RADIO_STATUS
[22:11:15.624648] [54] HEARTBEAT
[22:11:15.631634] [55] SYS_STATUS
[22:11:15.745666] [56] BATTERY_STATUS
[22:11:15.863662] [57] ATTITUDE_TARGET
[22:11:15.868631] [58] VFR_HUD
[22:11:15.956644] [205] RADIO
[22:11:15.958589] [205] RADIO_STATUS
[22:11:16.426789] [59] VFR_HUD
[22:11:16.656783] [60] HEARTBEAT
[22:11:17.000809] [206] RADIO
[22:11:17.003775] [206] RADIO_STATUS
[22:11:17.590851] [62] HEARTBEAT
[22:11:17.597866] [63] ATTITUDE_TARGET
[22:11:18.024889] [207] RADIO
[22:11:18.027881] [207] RADIO_STATUS
[22:11:18.063876] [64] VFR_HUD
[22:11:18.601095] [65] HEARTBEAT
[22:11:18.835994] [66] VFR_HUD
[22:11:19.073046] [208] RADIO
[22:11:19.076007] [208] RADIO_STATUS
[22:11:19.658158] [67] HEARTBEAT
[22:11:19.665163] [68] SYS_STATUS
[22:11:19.704143] [69] BATTERY_STATUS
[22:11:19.713057] [70] ATTITUDE_TARGET
[22:11:19.717133] [71] VFR_HUD
[22:11:19.989198] [209] RADIO
[22:11:19.992202] [209] RADIO_STATUS
[22:11:20.575260] [72] VFR_HUD
[22:11:20.578254] [73] HEARTBEAT
[22:11:21.014340] [210] RADIO
[22:11:21.016276] [210] RADIO_STATUS
[22:11:21.259443] [74] VFR_HUD
[22:11:21.603457] [75] HEARTBEAT
[22:11:21.611434] [76] ATTITUDE_TARGET
[22:11:22.054519] [77] VFR_HUD
[22:11:22.086472] [211] RADIO
[22:11:22.089431] [211] RADIO_STATUS
[22:11:22.634549] [78] HEARTBEAT
[22:11:22.863561] [79] VFR_HUD
[22:11:23.082665] [212] RADIO
[22:11:23.085718] [212] RADIO_STATUS
[22:11:23.670820] [80] HEARTBEAT
[22:11:23.677801] [81] SYS_STATUS
[22:11:23.796790] [82] BATTERY_STATUS
[22:11:23.909810] [83] ATTITUDE_TARGET
[22:11:23.914751] [84] VFR_HUD
[22:11:24.001751] [213] RADIO
[22:11:24.004782] [213] RADIO_STATUS
[22:11:24.472922] [85] VFR_HUD
[22:11:24.578033] [86] HEARTBEAT
[22:11:25.046894] [214] RADIO
[22:11:25.049914] [214] RADIO_STATUS
[22:11:25.166981] [87] VFR_HUD
[22:11:25.631028] [88] HEARTBEAT
[22:11:25.638969] [89] ATTITUDE_TARGET
[22:11:25.962039] [90] VFR_HUD
[22:11:26.073463] [215] RADIO
[22:11:26.075201] [215] RADIO_STATUS
[22:11:26.647126] [91] HEARTBEAT
[22:11:26.776184] [92] VFR_HUD
[22:11:27.115222] [216] RADIO
[22:11:27.118171] [216] RADIO_STATUS
[22:11:27.699363] [95] BATTERY_STATUS
[22:11:27.817348] [96] ATTITUDE_TARGET
[22:11:27.822352] [97] VFR_HUD
[22:11:28.057765] [217] RADIO
[22:11:28.060316] [217] RADIO_STATUS
[22:11:28.385446] [98] VFR_HUD
[22:11:28.605565] [99] HEARTBEAT
[22:11:29.059572] [218] RADIO
[22:11:29.062552] [218] RADIO_STATUS
[22:11:29.179625] [100] VFR_HUD
[22:11:29.648799] [101] HEARTBEAT
[22:11:29.656719] [102] ATTITUDE_TARGET
[22:11:29.989752] [103] VFR_HUD
[22:11:30.098741] [219] RADIO
[22:11:30.101694] [219] RADIO_STATUS
[22:11:30.554854] [104] HEARTBEAT
[22:11:30.788855] [105] VFR_HUD
[22:11:31.127873] [220] RADIO
[22:11:31.130957] [220] RADIO_STATUS
[22:11:31.605980] [106] HEARTBEAT
[22:11:31.613034] [107] SYS_STATUS
[22:11:31.733990] [108] BATTERY_STATUS
[22:11:31.735894] [109] EXTENDED_SYS_STATE
[22:11:31.743968] [110] ATTITUDE_TARGET
[22:11:31.748994] [111] VFR_HUD
[22:11:31.751935] [112] SYSTEM_TIME
[22:11:32.048067] [221] RADIO
[22:11:32.051026] [221] RADIO_STATUS
[22:11:32.398137] [113] VFR_HUD
[22:11:32.623109] [114] HEARTBEAT
[22:11:33.087186] [222] RADIO
[22:11:33.090155] [222] RADIO_STATUS
[22:11:33.208378] [115] VFR_HUD
[22:11:33.677359] [116] HEARTBEAT
[22:11:33.684324] [117] ATTITUDE_TARGET
[22:11:34.007453] [118] VFR_HUD
[22:11:34.051395] [223] RADIO
[22:11:34.054442] [223] RADIO_STATUS
[22:11:34.582441] [119] HEARTBEAT
[22:11:34.816491] [120] VFR_HUD
[22:11:35.155558] [224] RADIO
[22:11:35.158697] [224] RADIO_STATUS
[22:11:35.745660] [123] BATTERY_STATUS
[22:11:35.862583] [124] ATTITUDE_TARGET
[22:11:35.867662] [125] VFR_HUD
[22:11:36.075664] [225] RADIO
[22:11:36.078637] [225] RADIO_STATUS
[22:11:36.430683] [126] VFR_HUD
[22:11:36.653100] [127] HEARTBEAT
[22:11:37.105188] [226] RADIO
[22:11:37.107844] [226] RADIO_STATUS
[22:11:37.225751] [128] VFR_HUD
[22:11:37.589939] [129] HEARTBEAT
[22:11:37.597854] [130] ATTITUDE_TARGET
[22:11:38.039924] [131] VFR_HUD
[22:11:38.155963] [227] RADIO
[22:11:38.161713] [227] RADIO_STATUS
[22:11:38.601200] [132] HEARTBEAT
[22:11:38.835053] [133] VFR_HUD
[22:11:39.173143] [228] RADIO
[22:11:39.176126] [228] RADIO_STATUS
[22:11:39.657179] [134] HEARTBEAT
[22:11:39.663176] [135] SYS_STATUS
[22:11:39.703314] [136] BATTERY_STATUS
[22:11:39.711349] [137] ATTITUDE_TARGET
[22:11:39.715229] [138] VFR_HUD
[22:11:40.093248] [229] RADIO
[22:11:40.096228] [229] RADIO_STATUS
[22:11:40.446010] [139] VFR_HUD
[22:11:40.566329] [140] HEARTBEAT
[22:11:41.134633] [230] RADIO
[22:11:41.137432] [230] RADIO_STATUS
[22:11:41.255519] [141] VFR_HUD
[22:11:41.604564] [142] HEARTBEAT
[22:11:41.612634] [143] ATTITUDE_TARGET
[22:11:42.054700] [144] VFR_HUD
[22:11:42.087552] [231] RADIO
[22:11:42.090553] [231] RADIO_STATUS
[22:11:42.635655] [145] HEARTBEAT
[22:11:42.864674] [146] VFR_HUD
[22:11:43.083741] [232] RADIO
[22:11:43.086816] [232] RADIO_STATUS
[22:11:43.554843] [147] HEARTBEAT
[22:11:43.800863] [150] ATTITUDE_TARGET
[22:11:43.805822] [151] VFR_HUD
[22:11:44.232889] [233] RADIO
[22:11:44.235982] [233] RADIO_STATUS
[22:11:44.474107] [152] VFR_HUD
[22:11:44.579000] [153] HEARTBEAT
[22:11:45.153003] [234] RADIO
[22:11:45.156004] [234] RADIO_STATUS
[22:11:45.190983] [154] VFR_HUD
[22:11:45.638152] [155] HEARTBEAT
[22:11:45.646069] [156] ATTITUDE_TARGET
[22:11:46.192175] [235] RADIO
[22:11:46.195150] [235] RADIO_STATUS
[22:11:46.648306] [158] HEARTBEAT
[22:11:46.778299] [159] VFR_HUD
[22:11:47.222345] [236] RADIO
[22:11:47.225398] [236] RADIO_STATUS
[22:11:47.580516] [160] HEARTBEAT
[22:11:47.587448] [161] SYS_STATUS
[22:11:47.706455] [162] BATTERY_STATUS
[22:11:47.819505] [163] ATTITUDE_TARGET
[22:11:47.824437] [164] VFR_HUD
[22:11:48.141482] [237] RADIO
[22:11:48.144479] [237] RADIO_STATUS
[22:11:48.382526] [165] VFR_HUD
[22:11:48.607557] [166] HEARTBEAT
[22:11:49.181630] [167] VFR_HUD
[22:11:49.213774] [238] RADIO
[22:11:49.216777] [238] RADIO_STATUS
[22:11:49.650824] [168] HEARTBEAT
[22:11:49.658838] [169] ATTITUDE_TARGET
[22:11:49.991787] [170] VFR_HUD
[22:11:50.211102] [239] RADIO
[22:11:50.214025] [239] RADIO_STATUS
[22:11:50.790993] [172] VFR_HUD
[22:11:51.130140] [240] RADIO
[22:11:51.133111] [240] RADIO_STATUS
[22:11:51.608129] [173] HEARTBEAT
[22:11:51.615130] [174] SYS_STATUS
[22:11:52.175226] [241] RADIO
[22:11:52.178127] [241] RADIO_STATUS
[22:11:52.401246] [180] VFR_HUD
[22:11:52.626289] [181] HEARTBEAT
[22:11:53.199401] [242] RADIO
[22:11:53.202273] [242] RADIO_STATUS
[22:11:53.320357] [182] VFR_HUD
[22:11:53.679440] [183] HEARTBEAT
[22:11:53.689783] [184] ATTITUDE_TARGET
[22:11:54.244540] [243] RADIO
[22:11:54.247491] [243] RADIO_STATUS
[22:11:54.585522] [186] HEARTBEAT
[22:11:54.824539] [187] VFR_HUD
[22:11:55.268663] [244] RADIO
[22:11:55.271580] [244] RADIO_STATUS
[22:11:55.626657] [188] HEARTBEAT
[22:11:55.633715] [189] SYS_STATUS
[22:11:55.747659] [190] BATTERY_STATUS
[22:11:55.865721] [191] ATTITUDE_TARGET
[22:11:55.870684] [192] VFR_HUD
[22:11:56.187800] [245] RADIO
[22:11:56.190822] [245] RADIO_STATUS
[22:11:56.433818] [193] VFR_HUD
[22:11:56.545856] [194] HEARTBEAT
[22:11:57.228884] [195] VFR_HUD
[22:11:57.255935] [246] RADIO
[22:11:57.258936] [246] RADIO_STATUS
[22:11:57.587007] [196] HEARTBEAT
[22:11:57.595166] [197] ATTITUDE_TARGET
[22:11:58.049837] [198] VFR_HUD
[22:11:58.159698] [247] RADIO
[22:11:58.162063] [247] RADIO_STATUS
[22:11:58.837205] [200] VFR_HUD
[22:11:59.176188] [248] RADIO
[22:11:59.179221] [248] RADIO_STATUS
[22:11:59.654339] [201] HEARTBEAT
[22:11:59.661270] [202] SYS_STATUS
[22:12:00.216677] [249] RADIO
[22:12:00.219615] [249] RADIO_STATUS
[22:12:00.446475] [206] VFR_HUD
[22:12:00.567508] [207] HEARTBEAT
[22:12:01.245587] [250] RADIO
[22:12:01.248510] [250] RADIO_STATUS
[22:12:01.366659] [208] VFR_HUD
[22:12:01.604720] [209] HEARTBEAT
[22:12:01.612871] [210] ATTITUDE_TARGET
[22:12:02.164731] [251] RADIO
[22:12:02.168104] [251] RADIO_STATUS
[22:12:02.635834] [212] HEARTBEAT
[22:12:02.864888] [213] VFR_HUD
[22:12:03.313871] [252] RADIO
[22:12:03.316875] [252] RADIO_STATUS
[22:12:03.555033] [214] HEARTBEAT
[22:12:03.801154] [217] ATTITUDE_TARGET
[22:12:03.805949] [218] VFR_HUD
[22:12:04.233056] [253] RADIO
[22:12:04.236010] [253] RADIO_STATUS
[22:12:04.474117] [219] VFR_HUD
[22:12:04.579094] [220] HEARTBEAT
[22:12:05.169361] [221] VFR_HUD
[22:12:05.284178] [254] RADIO
[22:12:05.287164] [254] RADIO_STATUS
[22:12:05.637270] [222] HEARTBEAT
[22:12:05.645338] [223] ATTITUDE_TARGET
[22:12:05.963340] [224] VFR_HUD
[22:12:06.192319] [255] RADIO
[22:12:06.195377] [255] RADIO_STATUS
[22:12:06.772456] [226] VFR_HUD
[22:12:07.221436] [0] RADIO
[22:12:07.224487] [0] RADIO_STATUS
[22:12:07.580588] [227] HEARTBEAT
[22:12:07.586561] [228] SYS_STATUS
[22:12:07.706587] [229] BATTERY_STATUS
[22:12:07.938626] [230] ATTITUDE_TARGET
[22:12:07.942580] [231] VFR_HUD
[22:12:08.261880] [1] RADIO
[22:12:08.264662] [1] RADIO_STATUS
[22:12:08.381648] [232] VFR_HUD
[22:12:08.612876] [233] HEARTBEAT
[22:12:09.181778] [234] VFR_HUD
[22:12:09.214088] [2] RADIO
[22:12:09.216902] [2] RADIO_STATUS
[22:12:09.650869] [235] HEARTBEAT
[22:12:09.658800] [236] ATTITUDE_TARGET
[22:12:09.991890] [237] VFR_HUD
[22:12:10.210938] [3] RADIO
[22:12:10.213904] [3] RADIO_STATUS
[22:12:10.557001] [238] HEARTBEAT
[22:12:10.791042] [239] VFR_HUD
[22:12:11.360098] [4] RADIO
[22:12:11.363094] [4] RADIO_STATUS
[22:12:11.608178] [240] HEARTBEAT
[22:12:11.615228] [241] SYS_STATUS
[22:12:11.737200] [242] BATTERY_STATUS
[22:12:11.738149] [243] EXTENDED_SYS_STATE
[22:12:11.746196] [244] ATTITUDE_TARGET
[22:12:11.751207] [245] VFR_HUD
[22:12:11.755195] [246] SYSTEM_TIME
[22:12:12.279293] [5] RADIO
[22:12:12.282226] [5] RADIO_STATUS
[22:12:12.625349] [248] HEARTBEAT
[22:12:13.214468] [249] VFR_HUD
[22:12:13.335401] [6] RADIO
[22:12:13.338368] [6] RADIO_STATUS
[22:12:13.678500] [250] HEARTBEAT
[22:12:13.686466] [251] ATTITUDE_TARGET
[22:12:14.009555] [252] VFR_HUD
[22:12:14.243618] [7] RADIO
[22:12:14.246556] [7] RADIO_STATUS
[22:12:14.584717] [253] HEARTBEAT
[22:12:14.823693] [254] VFR_HUD
[22:12:15.267799] [8] RADIO
[22:12:15.270710] [8] RADIO_STATUS
[22:12:15.625860] [255] HEARTBEAT
[22:12:15.632819] [0] SYS_STATUS
[22:12:15.752995] [1] BATTERY_STATUS
[22:12:16.313097] [9] RADIO
[22:12:16.315858] [9] RADIO_STATUS
[22:12:16.433986] [4] VFR_HUD
[22:12:16.653989] [5] HEARTBEAT
[22:12:17.228072] [6] VFR_HUD
[22:12:17.260085] [10] RADIO
[22:12:17.264544] [10] RADIO_STATUS
[22:12:17.589801] [7] HEARTBEAT
[22:12:17.594233] [8] ATTITUDE_TARGET
[22:12:18.037192] [9] VFR_HUD
[22:12:18.256274] [11] RADIO
[22:12:18.259215] [11] RADIO_STATUS
[22:12:18.602567] [10] HEARTBEAT
[22:12:18.837469] [11] VFR_HUD
[22:12:19.405562] [12] RADIO
[22:12:19.408517] [12] RADIO_STATUS
[22:12:19.654101] [12] HEARTBEAT
[22:12:19.665883] [13] SYS_STATUS
[22:12:19.779571] [14] BATTERY_STATUS
[22:12:19.787562] [15] ATTITUDE_TARGET
[22:12:19.828494] [16] VFR_HUD
[22:12:20.325628] [13] RADIO
[22:12:20.329935] [13] RADIO_STATUS
[22:12:20.363747] [17] VFR_HUD
[22:12:20.561698] [18] HEARTBEAT
[22:12:21.255813] [19] VFR_HUD
[22:12:21.370845] [14] RADIO
[22:12:21.373936] [14] RADIO_STATUS
[22:12:21.724924] [20] HEARTBEAT
[22:12:21.731874] [21] ATTITUDE_TARGET
[22:12:22.055910] [22] VFR_HUD
[22:12:22.283978] [15] RADIO
[22:12:22.286952] [15] RADIO_STATUS
[22:12:22.630019] [23] HEARTBEAT
[22:12:22.864995] [24] VFR_HUD
[22:12:23.314092] [16] RADIO
[22:12:23.317037] [16] RADIO_STATUS
[22:12:23.555145] [25] HEARTBEAT
[22:12:23.684104] [26] SYS_STATUS
[22:12:23.692147] [27] BATTERY_STATUS
[22:12:23.801258] [28] ATTITUDE_TARGET
[22:12:23.806218] [29] VFR_HUD
[22:12:24.354475] [17] RADIO
[22:12:24.357456] [17] RADIO_STATUS
[22:12:24.479257] [30] VFR_HUD
[22:12:24.591437] [31] HEARTBEAT
[22:12:25.164359] [32] VFR_HUD
[22:12:25.273343] [18] RADIO
[22:12:25.276360] [18] RADIO_STATUS
[22:12:25.639181] [33] HEARTBEAT
[22:12:25.646793] [34] ATTITUDE_TARGET
[22:12:25.964470] [35] VFR_HUD
[22:12:26.302733] [19] RADIO
[22:12:26.306086] [19] RADIO_STATUS
[22:12:26.648692] [36] HEARTBEAT
[22:12:26.773601] [37] VFR_HUD
[22:12:27.453447] [20] RADIO
[22:12:27.455785] [20] RADIO_STATUS
[22:12:27.580873] [38] HEARTBEAT
[22:12:27.587796] [39] SYS_STATUS
[22:12:27.703841] [40] BATTERY_STATUS
[22:12:27.938924] [41] ATTITUDE_TARGET
[22:12:27.943883] [42] VFR_HUD
[22:12:28.371932] [21] RADIO
[22:12:28.374966] [21] RADIO_STATUS
[22:12:28.613195] [44] HEARTBEAT
[22:12:29.182079] [45] VFR_HUD
[22:12:29.291050] [22] RADIO
[22:12:29.294268] [22] RADIO_STATUS
[22:12:29.770182] [46] HEARTBEAT
[22:12:29.777278] [47] ATTITUDE_TARGET
[22:12:29.991220] [48] VFR_HUD
[22:12:30.330337] [23] RADIO
[22:12:30.333256] [23] RADIO_STATUS
[22:12:30.556309] [49] HEARTBEAT
[22:12:31.359693] [24] RADIO
[22:12:31.362521] [24] RADIO_STATUS
[22:12:31.612522] [51] HEARTBEAT
[22:12:31.619512] [52] SYS_STATUS
[22:12:31.653498] [53] BATTERY_STATUS
[22:12:31.655498] [54] EXTENDED_SYS_STATE
[22:12:31.663464] [55] ATTITUDE_TARGET
[22:12:31.668487] [56] VFR_HUD
[22:12:31.671605] [57] SYSTEM_TIME
[22:12:32.399602] [58] VFR_HUD
[22:12:32.426590] [25] RADIO
[22:12:32.429615] [25] RADIO_STATUS
[22:12:32.625684] [59] HEARTBEAT
[22:12:33.214766] [60] VFR_HUD
[22:12:33.329821] [26] RADIO
[22:12:33.333011] [26] RADIO_STATUS
[22:12:33.685483] [61] HEARTBEAT
[22:12:33.691829] [62] ATTITUDE_TARGET
[22:12:34.008848] [63] VFR_HUD
[22:12:34.347925] [27] RADIO
[22:12:34.350920] [27] RADIO_STATUS
[22:12:34.583977] [64] HEARTBEAT
[22:12:34.824206] [65] VFR_HUD
[22:12:35.497107] [28] RADIO
[22:12:35.500097] [28] RADIO_STATUS
[22:12:35.625140] [66] HEARTBEAT
[22:12:35.632113] [67] SYS_STATUS
[22:12:35.752147] [68] BATTERY_STATUS
[22:12:35.864190] [69] ATTITUDE_TARGET
[22:12:35.869111] [70] VFR_HUD
[22:12:36.417205] [29] RADIO
[22:12:36.419207] [29] RADIO_STATUS
[22:12:37.227462] [73] VFR_HUD
[22:12:37.336342] [30] RADIO
[22:12:37.339359] [30] RADIO_STATUS
[22:12:37.586472] [74] HEARTBEAT
[22:12:37.594428] [75] ATTITUDE_TARGET
[22:12:38.036433] [76] VFR_HUD
[22:12:38.381536] [31] RADIO
[22:12:38.384465] [31] RADIO_STATUS
[22:12:38.602646] [77] HEARTBEAT
[22:12:39.405687] [32] RADIO
[22:12:39.408634] [32] RADIO_STATUS
[22:12:39.653757] [79] HEARTBEAT
[22:12:39.660758] [80] SYS_STATUS
[22:12:39.779014] [81] BATTERY_STATUS
[22:12:39.786710] [82] ATTITUDE_TARGET
[22:12:39.816739] [83] VFR_HUD
[22:12:40.324820] [33] RADIO
[22:12:40.327779] [33] RADIO_STATUS
[22:12:40.363815] [84] VFR_HUD
[22:12:40.560910] [85] HEARTBEAT
[22:12:41.255981] [86] VFR_HUD
[22:12:41.370007] [34] RADIO
[22:12:41.372879] [34] RADIO_STATUS
[22:12:41.605011] [87] HEARTBEAT
[22:12:41.612962] [88] ATTITUDE_TARGET
[22:12:42.055113] [89] VFR_HUD
[22:12:42.394182] [35] RADIO
[22:12:42.397134] [35] RADIO_STATUS
[22:12:42.630172] [90] HEARTBEAT
[22:12:42.870180] [91] VFR_HUD
[22:12:43.543328] [36] RADIO
[22:12:43.546234] [36] RADIO_STATUS
[22:12:43.672312] [92] HEARTBEAT
[22:12:43.678324] [93] SYS_STATUS
[22:12:43.793302] [94] BATTERY_STATUS
[22:12:43.911299] [95] ATTITUDE_TARGET
[22:12:43.915293] [96] VFR_HUD
[22:12:44.359451] [97] VFR_HUD
[22:12:44.386368] [37] RADIO
[22:12:44.389337] [37] RADIO_STATUS
[22:12:45.163498] [99] VFR_HUD
[22:12:45.382661] [38] RADIO
[22:12:45.385517] [38] RADIO_STATUS
[22:12:45.632625] [100] HEARTBEAT
[22:12:45.640644] [101] ATTITUDE_TARGET
[22:12:45.963678] [102] VFR_HUD
[22:12:46.427821] [39] RADIO
[22:12:46.430767] [39] RADIO_STATUS
[22:12:46.648866] [103] HEARTBEAT
[22:12:46.772915] [104] VFR_HUD
[22:12:47.451975] [40] RADIO
[22:12:47.454920] [40] RADIO_STATUS
[22:12:47.579926] [105] HEARTBEAT
[22:12:47.586959] [106] SYS_STATUS
[22:12:47.702016] [107] BATTERY_STATUS
[22:12:47.818986] [108] ATTITUDE_TARGET
[22:12:47.823985] [109] VFR_HUD
[22:12:48.371877] [41] RADIO
[22:12:48.374045] [41] RADIO_STATUS
[22:12:48.492083] [110] VFR_HUD
[22:12:48.613451] [111] HEARTBEAT
[22:12:49.411296] [42] RADIO
[22:12:49.414132] [42] RADIO_STATUS
[22:12:49.650401] [113] HEARTBEAT
[22:12:49.658244] [114] ATTITUDE_TARGET
[22:12:49.996342] [115] VFR_HUD
[22:12:50.440408] [43] RADIO
[22:12:50.443377] [43] RADIO_STATUS
[22:12:50.556428] [116] HEARTBEAT
[22:12:50.790495] [117] VFR_HUD
[22:12:51.589682] [44] RADIO
[22:12:51.592636] [44] RADIO_STATUS
[22:12:51.653613] [118] HEARTBEAT
[22:12:51.659605] [119] SYS_STATUS
[22:12:51.667633] [120] BATTERY_STATUS
[22:12:51.669598] [121] EXTENDED_SYS_STATE
[22:12:51.686659] [122] ATTITUDE_TARGET
[22:12:51.691472] [123] VFR_HUD
[22:12:51.694566] [124] SYSTEM_TIME
[22:12:52.399696] [125] VFR_HUD
[22:12:52.426751] [45] RADIO
[22:12:52.429999] [45] RADIO_STATUS
[22:12:53.214866] [127] VFR_HUD
[22:12:53.429825] [46] RADIO
[22:12:53.436096] [46] RADIO_STATUS
[22:12:53.549932] [128] HEARTBEAT
[22:12:53.572910] [129] ATTITUDE_TARGET
[22:12:54.009201] [130] VFR_HUD
[22:12:54.468084] [47] RADIO
[22:12:54.471065] [47] RADIO_STATUS
[22:12:54.589129] [131] HEARTBEAT
[22:12:54.819118] [132] VFR_HUD
