[09:35:58.414047] [38] RADIO
[09:35:58.417139] [38] RADIO_STATUS
[09:35:58.889027] [185] VFR_HUD
[09:35:59.233142] [186] HEARTBEAT
[09:35:59.241134] [187] ATTITUDE_TARGET
[09:35:59.453239] [39] RADIO
[09:35:59.456030] [39] RADIO_STATUS
[09:35:59.684132] [188] VFR_HUD
[09:36:00.264333] [189] HEARTBEAT
[09:36:00.482297] [40] RADIO
[09:36:00.485195] [40] RADIO_STATUS
[09:36:00.523215] [190] VFR_HUD
[09:36:01.178299] [191] HEARTBEAT
[09:36:01.198421] [192] SYS_STATUS
[09:36:01.242351] [193] BATTERY_STATUS
[09:36:01.249489] [194] ATTITUDE_TARGET
[09:36:01.254436] [195] VFR_HUD
[09:36:01.522501] [41] RADIO
[09:36:01.525365] [41] RADIO_STATUS
[09:36:02.218487] [196] VFR_HUD
[09:36:02.221540] [197] HEARTBEAT
[09:36:02.442556] [42] RADIO
[09:36:02.444512] [42] RADIO_STATUS
[09:36:02.797564] [198] VFR_HUD
[09:36:03.261606] [199] HEARTBEAT
[09:36:03.269592] [200] ATTITUDE_TARGET
[09:36:03.471681] [43] RADIO
[09:36:03.474640] [43] RADIO_STATUS
[09:36:03.592636] [201] VFR_HUD
[09:36:04.277772] [202] HEARTBEAT
[09:36:04.407678] [203] VFR_HUD
[09:36:04.522705] [44] RADIO
[09:36:04.525796] [44] RADIO_STATUS
[09:36:05.208818] [204] HEARTBEAT
[09:36:05.215777] [205] SYS_STATUS
[09:36:05.357799] [206] BATTERY_STATUS
[09:36:05.385817] [207] EXTENDED_SYS_STATE
[09:36:05.392857] [208] ATTITUDE_TARGET
[09:36:05.397821] [209] VFR_HUD
[09:36:05.401831] [210] SYSTEM_TIME
[09:36:05.435854] [45] RADIO
[09:36:05.438788] [45] RADIO_STATUS
[09:36:06.246932] [211] VFR_HUD
[09:36:06.249894] [212] HEARTBEAT
[09:36:06.459977] [46] RADIO
[09:36:06.462923] [46] RADIO_STATUS
[09:36:06.811115] [213] VFR_HUD
[09:36:07.280141] [214] HEARTBEAT
[09:36:07.288099] [215] ATTITUDE_TARGET
[09:36:07.505174] [47] RADIO
[09:36:07.508108] [47] RADIO_STATUS
[09:36:07.621035] [216] VFR_HUD
[09:36:08.186210] [217] HEARTBEAT
[09:36:08.420184] [218] VFR_HUD
[09:36:08.453225] [48] RADIO
[09:36:08.456118] [48] RADIO_STATUS
[09:36:09.238414] [219] HEARTBEAT
[09:36:09.244376] [220] SYS_STATUS
[09:36:09.363347] [221] BATTERY_STATUS
[09:36:09.371256] [222] ATTITUDE_TARGET
[09:36:09.401357] [223] VFR_HUD
[09:36:09.449410] [49] RADIO
[09:36:09.452314] [49] RADIO_STATUS
[09:36:10.030445] [224] VFR_HUD
[09:36:10.255409] [225] HEARTBEAT
[09:36:10.494476] [50] RADIO
[09:36:10.497320] [50] RADIO_STATUS
[09:36:10.839523] [226] VFR_HUD
[09:36:11.308570] [227] HEARTBEAT
[09:36:11.316559] [228] ATTITUDE_TARGET
[09:36:11.518542] [51] RADIO
[09:36:11.521478] [51] RADIO_STATUS
[09:36:11.639596] [229] VFR_HUD
[09:36:12.214632] [230] HEARTBEAT
[09:36:12.452077] [231] VFR_HUD
[09:36:12.563623] [52] RADIO
[09:36:12.566626] [52] RADIO_STATUS
[09:36:13.256882] [232] HEARTBEAT
[09:36:13.262917] [233] SYS_STATUS
[09:36:13.377801] [234] BATTERY_STATUS
[09:36:13.495756] [235] ATTITUDE_TARGET
[09:36:13.500765] [236] VFR_HUD
[09:36:13.534766] [53] RADIO
[09:36:13.538065] [53] RADIO_STATUS
[09:36:14.063858] [237] VFR_HUD
[09:36:14.180888] [238] HEARTBEAT
[09:36:14.507828] [54] RADIO
[09:36:14.510908] [54] RADIO_STATUS
[09:36:14.858896] [239] VFR_HUD
[09:36:15.222979] [240] HEARTBEAT
[09:36:15.230060] [241] ATTITUDE_TARGET
[09:36:15.552048] [55] RADIO
[09:36:15.555500] [55] RADIO_STATUS
[09:36:15.673060] [242] VFR_HUD
[09:36:16.233064] [243] HEARTBEAT
[09:36:16.467111] [244] VFR_HUD
[09:36:16.494178] [56] RADIO
[09:36:16.497094] [56] RADIO_STATUS
[09:36:17.289228] [245] HEARTBEAT
[09:36:17.296202] [246] SYS_STATUS
[09:36:17.336156] [247] BATTERY_STATUS
[09:36:17.344200] [248] ATTITUDE_TARGET
[09:36:17.348182] [249] VFR_HUD
[09:36:17.621264] [57] RADIO
[09:36:17.624315] [57] RADIO_STATUS
[09:36:18.207283] [250] VFR_HUD
[09:36:18.210235] [251] HEARTBEAT
[09:36:18.536410] [58] RADIO
[09:36:18.539340] [58] RADIO_STATUS
[09:36:18.886301] [252] VFR_HUD
[09:36:19.236331] [253] HEARTBEAT
[09:36:19.243481] [254] ATTITUDE_TARGET
[09:36:19.568083] [59] RADIO
[09:36:19.568371] [59] RADIO_STATUS
[09:36:19.686549] [255] VFR_HUD
[09:36:20.371481] [0] HEARTBEAT
[09:36:20.395443] [1] VFR_HUD
[09:36:20.605551] [60] RADIO
[09:36:20.608575] [60] RADIO_STATUS
[09:36:21.199171] [2] HEARTBEAT
[09:36:21.205655] [3] SYS_STATUS
[09:36:21.244605] [4] BATTERY_STATUS
[09:36:21.252642] [5] ATTITUDE_TARGET
[09:36:21.257545] [6] VFR_HUD
[09:36:21.525681] [61] RADIO
[09:36:21.528513] [61] RADIO_STATUS
[09:36:22.222002] [7] VFR_HUD
[09:36:22.224708] [8] HEARTBEAT
[09:36:22.554679] [62] RADIO
[09:36:22.557672] [62] RADIO_STATUS
[09:36:22.800891] [9] VFR_HUD
[09:36:23.269812] [10] HEARTBEAT
[09:36:23.277777] [11] ATTITUDE_TARGET
[09:36:23.594879] [12] VFR_HUD
[09:36:23.621830] [63] RADIO
[09:36:23.625083] [63] RADIO_STATUS
[09:36:24.280947] [13] HEARTBEAT
[09:36:24.410013] [14] VFR_HUD
[09:36:24.624019] [64] RADIO
[09:36:24.626969] [64] RADIO_STATUS
[09:36:25.212184] [15] HEARTBEAT
[09:36:25.219102] [16] SYS_STATUS
[09:36:25.342091] [17] BATTERY_STATUS
[09:36:25.343052] [18] EXTENDED_SYS_STATE
[09:36:25.376094] [19] ATTITUDE_TARGET
[09:36:25.380052] [20] VFR_HUD
[09:36:25.384058] [21] SYSTEM_TIME
[09:36:25.664087] [65] RADIO
[09:36:25.667183] [65] RADIO_STATUS
[09:36:26.013998] [22] VFR_HUD
[09:36:26.240146] [23] HEARTBEAT
[09:36:26.583088] [66] RADIO
[09:36:26.586073] [66] RADIO_STATUS
[09:36:26.814252] [24] VFR_HUD
[09:36:27.283202] [25] HEARTBEAT
[09:36:27.291209] [26] ATTITUDE_TARGET
[09:36:27.612335] [67] RADIO
[09:36:27.615281] [67] RADIO_STATUS
[09:36:27.734859] [27] VFR_HUD
[09:36:28.188316] [28] HEARTBEAT
[09:36:28.423398] [29] VFR_HUD
[09:36:28.652360] [68] RADIO
[09:36:28.655261] [68] RADIO_STATUS
[09:36:29.240421] [30] HEARTBEAT
[09:36:29.247582] [31] SYS_STATUS
[09:36:29.365507] [32] BATTERY_STATUS
[09:36:29.373431] [33] ATTITUDE_TARGET
[09:36:29.403427] [34] VFR_HUD
[09:36:29.571441] [69] RADIO
[09:36:29.574469] [69] RADIO_STATUS
[09:36:30.032598] [35] VFR_HUD
[09:36:30.257599] [36] HEARTBEAT
[09:36:30.601662] [70] RADIO
[09:36:30.604621] [70] RADIO_STATUS
[09:36:30.841642] [37] VFR_HUD
[09:36:31.177691] [38] HEARTBEAT
[09:36:31.199672] [39] ATTITUDE_TARGET
[09:36:31.641732] [40] VFR_HUD
[09:36:31.674306] [71] RADIO
[09:36:31.676786] [71] RADIO_STATUS
[09:36:32.216899] [41] HEARTBEAT
[09:36:32.457046] [42] VFR_HUD
[09:36:32.669820] [72] RADIO
[09:36:32.672872] [72] RADIO_STATUS
[09:36:33.257967] [43] HEARTBEAT
[09:36:33.264969] [44] SYS_STATUS
[09:36:33.379974] [45] BATTERY_STATUS
[09:36:33.496917] [46] ATTITUDE_TARGET
[09:36:33.501970] [47] VFR_HUD
[09:36:33.590074] [73] RADIO
[09:36:33.592889] [73] RADIO_STATUS
[09:36:34.066089] [48] VFR_HUD
[09:36:34.285165] [49] HEARTBEAT
[09:36:34.634099] [74] RADIO
[09:36:34.637048] [74] RADIO_STATUS
[09:36:35.218201] [51] HEARTBEAT
[09:36:35.226069] [52] ATTITUDE_TARGET
[09:36:35.658161] [75] RADIO
[09:36:35.661203] [75] RADIO_STATUS
[09:36:35.778169] [53] VFR_HUD
[09:36:36.233496] [54] HEARTBEAT
[09:36:36.702365] [76] RADIO
[09:36:36.705300] [76] RADIO_STATUS
[09:36:37.285455] [56] HEARTBEAT
[09:36:37.293832] [57] SYS_STATUS
[09:36:37.410376] [58] BATTERY_STATUS
[09:36:37.418499] [59] ATTITUDE_TARGET
[09:36:37.449888] [60] VFR_HUD
[09:36:37.726436] [77] RADIO
[09:36:37.729359] [77] RADIO_STATUS
[09:36:38.077520] [61] VFR_HUD
[09:36:38.197533] [62] HEARTBEAT
[09:36:38.646609] [78] RADIO
[09:36:38.649622] [78] RADIO_STATUS
[09:36:38.886592] [63] VFR_HUD
[09:36:39.235629] [64] HEARTBEAT
[09:36:39.243665] [65] ATTITUDE_TARGET
[09:36:39.686793] [66] VFR_HUD
[09:36:39.718649] [79] RADIO
[09:36:39.721645] [79] RADIO_STATUS
[09:36:40.266806] [67] HEARTBEAT
[09:36:40.495866] [68] VFR_HUD
[09:36:40.715884] [80] RADIO
[09:36:40.717827] [80] RADIO_STATUS
[09:36:41.199729] [69] HEARTBEAT
[09:36:41.205025] [70] SYS_STATUS
[09:36:41.244891] [71] BATTERY_STATUS
[09:36:41.252848] [72] ATTITUDE_TARGET
[09:36:41.257881] [73] VFR_HUD
[09:36:41.635092] [81] RADIO
[09:36:41.637964] [81] RADIO_STATUS
[09:36:41.986922] [74] VFR_HUD
[09:36:42.212076] [75] HEARTBEAT
[09:36:42.681091] [82] RADIO
[09:36:42.685784] [82] RADIO_STATUS
[09:36:42.802052] [76] VFR_HUD
[09:36:43.271171] [77] HEARTBEAT
[09:36:43.279076] [78] ATTITUDE_TARGET
[09:36:43.596129] [79] VFR_HUD
[09:36:43.706194] [83] RADIO
[09:36:43.708165] [83] RADIO_STATUS
[09:36:44.406400] [81] VFR_HUD
[09:36:44.750293] [84] RADIO
[09:36:44.753202] [84] RADIO_STATUS
[09:36:45.376381] [86] ATTITUDE_TARGET
[09:36:45.381303] [87] VFR_HUD
[09:36:45.384316] [88] SYSTEM_TIME
[09:36:45.774522] [85] RADIO
[09:36:45.777342] [85] RADIO_STATUS
[09:36:46.015523] [89] VFR_HUD
[09:36:46.245459] [90] HEARTBEAT
[09:36:46.693780] [86] RADIO
[09:36:46.696468] [86] RADIO_STATUS
[09:36:46.825458] [91] VFR_HUD
[09:36:47.283617] [92] HEARTBEAT
[09:36:47.291580] [93] ATTITUDE_TARGET
[09:36:47.624658] [94] VFR_HUD
[09:36:47.733615] [87] RADIO
[09:36:47.736596] [87] RADIO_STATUS
[09:36:48.189853] [95] HEARTBEAT
[09:36:48.423696] [96] VFR_HUD
[09:36:48.762873] [88] RADIO
[09:36:48.765919] [88] RADIO_STATUS
[09:36:49.240846] [97] HEARTBEAT
[09:36:49.247798] [98] SYS_STATUS
[09:36:49.366893] [99] BATTERY_STATUS
[09:36:49.374919] [100] ATTITUDE_TARGET
[09:36:49.404891] [101] VFR_HUD
[09:36:49.682856] [89] RADIO
[09:36:49.685881] [89] RADIO_STATUS
[09:36:50.033026] [102] VFR_HUD
[09:36:50.267977] [103] HEARTBEAT
[09:36:50.721950] [90] RADIO
[09:36:50.724918] [90] RADIO_STATUS
[09:36:50.848075] [104] VFR_HUD
[09:36:51.178131] [105] HEARTBEAT
[09:36:51.201049] [106] ATTITUDE_TARGET
[09:36:51.642107] [107] VFR_HUD
[09:36:51.752096] [91] RADIO
[09:36:51.755069] [91] RADIO_STATUS
[09:36:52.227554] [108] HEARTBEAT
[09:36:52.457197] [109] VFR_HUD
[09:36:52.791183] [92] RADIO
[09:36:52.794223] [92] RADIO_STATUS
[09:36:53.386346] [112] BATTERY_STATUS
[09:36:53.498366] [113] ATTITUDE_TARGET
[09:36:53.503261] [114] VFR_HUD
[09:36:53.820288] [93] RADIO
[09:36:53.823307] [93] RADIO_STATUS
[09:36:54.061341] [115] VFR_HUD
[09:36:54.286387] [116] HEARTBEAT
[09:36:54.740488] [94] RADIO
[09:36:54.743435] [94] RADIO_STATUS
[09:36:55.219503] [118] HEARTBEAT
[09:36:55.227658] [119] ATTITUDE_TARGET
[09:36:55.681670] [120] VFR_HUD
[09:36:55.779542] [95] RADIO
[09:36:55.782530] [95] RADIO_STATUS
[09:36:56.235749] [121] HEARTBEAT
[09:36:56.469592] [122] VFR_HUD
[09:36:56.808652] [96] RADIO
[09:36:56.811634] [96] RADIO_STATUS
[09:36:57.287031] [123] HEARTBEAT
[09:36:57.293748] [124] SYS_STATUS
[09:36:57.411799] [125] BATTERY_STATUS
[09:36:57.420877] [126] ATTITUDE_TARGET
[09:36:57.449757] [127] VFR_HUD
[09:36:57.727885] [97] RADIO
[09:36:57.730837] [97] RADIO_STATUS
[09:36:58.078896] [128] VFR_HUD
[09:36:58.193914] [129] HEARTBEAT
[09:36:58.769044] [98] RADIO
[09:36:58.770863] [98] RADIO_STATUS
[09:36:58.887924] [130] VFR_HUD
[09:36:59.237026] [131] HEARTBEAT
[09:36:59.244973] [132] ATTITUDE_TARGET
[09:36:59.688054] [133] VFR_HUD
[09:36:59.797083] [99] RADIO
[09:36:59.800293] [99] RADIO_STATUS
[09:37:00.263089] [134] HEARTBEAT
[09:37:00.503147] [135] VFR_HUD
[09:37:00.836136] [100] RADIO
[09:37:00.839215] [100] RADIO_STATUS
[09:37:01.200301] [136] HEARTBEAT
[09:37:01.207252] [137] SYS_STATUS
[09:37:01.246200] [138] BATTERY_STATUS
[09:37:01.254224] [139] ATTITUDE_TARGET
[09:37:01.259204] [140] VFR_HUD
[09:37:01.868800] [101] RADIO
[09:37:01.871232] [101] RADIO_STATUS
[09:37:02.224283] [141] VFR_HUD
[09:37:02.227298] [142] HEARTBEAT
[09:37:02.787349] [102] RADIO
[09:37:02.790391] [102] RADIO_STATUS
[09:37:02.919342] [143] VFR_HUD
[09:37:03.272426] [144] HEARTBEAT
[09:37:03.280501] [145] ATTITUDE_TARGET
[09:37:03.832424] [103] RADIO
[09:37:03.835461] [103] RADIO_STATUS
[09:37:04.178566] [147] HEARTBEAT
[09:37:04.407672] [148] VFR_HUD
[09:37:04.856559] [104] RADIO
[09:37:04.859493] [104] RADIO_STATUS
[09:37:05.353700] [151] BATTERY_STATUS
[09:37:05.385732] [152] EXTENDED_SYS_STATE
[09:37:05.393666] [153] ATTITUDE_TARGET
[09:37:05.397618] [154] VFR_HUD
[09:37:05.401598] [155] SYSTEM_TIME
[09:37:05.775604] [105] RADIO
[09:37:05.778635] [105] RADIO_STATUS
[09:37:06.017821] [156] VFR_HUD
[09:37:06.247720] [157] HEARTBEAT
[09:37:06.816732] [158] VFR_HUD
[09:37:06.848791] [106] RADIO
[09:37:06.851694] [106] RADIO_STATUS
[09:37:07.285754] [159] HEARTBEAT
[09:37:07.292793] [160] ATTITUDE_TARGET
[09:37:07.625944] [161] VFR_HUD
[09:37:07.844916] [107] RADIO
[09:37:07.847768] [107] RADIO_STATUS
[09:37:08.426083] [163] VFR_HUD
[09:37:08.889906] [108] RADIO
[09:37:08.892853] [108] RADIO_STATUS
[09:37:09.247982] [164] HEARTBEAT
[09:37:09.257800] [165] SYS_STATUS
[09:37:09.294034] [166] BATTERY_STATUS
[09:37:09.302026] [167] ATTITUDE_TARGET
[09:37:09.307035] [168] VFR_HUD
[09:37:09.916063] [109] RADIO
[09:37:09.919029] [109] RADIO_STATUS
[09:37:10.272052] [169] VFR_HUD
[09:37:10.275109] [170] HEARTBEAT
[09:37:10.835199] [110] RADIO
[09:37:10.838308] [110] RADIO_STATUS
[09:37:10.874205] [171] VFR_HUD
[09:37:11.197979] [172] HEARTBEAT
[09:37:11.203172] [173] ATTITUDE_TARGET
[09:37:11.880368] [111] RADIO
[09:37:11.882964] [111] RADIO_STATUS
[09:37:12.220329] [175] HEARTBEAT
[09:37:12.460285] [176] VFR_HUD
[09:37:12.904304] [112] RADIO
[09:37:12.907267] [112] RADIO_STATUS
[09:37:13.388440] [179] BATTERY_STATUS
[09:37:13.501438] [180] ATTITUDE_TARGET
[09:37:13.505451] [181] VFR_HUD
[09:37:13.823449] [113] RADIO
[09:37:13.826444] [113] RADIO_STATUS
[09:37:14.064531] [182] VFR_HUD
[09:37:14.294452] [183] HEARTBEAT
[09:37:14.863570] [184] VFR_HUD
[09:37:14.896495] [114] RADIO
[09:37:14.899493] [114] RADIO_STATUS
[09:37:15.222695] [185] HEARTBEAT
[09:37:15.230586] [186] ATTITUDE_TARGET
[09:37:15.673656] [187] VFR_HUD
[09:37:15.892678] [115] RADIO
[09:37:15.895619] [115] RADIO_STATUS
[09:37:16.472744] [189] VFR_HUD
[09:37:16.936853] [116] RADIO
[09:37:16.939906] [116] RADIO_STATUS
[09:37:17.289846] [190] HEARTBEAT
[09:37:17.296850] [191] SYS_STATUS
[09:37:17.960883] [117] RADIO
[09:37:17.963856] [117] RADIO_STATUS
[09:37:17.999872] [195] VFR_HUD
[09:37:18.196965] [196] HEARTBEAT
[09:37:18.881097] [118] RADIO
[09:37:18.883940] [118] RADIO_STATUS
[09:37:18.919181] [197] VFR_HUD
[09:37:19.241061] [198] HEARTBEAT
[09:37:19.248052] [199] ATTITUDE_TARGET
[09:37:19.586222] [200] VFR_HUD
[09:37:19.920290] [119] RADIO
[09:37:19.923117] [119] RADIO_STATUS
[09:37:20.284015] [201] HEARTBEAT
[09:37:20.506180] [202] VFR_HUD
[09:37:20.949248] [120] RADIO
[09:37:20.952329] [120] RADIO_STATUS
[09:37:21.201430] [203] HEARTBEAT
[09:37:21.204284] [204] SYS_STATUS
[09:37:21.323311] [205] BATTERY_STATUS
[09:37:21.331271] [206] ATTITUDE_TARGET
[09:37:21.869786] [121] RADIO
[09:37:21.871301] [121] RADIO_STATUS
[09:37:22.214428] [209] HEARTBEAT
[09:37:22.798447] [210] VFR_HUD
[09:37:22.909777] [122] RADIO
[09:37:22.910321] [122] RADIO_STATUS
[09:37:23.267498] [211] HEARTBEAT
[09:37:23.275443] [212] ATTITUDE_TARGET
[09:37:23.937623] [123] RADIO
[09:37:23.940659] [123] RADIO_STATUS
[09:37:24.178599] [214] HEARTBEAT
[09:37:24.407614] [215] VFR_HUD
[09:37:24.976735] [124] RADIO
[09:37:24.979799] [124] RADIO_STATUS
[09:37:25.214741] [216] HEARTBEAT
[09:37:25.221684] [217] SYS_STATUS
[09:37:25.339712] [218] BATTERY_STATUS
[09:37:25.341636] [219] EXTENDED_SYS_STATE
[09:37:26.006767] [125] RADIO
[09:37:26.009888] [125] RADIO_STATUS
[09:37:26.044788] [223] VFR_HUD
[09:37:26.242815] [224] HEARTBEAT
[09:37:26.816958] [225] VFR_HUD
[09:37:26.925886] [126] RADIO
[09:37:26.928873] [126] RADIO_STATUS
[09:37:27.285987] [226] HEARTBEAT
[09:37:27.294006] [227] ATTITUDE_TARGET
[09:37:27.632098] [228] VFR_HUD
[09:37:27.966107] [127] RADIO
[09:37:27.968113] [127] RADIO_STATUS
[09:37:28.192078] [229] HEARTBEAT
[09:37:28.426153] [230] VFR_HUD
[09:37:28.995181] [128] RADIO
[09:37:28.998136] [128] RADIO_STATUS
[09:37:29.248375] [231] HEARTBEAT
[09:37:29.255168] [232] SYS_STATUS
[09:37:29.295215] [233] BATTERY_STATUS
[09:37:29.303154] [234] ATTITUDE_TARGET
[09:37:29.308525] [235] VFR_HUD
[09:37:29.914214] [129] RADIO
[09:37:29.917212] [129] RADIO_STATUS
[09:37:30.271273] [236] VFR_HUD
[09:37:30.273304] [237] HEARTBEAT
[09:37:30.850579] [238] VFR_HUD
[09:37:30.970387] [130] RADIO
[09:37:30.973450] [130] RADIO_STATUS
[09:37:31.317484] [240] ATTITUDE_TARGET
[09:37:31.983523] [131] RADIO
[09:37:31.986530] [131] RADIO_STATUS
[09:37:32.227119] [242] HEARTBEAT
[09:37:32.465606] [243] VFR_HUD
[09:37:32.902722] [132] RADIO
[09:37:32.909790] [132] RADIO_STATUS
[09:37:33.260744] [244] HEARTBEAT
[09:37:33.267731] [245] SYS_STATUS
[09:37:33.387724] [246] BATTERY_STATUS
[09:37:34.052804] [133] RADIO
[09:37:34.055726] [133] RADIO_STATUS
[09:37:34.172823] [249] VFR_HUD
[09:37:34.293922] [250] HEARTBEAT
[09:37:34.862841] [251] VFR_HUD
[09:37:34.971877] [134] RADIO
[09:37:34.974877] [134] RADIO_STATUS
[09:37:35.221999] [252] HEARTBEAT
[09:37:35.229922] [253] ATTITUDE_TARGET
[09:37:35.672976] [254] VFR_HUD
[09:37:36.017083] [135] RADIO
[09:37:36.020041] [135] RADIO_STATUS
[09:37:36.472047] [0] VFR_HUD
[09:37:37.041169] [136] RADIO
[09:37:37.044101] [136] RADIO_STATUS
[09:37:37.296808] [1] HEARTBEAT
[09:37:37.301177] [2] SYS_STATUS
[09:37:37.340146] [3] BATTERY_STATUS
[09:37:37.353799] [4] ATTITUDE_TARGET
[09:37:37.353925] [5] VFR_HUD
[09:37:37.965862] [137] RADIO
[09:37:37.965990] [137] RADIO_STATUS
[09:37:38.036415] [6] VFR_HUD
[09:37:38.198502] [7] HEARTBEAT
[09:37:38.897542] [8] VFR_HUD
[09:37:39.018445] [138] RADIO
[09:37:39.021440] [138] RADIO_STATUS
[09:37:39.582532] [11] VFR_HUD
[09:37:40.031594] [139] RADIO
[09:37:40.034476] [139] RADIO_STATUS
[09:37:40.267670] [12] HEARTBEAT
[09:37:40.507658] [13] VFR_HUD
[09:37:40.950622] [140] RADIO
[09:37:40.953635] [140] RADIO_STATUS
[09:37:41.198665] [14] HEARTBEAT
[09:37:41.205694] [15] SYS_STATUS
[09:37:41.324689] [16] BATTERY_STATUS
[09:37:41.331809] [17] ATTITUDE_TARGET
[09:37:41.362709] [18] VFR_HUD
[09:37:42.099806] [141] RADIO
[09:37:42.102785] [141] RADIO_STATUS
[09:37:42.215835] [20] HEARTBEAT
[09:37:42.811840] [21] VFR_HUD
[09:37:43.019930] [142] RADIO
[09:37:43.023142] [142] RADIO_STATUS
[09:37:43.268899] [22] HEARTBEAT
[09:37:43.276854] [23] ATTITUDE_TARGET
[09:37:43.599950] [24] VFR_HUD
[09:37:43.944009] [143] RADIO
[09:37:43.946911] [143] RADIO_STATUS
[09:37:44.174992] [25] HEARTBEAT
[09:37:44.409115] [26] VFR_HUD
[09:37:45.088036] [144] RADIO
[09:37:45.091040] [144] RADIO_STATUS
[09:37:45.217236] [27] HEARTBEAT
[09:37:45.223092] [28] SYS_STATUS
[09:37:45.340239] [29] BATTERY_STATUS
[09:37:45.345823] [30] EXTENDED_SYS_STATE
[09:37:46.007174] [145] RADIO
[09:37:46.010084] [145] RADIO_STATUS
[09:37:46.046197] [34] VFR_HUD
[09:37:46.243241] [35] HEARTBEAT
[09:37:46.818219] [36] VFR_HUD
[09:37:47.047286] [146] RADIO
[09:37:47.050283] [146] RADIO_STATUS
[09:37:47.406380] [37] HEARTBEAT
[09:37:47.417834] [38] ATTITUDE_TARGET
[09:37:47.633814] [39] VFR_HUD
[09:37:47.966465] [147] RADIO
[09:37:47.969379] [147] RADIO_STATUS
[09:37:48.193983] [40] HEARTBEAT
[09:37:48.995573] [148] RADIO
[09:37:49.001827] [148] RADIO_STATUS
[09:37:49.243663] [42] HEARTBEAT
[09:37:49.250547] [43] SYS_STATUS
[09:37:49.368584] [44] BATTERY_STATUS
[09:37:49.376548] [45] ATTITUDE_TARGET
[09:37:49.406690] [46] VFR_HUD
[09:37:50.035660] [47] VFR_HUD
[09:37:50.062611] [149] RADIO
[09:37:50.065619] [149] RADIO_STATUS
[09:37:50.260704] [48] HEARTBEAT
[09:37:50.845650] [49] VFR_HUD
[09:37:51.064828] [150] RADIO
[09:37:51.067717] [150] RADIO_STATUS
[09:37:51.180848] [50] HEARTBEAT
[09:37:51.202807] [51] ATTITUDE_TARGET
[09:37:51.644886] [52] VFR_HUD
[09:37:52.104899] [151] RADIO
[09:37:52.106907] [151] RADIO_STATUS
[09:37:52.225056] [53] HEARTBEAT
[09:37:52.454974] [54] VFR_HUD
[09:37:53.024110] [152] RADIO
[09:37:53.026989] [152] RADIO_STATUS
[09:37:53.262010] [55] HEARTBEAT
[09:37:53.269036] [56] SYS_STATUS
[09:37:53.384936] [57] BATTERY_STATUS
[09:37:53.501148] [58] ATTITUDE_TARGET
[09:37:53.505972] [59] VFR_HUD
[09:37:54.053215] [153] RADIO
[09:37:54.056102] [153] RADIO_STATUS
[09:37:54.174325] [60] VFR_HUD
[09:37:54.294304] [61] HEARTBEAT
[09:37:54.864264] [62] VFR_HUD
[09:37:55.093237] [154] RADIO
[09:37:55.096242] [154] RADIO_STATUS
[09:37:55.228273] [63] HEARTBEAT
[09:37:55.236251] [64] ATTITUDE_TARGET
[09:37:55.679282] [65] VFR_HUD
[09:37:56.013411] [155] RADIO
[09:37:56.015307] [155] RADIO_STATUS
[09:37:56.239451] [66] HEARTBEAT
[09:37:56.473391] [67] VFR_HUD
[09:37:57.042432] [156] RADIO
[09:37:57.045393] [156] RADIO_STATUS
[09:37:57.295531] [68] HEARTBEAT
[09:37:57.302637] [69] SYS_STATUS
[09:37:57.342533] [70] BATTERY_STATUS
[09:37:57.349602] [71] ATTITUDE_TARGET
[09:37:57.354588] [72] VFR_HUD
[09:37:58.087604] [157] RADIO
[09:37:58.090665] [157] RADIO_STATUS
[09:37:58.208551] [73] VFR_HUD
[09:37:58.211560] [74] HEARTBEAT
[09:37:58.897652] [75] VFR_HUD
[09:37:59.018751] [158] RADIO
[09:37:59.021758] [158] RADIO_STATUS
[09:37:59.241762] [76] HEARTBEAT
[09:37:59.249875] [77] ATTITUDE_TARGET
[09:37:59.584650] [78] VFR_HUD
[09:38:00.031801] [159] RADIO
[09:38:00.034815] [159] RADIO_STATUS
[09:38:00.272939] [79] HEARTBEAT
[09:38:00.382577] [80] VFR_HUD
[09:38:01.075984] [160] RADIO
[09:38:01.078998] [160] RADIO_STATUS
[09:38:01.198980] [81] HEARTBEAT
[09:38:01.205955] [82] SYS_STATUS
[09:38:01.324137] [83] BATTERY_STATUS
[09:38:01.331958] [84] ATTITUDE_TARGET
[09:38:01.361940] [85] VFR_HUD
[09:38:01.991170] [86] VFR_HUD
[09:38:02.100111] [161] RADIO
[09:38:02.103033] [161] RADIO_STATUS
[09:38:02.216061] [87] HEARTBEAT
[09:38:02.801119] [88] VFR_HUD
[09:38:03.145157] [162] RADIO
[09:38:03.148274] [162] RADIO_STATUS
[09:38:03.270151] [89] HEARTBEAT
[09:38:03.278569] [90] ATTITUDE_TARGET
[09:38:03.600347] [91] VFR_HUD
[09:38:04.065795] [163] RADIO
[09:38:04.068436] [163] RADIO_STATUS
[09:38:04.177987] [92] HEARTBEAT
[09:38:04.415323] [93] VFR_HUD
[09:38:05.089608] [164] RADIO
[09:38:05.092304] [164] RADIO_STATUS
[09:38:05.217825] [94] HEARTBEAT
[09:38:05.224467] [95] SYS_STATUS
[09:38:05.356450] [96] BATTERY_STATUS
[09:38:05.388426] [97] EXTENDED_SYS_STATE
[09:38:05.396457] [98] ATTITUDE_TARGET
[09:38:05.401409] [99] VFR_HUD
[09:38:05.405468] [100] SYSTEM_TIME
[09:38:06.134576] [165] RADIO
[09:38:06.136484] [165] RADIO_STATUS
[09:38:06.256931] [101] VFR_HUD
[09:38:06.258484] [102] HEARTBEAT
[09:38:07.158945] [166] RADIO
[09:38:07.161653] [166] RADIO_STATUS
[09:38:07.288678] [104] HEARTBEAT
[09:38:07.295622] [105] ATTITUDE_TARGET
[09:38:07.633751] [106] VFR_HUD
[09:38:08.082905] [167] RADIO
[09:38:08.085707] [167] RADIO_STATUS
[09:38:08.193742] [107] HEARTBEAT
[09:38:08.427726] [108] VFR_HUD
[09:38:09.226820] [168] RADIO
[09:38:09.229853] [168] RADIO_STATUS
[09:38:09.354874] [109] HEARTBEAT
[09:38:09.361917] [110] SYS_STATUS
[09:38:09.482127] [111] BATTERY_STATUS
[09:38:09.594001] [112] ATTITUDE_TARGET
[09:38:09.602561] [113] VFR_HUD
[09:38:10.036984] [114] VFR_HUD
[09:38:10.147151] [169] RADIO
[09:38:10.148961] [169] RADIO_STATUS
[09:38:10.181069] [115] HEARTBEAT
[09:38:10.847149] [116] VFR_HUD
[09:38:11.182185] [117] HEARTBEAT
[09:38:11.205132] [118] ATTITUDE_TARGET
[09:38:11.235052] [170] RADIO
[09:38:11.238120] [170] RADIO_STATUS
[09:38:11.646097] [119] VFR_HUD
[09:38:12.105177] [171] RADIO
[09:38:12.108110] [171] RADIO_STATUS
[09:38:12.227163] [120] HEARTBEAT
[09:38:12.456191] [121] VFR_HUD
[09:38:13.139521] [172] RADIO
[09:38:13.139666] [172] RADIO_STATUS
[09:38:13.169462] [122] HEARTBEAT
[09:38:13.189291] [123] SYS_STATUS
[09:38:13.221261] [124] BATTERY_STATUS
[09:38:13.229536] [125] ATTITUDE_TARGET
[09:38:13.288251] [126] VFR_HUD
[09:38:14.071477] [127] VFR_HUD
[09:38:14.182398] [128] HEARTBEAT
[09:38:14.207659] [173] RADIO
[09:38:14.210345] [173] RADIO_STATUS
[09:38:15.204486] [174] RADIO
[09:38:15.207422] [174] RADIO_STATUS
[09:38:15.251552] [130] HEARTBEAT
[09:38:15.259473] [131] ATTITUDE_TARGET
[09:38:15.679720] [132] VFR_HUD
[09:38:16.123691] [175] RADIO
[09:38:16.126568] [175] RADIO_STATUS
[09:38:16.239636] [133] HEARTBEAT
[09:38:16.474703] [134] VFR_HUD
[09:38:17.273882] [176] RADIO
[09:38:17.275979] [176] RADIO_STATUS
[09:38:17.332807] [135] HEARTBEAT
[09:38:17.339891] [136] SYS_STATUS
[09:38:17.346912] [137] BATTERY_STATUS
[09:38:17.359792] [138] ATTITUDE_TARGET
[09:38:17.363789] [139] VFR_HUD
[09:38:18.083887] [140] VFR_HUD
[09:38:18.192993] [177] RADIO
[09:38:18.195884] [177] RADIO_STATUS
[09:38:18.226877] [141] HEARTBEAT
[09:38:18.892898] [142] VFR_HUD
[09:38:19.241994] [143] HEARTBEAT
[09:38:19.250116] [144] ATTITUDE_TARGET
[09:38:19.341982] [178] RADIO
[09:38:19.344991] [178] RADIO_STATUS
[09:38:19.582064] [145] VFR_HUD
[09:38:20.152084] [179] RADIO
[09:38:20.155065] [179] RADIO_STATUS
[09:38:20.386233] [146] HEARTBEAT
[09:38:20.391072] [147] VFR_HUD
[09:38:21.181395] [180] RADIO
[09:38:21.184182] [180] RADIO_STATUS
[09:38:21.241244] [148] HEARTBEAT
[09:38:21.248292] [149] SYS_STATUS
[09:38:21.255185] [150] BATTERY_STATUS
[09:38:21.268372] [151] ATTITUDE_TARGET
[09:38:21.272222] [152] VFR_HUD
[09:38:21.991276] [153] VFR_HUD
[09:38:22.221766] [154] HEARTBEAT
[09:38:22.330300] [181] RADIO
[09:38:22.333300] [181] RADIO_STATUS
[09:38:22.806333] [155] VFR_HUD
[09:38:23.250356] [182] RADIO
[09:38:23.253303] [182] RADIO_STATUS
[09:38:23.301961] [156] HEARTBEAT
[09:38:23.306398] [157] ATTITUDE_TARGET
[09:38:23.601412] [158] VFR_HUD
[09:38:24.170531] [183] RADIO
[09:38:24.173518] [183] RADIO_STATUS
[09:38:24.286540] [159] HEARTBEAT
[09:38:24.415522] [160] VFR_HUD
[09:38:25.319693] [184] RADIO
[09:38:25.322649] [184] RADIO_STATUS
[09:38:25.383667] [163] BATTERY_STATUS
[09:38:25.385606] [164] EXTENDED_SYS_STATE
[09:38:25.393671] [165] ATTITUDE_TARGET
[09:38:25.398788] [166] VFR_HUD
[09:38:25.401702] [167] SYSTEM_TIME
[09:38:26.026476] [168] VFR_HUD
[09:38:26.239645] [185] RADIO
[09:38:26.241736] [185] RADIO_STATUS
[09:38:26.819849] [170] VFR_HUD
[09:38:27.288872] [171] HEARTBEAT
[09:38:27.296925] [172] ATTITUDE_TARGET
[09:38:27.388868] [186] RADIO
[09:38:27.391890] [186] RADIO_STATUS
[09:38:27.628895] [173] VFR_HUD
[09:38:28.195016] [174] HEARTBEAT
[09:38:28.225963] [187] RADIO
[09:38:28.228918] [187] RADIO_STATUS
[09:38:28.429012] [175] VFR_HUD
[09:38:29.228118] [188] RADIO
[09:38:29.231088] [188] RADIO_STATUS
[09:38:29.356141] [176] HEARTBEAT
[09:38:29.363076] [177] SYS_STATUS
[09:38:29.482142] [178] BATTERY_STATUS
[09:38:29.595112] [179] ATTITUDE_TARGET
[09:38:29.599260] [180] VFR_HUD
[09:38:30.038354] [181] VFR_HUD
[09:38:30.263202] [182] HEARTBEAT
[09:38:30.295183] [189] RADIO
[09:38:30.297119] [189] RADIO_STATUS
[09:38:30.847274] [183] VFR_HUD
[09:38:31.196413] [184] HEARTBEAT
[09:38:31.204346] [185] ATTITUDE_TARGET
[09:38:31.214277] [190] RADIO
[09:38:31.217714] [190] RADIO_STATUS
[09:38:31.647397] [186] VFR_HUD
[09:38:32.219743] [191] RADIO
[09:38:32.219885] [191] RADIO_STATUS
[09:38:32.333809] [187] HEARTBEAT
[09:38:32.462495] [188] VFR_HUD
[09:38:33.365580] [192] RADIO
[09:38:33.368649] [192] RADIO_STATUS
[09:38:33.406672] [191] BATTERY_STATUS
[09:38:33.434742] [192] ATTITUDE_TARGET
[09:38:33.441252] [193] VFR_HUD
[09:38:34.073186] [194] VFR_HUD
[09:38:34.182943] [195] HEARTBEAT
[09:38:34.213604] [193] RADIO
[09:38:34.216796] [193] RADIO_STATUS
[09:38:34.865731] [196] VFR_HUD
[09:38:35.210852] [194] RADIO
[09:38:35.212829] [194] RADIO_STATUS
[09:38:35.252962] [197] HEARTBEAT
[09:38:35.260722] [198] ATTITUDE_TARGET
[09:38:35.680705] [199] VFR_HUD
[09:38:36.240884] [200] HEARTBEAT
[09:38:36.271901] [195] RADIO
[09:38:36.274826] [195] RADIO_STATUS
[09:38:36.475002] [201] VFR_HUD
[09:38:37.273942] [196] RADIO
[09:38:37.276844] [196] RADIO_STATUS
[09:38:37.401932] [202] HEARTBEAT
[09:38:37.408921] [203] SYS_STATUS
[09:38:37.524038] [204] BATTERY_STATUS
[09:38:37.641059] [205] ATTITUDE_TARGET
[09:38:37.645959] [206] VFR_HUD
[09:38:38.084028] [207] VFR_HUD
[09:38:38.205044] [208] HEARTBEAT
[09:38:38.318989] [197] RADIO
[09:38:38.322143] [197] RADIO_STATUS
[09:38:38.894243] [209] VFR_HUD
[09:38:39.243200] [210] HEARTBEAT
[09:38:39.251195] [211] ATTITUDE_TARGET
[09:38:39.343162] [198] RADIO
[09:38:39.346103] [198] RADIO_STATUS
[09:38:39.583650] [212] VFR_HUD
[09:38:40.262301] [199] RADIO
[09:38:40.265226] [199] RADIO_STATUS
[09:38:40.296331] [213] HEARTBEAT
[09:38:40.384231] [214] VFR_HUD
[09:38:41.205372] [215] HEARTBEAT
[09:38:41.212329] [216] SYS_STATUS
[09:38:41.252668] [217] BATTERY_STATUS
[09:38:41.259379] [218] ATTITUDE_TARGET
[09:38:41.264351] [219] VFR_HUD
[09:38:41.413391] [200] RADIO
[09:38:41.416456] [200] RADIO_STATUS
[09:38:42.229505] [220] VFR_HUD
[09:38:42.232491] [221] HEARTBEAT
[09:38:42.333496] [201] RADIO
[09:38:42.335475] [201] RADIO_STATUS
[09:38:42.808560] [222] VFR_HUD
[09:38:43.277592] [223] HEARTBEAT
[09:38:43.285568] [224] ATTITUDE_TARGET
[09:38:43.377607] [202] RADIO
[09:38:43.380637] [202] RADIO_STATUS
[09:38:44.178829] [226] HEARTBEAT
[09:38:44.291671] [203] RADIO
[09:38:44.294665] [203] RADIO_STATUS
[09:38:44.417729] [227] VFR_HUD
[09:38:45.219933] [228] HEARTBEAT
[09:38:45.226794] [229] SYS_STATUS
[09:38:45.321841] [204] RADIO
[09:38:45.324854] [204] RADIO_STATUS
[09:38:45.385805] [230] BATTERY_STATUS
[09:38:45.387878] [231] EXTENDED_SYS_STATE
[09:38:45.395856] [232] ATTITUDE_TARGET
[09:38:45.400868] [233] VFR_HUD
[09:38:45.403757] [234] SYSTEM_TIME
[09:38:46.021931] [235] VFR_HUD
[09:38:46.253003] [236] HEARTBEAT
[09:38:46.360941] [205] RADIO
[09:38:46.363950] [205] RADIO_STATUS
[09:38:46.822088] [237] VFR_HUD
[09:38:47.290137] [238] HEARTBEAT
[09:38:47.298216] [239] ATTITUDE_TARGET
[09:38:47.390052] [206] RADIO
[09:38:47.393059] [206] RADIO_STATUS
[09:38:47.631156] [240] VFR_HUD
[09:38:48.310152] [207] RADIO
[09:38:48.313144] [207] RADIO_STATUS
[09:38:48.431231] [242] VFR_HUD
[09:38:49.247320] [243] HEARTBEAT
[09:38:49.254400] [244] SYS_STATUS
[09:38:49.459334] [208] RADIO
[09:38:49.462258] [208] RADIO_STATUS
[09:38:50.040394] [248] VFR_HUD
[09:38:50.267810] [249] HEARTBEAT
[09:38:50.305348] [209] RADIO
[09:38:50.308337] [209] RADIO_STATUS
[09:38:50.854511] [250] VFR_HUD
[09:38:51.198577] [251] HEARTBEAT
[09:38:51.206528] [252] ATTITUDE_TARGET
[09:38:51.418552] [210] RADIO
[09:38:51.421523] [210] RADIO_STATUS
[09:38:52.224699] [254] HEARTBEAT
[09:38:52.338808] [211] RADIO
[09:38:52.341657] [211] RADIO_STATUS
[09:38:52.463780] [255] VFR_HUD
[09:38:53.268597] [0] HEARTBEAT
[09:38:53.272755] [1] SYS_STATUS
[09:38:53.367777] [212] RADIO
[09:38:53.370687] [212] RADIO_STATUS
[09:38:53.438330] [2] BATTERY_STATUS
[09:38:53.444769] [3] ATTITUDE_TARGET
[09:38:53.449735] [4] VFR_HUD
[09:38:54.179119] [5] VFR_HUD
[09:38:54.206924] [6] HEARTBEAT
[09:38:54.407961] [213] RADIO
[09:38:54.410929] [213] RADIO_STATUS
[09:38:54.867975] [7] VFR_HUD
[09:38:55.227158] [8] HEARTBEAT
[09:38:55.235101] [9] ATTITUDE_TARGET
[09:38:55.355162] [214] RADIO
[09:38:55.358047] [214] RADIO_STATUS
[09:38:55.683192] [10] VFR_HUD
[09:38:56.357246] [215] RADIO
[09:38:56.360090] [215] RADIO_STATUS
[09:38:56.477159] [12] VFR_HUD
[09:38:57.297794] [13] HEARTBEAT
[09:38:57.301771] [14] SYS_STATUS
[09:38:57.509152] [216] RADIO
[09:38:57.509519] [216] RADIO_STATUS
[09:38:57.977294] [18] VFR_HUD
[09:38:58.207315] [19] HEARTBEAT
[09:38:58.426340] [217] RADIO
[09:38:58.429315] [217] RADIO_STATUS
[09:38:58.781483] [20] VFR_HUD
[09:38:59.245536] [21] HEARTBEAT
[09:38:59.253535] [22] ATTITUDE_TARGET
[09:38:59.466708] [218] RADIO
[09:38:59.468431] [218] RADIO_STATUS
[09:38:59.591456] [23] VFR_HUD
[09:39:00.276679] [24] HEARTBEAT
[09:39:00.385605] [25] VFR_HUD
[09:39:00.417667] [219] RADIO
[09:39:00.420701] [219] RADIO_STATUS
[09:39:01.208869] [26] HEARTBEAT
[09:39:01.214846] [27] SYS_STATUS
[09:39:01.254743] [28] BATTERY_STATUS
[09:39:01.262697] [29] ATTITUDE_TARGET
[09:39:01.267669] [30] VFR_HUD
[09:39:01.414843] [220] RADIO
[09:39:01.417819] [220] RADIO_STATUS
[09:39:02.230938] [31] VFR_HUD
[09:39:02.233952] [32] HEARTBEAT
[09:39:02.459883] [221] RADIO
[09:39:02.462842] [221] RADIO_STATUS
[09:39:02.809940] [33] VFR_HUD
[09:39:03.279134] [34] HEARTBEAT
[09:39:03.286106] [35] ATTITUDE_TARGET
[09:39:03.379136] [222] RADIO
[09:39:03.382108] [222] RADIO_STATUS
[09:39:03.604098] [36] VFR_HUD
[09:39:04.184332] [37] HEARTBEAT
[09:39:04.403175] [223] RADIO
[09:39:04.406205] [223] RADIO_STATUS
[09:39:04.524198] [38] VFR_HUD
[09:39:05.221297] [39] HEARTBEAT
[09:39:05.228360] [40] SYS_STATUS
[09:39:05.369375] [41] BATTERY_STATUS
[09:39:05.397371] [42] EXTENDED_SYS_STATE
[09:39:05.405338] [43] ATTITUDE_TARGET
[09:39:05.410432] [44] VFR_HUD
[09:39:05.413273] [45] SYSTEM_TIME
[09:39:05.553323] [224] RADIO
[09:39:05.556754] [224] RADIO_STATUS
[09:39:06.264473] [46] VFR_HUD
[09:39:06.267398] [47] HEARTBEAT
[09:39:06.472396] [225] RADIO
[09:39:06.475402] [225] RADIO_STATUS
[09:39:06.823703] [48] VFR_HUD
[09:39:07.173508] [49] HEARTBEAT
[09:39:07.191557] [50] ATTITUDE_TARGET
[09:39:07.392591] [226] RADIO
[09:39:07.395530] [226] RADIO_STATUS
[09:39:07.632635] [51] VFR_HUD
[09:39:08.197686] [52] HEARTBEAT
[09:39:08.432660] [53] VFR_HUD
[09:39:08.464604] [227] RADIO
[09:39:08.467645] [227] RADIO_STATUS
[09:39:09.250020] [54] HEARTBEAT
[09:39:09.256876] [55] SYS_STATUS
[09:39:09.374781] [56] BATTERY_STATUS
[09:39:09.382840] [57] ATTITUDE_TARGET
[09:39:09.412793] [58] VFR_HUD
[09:39:09.435163] [228] RADIO
[09:39:09.437760] [228] RADIO_STATUS
[09:39:10.266893] [60] HEARTBEAT
[09:39:10.505954] [229] RADIO
[09:39:10.508909] [229] RADIO_STATUS
[09:39:10.856976] [61] VFR_HUD
[09:39:11.325026] [62] HEARTBEAT
[09:39:11.334979] [63] ATTITUDE_TARGET
[09:39:11.420007] [230] RADIO
[09:39:11.422965] [230] RADIO_STATUS
[09:39:11.651003] [64] VFR_HUD
[09:39:12.226220] [65] HEARTBEAT
[09:39:12.450179] [231] RADIO
[09:39:12.453073] [231] RADIO_STATUS
[09:39:12.488087] [66] VFR_HUD
[09:39:13.267236] [67] HEARTBEAT
[09:39:13.274202] [68] SYS_STATUS
[09:39:13.394195] [69] BATTERY_STATUS
[09:39:13.599290] [232] RADIO
[09:39:13.602197] [232] RADIO_STATUS
[09:39:13.736204] [70] ATTITUDE_TARGET
[09:39:13.741220] [71] VFR_HUD
[09:39:14.075328] [72] VFR_HUD
[09:39:14.186475] [73] HEARTBEAT
[09:39:14.519270] [233] RADIO
[09:39:14.522348] [233] RADIO_STATUS
[09:39:14.869337] [74] VFR_HUD
[09:39:15.228411] [75] HEARTBEAT
[09:39:15.236441] [76] ATTITUDE_TARGET
[09:39:15.438507] [234] RADIO
[09:39:15.441499] [234] RADIO_STATUS
[09:39:15.679431] [77] VFR_HUD
[09:39:16.244648] [78] HEARTBEAT
[09:39:16.478583] [79] VFR_HUD
[09:39:16.505553] [235] RADIO
[09:39:16.508632] [235] RADIO_STATUS
[09:39:17.169687] [80] HEARTBEAT
[09:39:17.189692] [81] SYS_STATUS
[09:39:17.232803] [82] BATTERY_STATUS
[09:39:17.240693] [83] ATTITUDE_TARGET
[09:39:17.244666] [84] VFR_HUD
[09:39:17.509671] [236] RADIO
[09:39:17.512627] [236] RADIO_STATUS
[09:39:17.984759] [85] VFR_HUD
[09:39:18.204798] [86] HEARTBEAT
[09:39:18.548859] [237] RADIO
[09:39:18.551886] [237] RADIO_STATUS
[09:39:18.779883] [87] VFR_HUD
[09:39:19.367940] [88] HEARTBEAT
[09:39:19.375873] [89] ATTITUDE_TARGET
[09:39:19.468934] [238] RADIO
[09:39:19.471932] [238] RADIO_STATUS
[09:39:19.593881] [90] VFR_HUD
[09:39:20.274960] [91] HEARTBEAT
[09:39:20.501000] [239] RADIO
[09:39:20.503987] [239] RADIO_STATUS
[09:39:21.211228] [93] HEARTBEAT
[09:39:21.218172] [94] SYS_STATUS
[09:39:21.257141] [95] BATTERY_STATUS
[09:39:21.265128] [96] ATTITUDE_TARGET
[09:39:21.270079] [97] VFR_HUD
[09:39:21.647119] [240] RADIO
[09:39:21.650146] [240] RADIO_STATUS
[09:39:21.998280] [98] VFR_HUD
[09:39:22.223243] [99] HEARTBEAT
[09:39:22.567266] [241] RADIO
[09:39:22.570214] [241] RADIO_STATUS
[09:39:22.808183] [100] VFR_HUD
[09:39:23.285192] [101] HEARTBEAT
[09:39:23.289362] [102] ATTITUDE_TARGET
[09:39:23.487378] [242] RADIO
[09:39:23.489289] [242] RADIO_STATUS
[09:39:23.607484] [103] VFR_HUD
[09:39:24.187477] [104] HEARTBEAT
[09:39:24.417508] [105] VFR_HUD
[09:39:24.526452] [243] RADIO
[09:39:24.531864] [243] RADIO_STATUS
[09:39:25.224613] [106] HEARTBEAT
[09:39:25.230671] [107] SYS_STATUS
[09:39:25.348579] [108] BATTERY_STATUS
[09:39:25.350486] [109] EXTENDED_SYS_STATE
[09:39:25.469557] [110] ATTITUDE_TARGET
[09:39:25.474717] [111] VFR_HUD
[09:39:25.478573] [112] SYSTEM_TIME
[09:39:25.554755] [244] RADIO
[09:39:25.557604] [244] RADIO_STATUS
[09:39:26.024586] [113] VFR_HUD
[09:39:26.255674] [114] HEARTBEAT
[09:39:26.593682] [245] RADIO
[09:39:26.596596] [245] RADIO_STATUS
[09:39:26.824784] [115] VFR_HUD
[09:39:27.188743] [116] HEARTBEAT
[09:39:27.196713] [117] ATTITUDE_TARGET
[09:39:27.518782] [246] RADIO
[09:39:27.521754] [246] RADIO_STATUS
[09:39:27.635171] [118] VFR_HUD
[09:39:28.199924] [119] HEARTBEAT
[09:39:28.543047] [247] RADIO
[09:39:28.545930] [247] RADIO_STATUS
[09:39:29.257796] [121] HEARTBEAT
[09:39:29.262947] [122] SYS_STATUS
[09:39:29.303114] [123] BATTERY_STATUS
[09:39:29.311031] [124] ATTITUDE_TARGET
[09:39:29.314995] [125] VFR_HUD
[09:39:29.693022] [248] RADIO
[09:39:29.695954] [248] RADIO_STATUS
[09:39:30.043155] [126] VFR_HUD
[09:39:30.269331] [127] HEARTBEAT
[09:39:30.508189] [249] RADIO
[09:39:30.511146] [249] RADIO_STATUS
[09:39:30.858189] [128] VFR_HUD
[09:39:31.202285] [129] HEARTBEAT
[09:39:31.210237] [130] ATTITUDE_TARGET
[09:39:31.532379] [250] RADIO
[09:39:31.535268] [250] RADIO_STATUS
[09:39:31.652310] [131] VFR_HUD
[09:39:32.227423] [132] HEARTBEAT
[09:39:32.467457] [133] VFR_HUD
[09:39:32.588410] [251] RADIO
[09:39:32.591423] [251] RADIO_STATUS
[09:39:33.269463] [134] HEARTBEAT
[09:39:33.276507] [135] SYS_STATUS
[09:39:33.396486] [136] BATTERY_STATUS
[09:39:33.508709] [137] ATTITUDE_TARGET
[09:39:33.513496] [138] VFR_HUD
[09:39:33.547490] [252] RADIO
[09:39:33.550521] [252] RADIO_STATUS
[09:39:34.071533] [139] VFR_HUD
[09:39:34.521752] [253] RADIO
[09:39:34.523648] [253] RADIO_STATUS
[09:39:34.871714] [141] VFR_HUD
[09:39:35.230764] [142] HEARTBEAT
[09:39:35.238076] [143] ATTITUDE_TARGET
[09:39:35.565860] [254] RADIO
[09:39:35.568765] [254] RADIO_STATUS
[09:39:35.680751] [144] VFR_HUD
[09:39:36.246869] [145] HEARTBEAT
[09:39:36.591286] [255] RADIO
[09:39:36.592796] [255] RADIO_STATUS
[09:39:37.165918] [147] HEARTBEAT
[09:39:37.185988] [148] SYS_STATUS
[09:39:37.233903] [149] BATTERY_STATUS
[09:39:37.241973] [150] ATTITUDE_TARGET
[09:39:37.246887] [151] VFR_HUD
[09:39:37.740984] [0] RADIO
[09:39:37.743981] [0] RADIO_STATUS
[09:39:38.217328] [152] VFR_HUD
[09:39:38.219953] [153] HEARTBEAT
[09:39:38.549980] [1] RADIO
[09:39:38.553016] [1] RADIO_STATUS
[09:39:39.250250] [155] HEARTBEAT
[09:39:39.258186] [156] ATTITUDE_TARGET
[09:39:39.580160] [2] RADIO
[09:39:39.583185] [2] RADIO_STATUS
[09:39:39.619275] [157] VFR_HUD
[09:39:40.276224] [158] HEARTBEAT
[09:39:40.390361] [159] VFR_HUD
[09:39:40.619287] [3] RADIO
[09:39:40.622344] [3] RADIO_STATUS
[09:39:41.207384] [160] HEARTBEAT
[09:39:41.214398] [161] SYS_STATUS
[09:39:41.332337] [162] BATTERY_STATUS
[09:39:41.340387] [163] ATTITUDE_TARGET
[09:39:41.372262] [164] VFR_HUD
[09:39:41.649426] [4] RADIO
[09:39:41.652466] [4] RADIO_STATUS
[09:39:41.999430] [165] VFR_HUD
[09:39:42.568583] [5] RADIO
[09:39:42.571480] [5] RADIO_STATUS
[09:39:42.809666] [167] VFR_HUD
[09:39:43.278629] [168] HEARTBEAT
[09:39:43.286605] [169] ATTITUDE_TARGET
[09:39:43.608699] [170] VFR_HUD
[09:39:43.637849] [6] RADIO
[09:39:43.638879] [6] RADIO_STATUS
[09:39:44.190184] [171] HEARTBEAT
[09:39:44.418781] [172] VFR_HUD
[09:39:44.637857] [7] RADIO
[09:39:44.641139] [7] RADIO_STATUS
[09:39:45.225995] [173] HEARTBEAT
[09:39:45.232845] [174] SYS_STATUS
[09:39:45.350955] [175] BATTERY_STATUS
[09:39:45.351896] [176] EXTENDED_SYS_STATE
[09:39:45.472019] [177] ATTITUDE_TARGET
[09:39:45.476877] [178] VFR_HUD
[09:39:45.479846] [179] SYSTEM_TIME
[09:39:45.788038] [8] RADIO
[09:39:45.789909] [8] RADIO_STATUS
[09:39:46.029356] [180] VFR_HUD
[09:39:46.258958] [181] HEARTBEAT
[09:39:46.597024] [9] RADIO
[09:39:46.599975] [9] RADIO_STATUS
[09:39:47.178170] [183] HEARTBEAT
[09:39:47.296159] [184] ATTITUDE_TARGET
[09:39:47.627132] [10] RADIO
[09:39:47.629052] [10] RADIO_STATUS
[09:39:47.665210] [185] VFR_HUD
[09:39:48.202252] [186] HEARTBEAT
[09:39:48.437195] [187] VFR_HUD
[09:39:48.666272] [11] RADIO
[09:39:48.669146] [11] RADIO_STATUS
[09:39:49.259328] [188] HEARTBEAT
[09:39:49.266291] [189] SYS_STATUS
[09:39:49.305334] [190] BATTERY_STATUS
[09:39:49.313288] [191] ATTITUDE_TARGET
[09:39:49.318296] [192] VFR_HUD
[09:39:49.591284] [12] RADIO
[09:39:49.594330] [12] RADIO_STATUS
[09:39:50.177405] [193] VFR_HUD
[09:39:50.180375] [194] HEARTBEAT
[09:39:50.615481] [13] RADIO
[09:39:50.618487] [13] RADIO_STATUS
[09:39:50.856456] [195] VFR_HUD
[09:39:51.205546] [196] HEARTBEAT
[09:39:51.212488] [197] ATTITUDE_TARGET
[09:39:51.655489] [198] VFR_HUD
[09:39:51.682551] [14] RADIO
[09:39:51.689865] [14] RADIO_STATUS
[09:39:52.237234] [199] HEARTBEAT
[09:39:52.465621] [200] VFR_HUD
[09:39:52.684650] [15] RADIO
[09:39:52.687623] [15] RADIO_STATUS
[09:39:53.272728] [201] HEARTBEAT
[09:39:53.279786] [202] SYS_STATUS
[09:39:53.401500] [203] BATTERY_STATUS
[09:39:53.511853] [204] ATTITUDE_TARGET
[09:39:53.516782] [205] VFR_HUD
[09:39:53.833766] [16] RADIO
[09:39:53.836879] [16] RADIO_STATUS
[09:39:54.074847] [206] VFR_HUD
[09:39:54.179835] [207] HEARTBEAT
[09:39:54.649083] [17] RADIO
[09:39:54.651924] [17] RADIO_STATUS
[09:39:55.234045] [209] HEARTBEAT
[09:39:55.241000] [210] ATTITUDE_TARGET
[09:39:55.673071] [18] RADIO
[09:39:55.676023] [18] RADIO_STATUS
[09:39:55.794054] [211] VFR_HUD
[09:39:56.249203] [212] HEARTBEAT
[09:39:56.379094] [213] VFR_HUD
[09:39:56.717204] [19] RADIO
[09:39:56.720075] [19] RADIO_STATUS
[09:39:57.637207] [20] RADIO
[09:39:57.640142] [20] RADIO_STATUS
[09:39:58.218357] [219] VFR_HUD
[09:39:58.221964] [220] HEARTBEAT
[09:39:58.661305] [21] RADIO
[09:39:58.664267] [21] RADIO_STATUS
[09:39:58.782404] [221] VFR_HUD
[09:39:59.251419] [222] HEARTBEAT
[09:39:59.258327] [223] ATTITUDE_TARGET
[09:39:59.591431] [224] VFR_HUD
[09:39:59.706387] [22] RADIO
[09:39:59.709357] [22] RADIO_STATUS
[09:40:00.276472] [225] HEARTBEAT
[09:40:00.391437] [226] VFR_HUD
[09:40:00.730522] [23] RADIO
[09:40:00.733509] [23] RADIO_STATUS
[09:40:01.208636] [227] HEARTBEAT
[09:40:01.217798] [228] SYS_STATUS
[09:40:01.333617] [229] BATTERY_STATUS
[09:40:01.341682] [230] ATTITUDE_TARGET
[09:40:01.371587] [231] VFR_HUD
[09:40:01.650675] [24] RADIO
[09:40:01.653559] [24] RADIO_STATUS
[09:40:02.000680] [232] VFR_HUD
[09:40:02.225708] [233] HEARTBEAT
[09:40:02.694750] [25] RADIO
[09:40:02.697707] [25] RADIO_STATUS
[09:40:02.810728] [234] VFR_HUD
[09:40:03.279988] [235] HEARTBEAT
[09:40:03.286787] [236] ATTITUDE_TARGET
[09:40:03.609828] [237] VFR_HUD
[09:40:03.718833] [26] RADIO
[09:40:03.721793] [26] RADIO_STATUS
[09:40:04.185980] [238] HEARTBEAT
[09:40:04.418948] [239] VFR_HUD
[09:40:04.763967] [27] RADIO
[09:40:04.767082] [27] RADIO_STATUS
[09:40:05.366231] [242] BATTERY_STATUS
[09:40:05.401018] [243] EXTENDED_SYS_STATE
[09:40:05.406093] [244] ATTITUDE_TARGET
[09:40:05.410984] [245] VFR_HUD
[09:40:05.413985] [246] SYSTEM_TIME
[09:40:05.678144] [28] RADIO
[09:40:05.681165] [28] RADIO_STATUS
[09:40:06.264103] [247] VFR_HUD
[09:40:06.269759] [248] HEARTBEAT
[09:40:06.708210] [29] RADIO
[09:40:06.711143] [29] RADIO_STATUS
[09:40:06.828211] [249] VFR_HUD
[09:40:07.193379] [250] HEARTBEAT
[09:40:07.201219] [251] ATTITUDE_TARGET
[09:40:07.643291] [252] VFR_HUD
[09:40:07.764274] [30] RADIO
[09:40:07.767289] [30] RADIO_STATUS
[09:40:08.203489] [253] HEARTBEAT
[09:40:08.438404] [254] VFR_HUD
[09:40:08.776567] [31] RADIO
[09:40:08.779398] [31] RADIO_STATUS
[09:40:09.260540] [255] HEARTBEAT
[09:40:09.267557] [0] SYS_STATUS
[09:40:09.306573] [1] BATTERY_STATUS
[09:40:09.314866] [2] ATTITUDE_TARGET
[09:40:09.319751] [3] VFR_HUD
[09:40:09.696580] [32] RADIO
[09:40:09.699583] [32] RADIO_STATUS
[09:40:10.048589] [4] VFR_HUD
[09:40:10.169768] [5] HEARTBEAT
[09:40:10.738066] [33] RADIO
[09:40:10.740725] [33] RADIO_STATUS
[09:40:10.858682] [6] VFR_HUD
[09:40:11.207709] [7] HEARTBEAT
[09:40:11.214777] [8] ATTITUDE_TARGET
[09:40:11.657817] [9] VFR_HUD
[09:40:11.766860] [34] RADIO
[09:40:11.769757] [34] RADIO_STATUS
[09:40:12.237901] [10] HEARTBEAT
[09:40:12.469775] [11] VFR_HUD
[09:40:12.806985] [35] RADIO
[09:40:12.809862] [35] RADIO_STATUS
[09:40:13.397324] [14] BATTERY_STATUS
[09:40:13.513986] [15] ATTITUDE_TARGET
[09:40:13.517946] [16] VFR_HUD
[09:40:13.725980] [36] RADIO
[09:40:13.729089] [36] RADIO_STATUS
[09:40:14.077068] [17] VFR_HUD
[09:40:14.182056] [18] HEARTBEAT
[09:40:14.756184] [37] RADIO
[09:40:14.759073] [37] RADIO_STATUS
[09:40:14.794381] [19] VFR_HUD
[09:40:15.241232] [20] HEARTBEAT
[09:40:15.249778] [21] ATTITUDE_TARGET
[09:40:15.691222] [22] VFR_HUD
[09:40:15.807228] [38] RADIO
[09:40:15.810141] [38] RADIO_STATUS
[09:40:16.251624] [23] HEARTBEAT
[09:40:16.381645] [24] VFR_HUD
[09:40:16.824337] [39] RADIO
[09:40:16.827258] [39] RADIO_STATUS
[09:40:17.183463] [25] HEARTBEAT
[09:40:17.189421] [26] SYS_STATUS
[09:40:17.309352] [27] BATTERY_STATUS
[09:40:17.421534] [28] ATTITUDE_TARGET
[09:40:17.426345] [29] VFR_HUD
[09:40:17.744396] [40] RADIO
[09:40:17.747359] [40] RADIO_STATUS
[09:40:17.984452] [30] VFR_HUD
[09:40:18.210505] [31] HEARTBEAT
[09:40:18.784571] [32] VFR_HUD
[09:40:18.811497] [41] RADIO
[09:40:18.814568] [41] RADIO_STATUS
[09:40:19.254028] [33] HEARTBEAT
[09:40:19.261573] [34] ATTITUDE_TARGET
[09:40:19.593660] [35] VFR_HUD
[09:40:19.813639] [42] RADIO
[09:40:19.816632] [42] RADIO_STATUS
[09:40:20.393939] [37] VFR_HUD
[09:40:20.852730] [43] RADIO
[09:40:20.855734] [43] RADIO_STATUS
[09:40:21.210987] [38] HEARTBEAT
[09:40:21.217852] [39] SYS_STATUS
[09:40:21.777887] [44] RADIO
[09:40:21.780823] [44] RADIO_STATUS
[09:40:22.002932] [43] VFR_HUD
[09:40:22.227969] [44] HEARTBEAT
[09:40:22.801989] [45] RADIO
[09:40:22.804982] [45] RADIO_STATUS
[09:40:22.840019] [45] VFR_HUD
[09:40:23.281220] [46] HEARTBEAT
[09:40:23.289106] [47] ATTITUDE_TARGET
[09:40:23.841406] [46] RADIO
[09:40:23.844117] [46] RADIO_STATUS
[09:40:24.187300] [49] HEARTBEAT
[09:40:24.427219] [50] VFR_HUD
[09:40:24.870310] [47] RADIO
[09:40:24.873315] [47] RADIO_STATUS
[09:40:25.229402] [51] HEARTBEAT
[09:40:25.235355] [52] SYS_STATUS
[09:40:25.353385] [53] BATTERY_STATUS
[09:40:25.355299] [54] EXTENDED_SYS_STATE
[09:40:25.474386] [55] ATTITUDE_TARGET
[09:40:25.479371] [56] VFR_HUD
[09:40:25.482399] [57] SYSTEM_TIME
[09:40:25.790384] [48] RADIO
[09:40:25.793309] [48] RADIO_STATUS
[09:40:26.036435] [58] VFR_HUD
[09:40:26.256499] [59] HEARTBEAT
[09:40:26.830491] [60] VFR_HUD
[09:40:26.862471] [49] RADIO
[09:40:26.865462] [49] RADIO_STATUS
[09:40:27.175556] [61] HEARTBEAT
[09:40:27.198527] [62] ATTITUDE_TARGET
[09:40:27.645594] [63] VFR_HUD
[09:40:27.859699] [50] RADIO
[09:40:27.862533] [50] RADIO_STATUS
[09:40:28.441797] [65] VFR_HUD
[09:40:28.903700] [51] RADIO
[09:40:28.906681] [51] RADIO_STATUS
[09:40:29.256901] [66] HEARTBEAT
[09:40:29.263862] [67] SYS_STATUS
[09:40:29.823857] [52] RADIO
[09:40:29.826802] [52] RADIO_STATUS
[09:40:30.049979] [71] VFR_HUD
[09:40:30.170031] [72] HEARTBEAT
[09:40:30.847921] [53] RADIO
[09:40:30.850994] [53] RADIO_STATUS
[09:40:30.968975] [73] VFR_HUD
[09:40:31.208004] [74] HEARTBEAT
[09:40:31.217641] [75] ATTITUDE_TARGET
[09:40:31.893019] [54] RADIO
[09:40:31.896054] [54] RADIO_STATUS
[09:40:32.241331] [77] HEARTBEAT
[09:40:32.468135] [78] VFR_HUD
[09:40:32.917254] [55] RADIO
[09:40:32.920232] [55] RADIO_STATUS
[09:40:33.275298] [79] HEARTBEAT
[09:40:33.282352] [80] SYS_STATUS
[09:40:33.397261] [81] BATTERY_STATUS
[09:40:33.514492] [82] ATTITUDE_TARGET
[09:40:33.519279] [83] VFR_HUD
[09:40:33.962314] [56] RADIO
[09:40:33.965321] [56] RADIO_STATUS
[09:40:34.083379] [84] VFR_HUD
[09:40:34.194418] [85] HEARTBEAT
[09:40:34.877449] [86] VFR_HUD
[09:40:34.909402] [57] RADIO
[09:40:34.912448] [57] RADIO_STATUS
[09:40:35.241519] [87] HEARTBEAT
[09:40:35.249520] [88] ATTITUDE_TARGET
[09:40:35.572576] [89] VFR_HUD
[09:40:35.906515] [58] RADIO
[09:40:35.909563] [58] RADIO_STATUS
[09:40:36.252770] [90] HEARTBEAT
[09:40:36.376578] [91] VFR_HUD
[09:40:36.950647] [59] RADIO
[09:40:36.953666] [59] RADIO_STATUS
[09:40:37.171721] [92] HEARTBEAT
[09:40:37.191786] [93] SYS_STATUS
[09:40:37.310748] [94] BATTERY_STATUS
[09:40:37.422982] [95] ATTITUDE_TARGET
[09:40:37.427795] [96] VFR_HUD
[09:40:37.865861] [60] RADIO
[09:40:37.868712] [60] RADIO_STATUS
[09:40:37.985808] [97] VFR_HUD
[09:40:38.216984] [98] HEARTBEAT
[09:40:38.785952] [99] VFR_HUD
[09:40:38.894889] [61] RADIO
[09:40:38.897930] [61] RADIO_STATUS
[09:40:39.255025] [100] HEARTBEAT
[09:40:39.262975] [101] ATTITUDE_TARGET
[09:40:39.594998] [102] VFR_HUD
[09:40:39.935165] [62] RADIO
[09:40:39.937985] [62] RADIO_STATUS
[09:40:40.166304] [103] HEARTBEAT
[09:40:40.395323] [104] VFR_HUD
[09:40:40.964169] [63] RADIO
[09:40:40.967207] [63] RADIO_STATUS
[09:40:41.212262] [105] HEARTBEAT
[09:40:41.219248] [106] SYS_STATUS
[09:40:41.337265] [107] BATTERY_STATUS
[09:40:41.345239] [108] ATTITUDE_TARGET
[09:40:41.375247] [109] VFR_HUD
[09:40:41.883416] [64] RADIO
[09:40:41.886227] [64] RADIO_STATUS
[09:40:42.004467] [110] VFR_HUD
[09:40:42.229345] [111] HEARTBEAT
[09:40:42.820573] [112] VFR_HUD
[09:40:42.934343] [65] RADIO
[09:40:42.937677] [65] RADIO_STATUS
[09:40:43.287410] [113] HEARTBEAT
[09:40:43.295533] [114] ATTITUDE_TARGET
[09:40:43.613436] [115] VFR_HUD
[09:40:43.952486] [66] RADIO
[09:40:43.955422] [66] RADIO_STATUS
[09:40:44.188477] [116] HEARTBEAT
[09:40:44.428587] [117] VFR_HUD
[09:40:44.992728] [67] RADIO
[09:40:44.995566] [67] RADIO_STATUS
[09:40:45.230606] [118] HEARTBEAT
[09:40:45.237607] [119] SYS_STATUS
[09:40:45.360681] [120] BATTERY_STATUS
[09:40:45.361602] [121] EXTENDED_SYS_STATE
[09:40:45.393620] [122] ATTITUDE_TARGET
[09:40:45.398592] [123] VFR_HUD
[09:40:45.402611] [124] SYSTEM_TIME
[09:40:45.911766] [68] RADIO
[09:40:45.914576] [68] RADIO_STATUS
[09:40:46.037749] [125] VFR_HUD
[09:40:46.257762] [126] HEARTBEAT
[09:40:46.832896] [127] VFR_HUD
[09:40:46.941972] [69] RADIO
[09:40:46.944771] [69] RADIO_STATUS
[09:40:47.192061] [128] HEARTBEAT
[09:40:47.199954] [129] ATTITUDE_TARGET
[09:40:47.647009] [130] VFR_HUD
[09:40:47.986700] [70] RADIO
[09:40:47.986851] [70] RADIO_STATUS
[09:40:48.208151] [131] HEARTBEAT
[09:40:48.441993] [132] VFR_HUD
[09:40:48.906152] [71] RADIO
[09:40:48.909129] [71] RADIO_STATUS
[09:40:49.259139] [133] HEARTBEAT
[09:40:49.273111] [134] SYS_STATUS
[09:40:49.385143] [135] BATTERY_STATUS
[09:40:49.392170] [136] ATTITUDE_TARGET
[09:40:49.423213] [137] VFR_HUD
[09:40:49.931170] [72] RADIO
[09:40:49.934229] [72] RADIO_STATUS
[09:40:50.051210] [138] VFR_HUD
[09:40:50.167326] [139] HEARTBEAT
[09:40:50.861380] [140] VFR_HUD
[09:40:50.976316] [73] RADIO
[09:40:50.978279] [73] RADIO_STATUS
[09:40:51.210349] [141] HEARTBEAT
[09:40:51.218460] [142] ATTITUDE_TARGET
[09:40:51.661367] [143] VFR_HUD
[09:40:52.000562] [74] RADIO
[09:40:52.003374] [74] RADIO_STATUS
[09:40:52.236484] [144] HEARTBEAT
[09:40:52.476523] [145] VFR_HUD
[09:40:52.920528] [75] RADIO
[09:40:52.922508] [75] RADIO_STATUS
[09:40:53.278636] [146] HEARTBEAT
[09:40:53.286352] [147] SYS_STATUS
[09:40:53.401764] [148] BATTERY_STATUS
[09:40:53.517609] [149] ATTITUDE_TARGET
[09:40:53.521623] [150] VFR_HUD
[09:40:53.964790] [76] RADIO
[09:40:53.967668] [76] RADIO_STATUS
[09:40:54.085706] [151] VFR_HUD
[09:40:54.197818] [152] HEARTBEAT
[09:40:54.879786] [153] VFR_HUD
[09:40:54.989911] [77] RADIO
[09:40:54.991798] [77] RADIO_STATUS
[09:40:55.238944] [154] HEARTBEAT
[09:40:55.246870] [155] ATTITUDE_TARGET
[09:40:55.569983] [156] VFR_HUD
[09:40:56.033941] [78] RADIO
[09:40:56.038186] [78] RADIO_STATUS
[09:40:56.255150] [157] HEARTBEAT
[09:40:56.378989] [158] VFR_HUD
[09:40:56.954095] [79] RADIO
[09:40:56.957085] [79] RADIO_STATUS
[09:40:57.187092] [159] HEARTBEAT
[09:40:57.194091] [160] SYS_STATUS
[09:40:57.308226] [161] BATTERY_STATUS
[09:40:57.426166] [162] ATTITUDE_TARGET
[09:40:57.431218] [163] VFR_HUD
[09:40:57.978144] [80] RADIO
[09:40:57.981123] [80] RADIO_STATUS
[09:40:58.099238] [164] VFR_HUD
[09:40:58.220239] [165] HEARTBEAT
[09:40:58.789209] [166] VFR_HUD
[09:40:59.023261] [81] RADIO
[09:40:59.026190] [81] RADIO_STATUS
[09:40:59.258329] [167] HEARTBEAT
[09:40:59.266360] [168] ATTITUDE_TARGET
[09:40:59.598370] [169] VFR_HUD
[09:40:59.937468] [82] RADIO
[09:40:59.940466] [82] RADIO_STATUS
[09:41:00.164466] [170] HEARTBEAT
[09:41:00.398516] [171] VFR_HUD
[09:41:00.967655] [83] RADIO
[09:41:00.970504] [83] RADIO_STATUS
[09:41:01.220624] [172] HEARTBEAT
[09:41:01.227580] [173] SYS_STATUS
[09:41:01.267593] [174] BATTERY_STATUS
[09:41:01.274604] [175] ATTITUDE_TARGET
[09:41:01.279566] [176] VFR_HUD
[09:41:02.006755] [84] RADIO
[09:41:02.009625] [84] RADIO_STATUS
[09:41:02.243663] [177] VFR_HUD
[09:41:02.246674] [178] HEARTBEAT
[09:41:02.822739] [179] VFR_HUD
[09:41:03.037066] [85] RADIO
[09:41:03.039873] [85] RADIO_STATUS
[09:41:03.291857] [180] HEARTBEAT
[09:41:03.299882] [181] ATTITUDE_TARGET
[09:41:03.616868] [182] VFR_HUD
[09:41:03.956894] [86] RADIO
[09:41:03.959836] [86] RADIO_STATUS
[09:41:04.193050] [183] HEARTBEAT
[09:41:04.431935] [184] VFR_HUD
[09:41:04.996055] [87] RADIO
[09:41:04.999199] [87] RADIO_STATUS
[09:41:05.234031] [185] HEARTBEAT
[09:41:05.241118] [186] SYS_STATUS
[09:41:05.383123] [187] BATTERY_STATUS
[09:41:05.411164] [188] EXTENDED_SYS_STATE
[09:41:05.418068] [189] ATTITUDE_TARGET
[09:41:05.423188] [190] VFR_HUD
[09:41:05.427112] [191] SYSTEM_TIME
[09:41:06.026204] [88] RADIO
[09:41:06.029140] [88] RADIO_STATUS
[09:41:06.277260] [192] VFR_HUD
[09:41:06.280320] [193] HEARTBEAT
[09:41:06.836270] [194] VFR_HUD
[09:41:07.065371] [89] RADIO
[09:41:07.068224] [89] RADIO_STATUS
[09:41:07.195458] [195] HEARTBEAT
[09:41:07.203356] [196] ATTITUDE_TARGET
[09:41:07.646486] [197] VFR_HUD
[09:41:07.985386] [90] RADIO
[09:41:07.988378] [90] RADIO_STATUS
[09:41:08.211612] [198] HEARTBEAT
[09:41:08.445541] [199] VFR_HUD
[09:41:09.014654] [91] RADIO
[09:41:09.017548] [91] RADIO_STATUS
[09:41:09.263667] [200] HEARTBEAT
[09:41:09.269578] [201] SYS_STATUS
[09:41:09.388552] [202] BATTERY_STATUS
[09:41:09.396749] [203] ATTITUDE_TARGET
[09:41:09.426508] [204] VFR_HUD
[09:41:10.055879] [205] VFR_HUD
[09:41:10.082580] [92] RADIO
[09:41:10.085667] [92] RADIO_STATUS
[09:41:10.171007] [206] HEARTBEAT
[09:41:10.869715] [207] VFR_HUD
[09:41:10.985728] [93] RADIO
[09:41:10.988671] [93] RADIO_STATUS
[09:41:11.213739] [208] HEARTBEAT
[09:41:11.221822] [209] ATTITUDE_TARGET
[09:41:11.664851] [210] VFR_HUD
[09:41:12.003887] [94] RADIO
[09:41:12.006773] [94] RADIO_STATUS
[09:41:12.239839] [211] HEARTBEAT
[09:41:12.479913] [212] VFR_HUD
[09:41:13.042934] [95] RADIO
[09:41:13.045881] [95] RADIO_STATUS
[09:41:13.281047] [213] HEARTBEAT
[09:41:13.288022] [214] SYS_STATUS
[09:41:13.402962] [215] BATTERY_STATUS
[09:41:13.520970] [216] ATTITUDE_TARGET
[09:41:13.524992] [217] VFR_HUD
[09:41:14.073113] [96] RADIO
[09:41:14.076041] [96] RADIO_STATUS
[09:41:14.111028] [218] VFR_HUD
[09:41:14.189074] [219] HEARTBEAT
[09:41:14.883103] [220] VFR_HUD
[09:41:14.992145] [97] RADIO
[09:41:14.995102] [97] RADIO_STATUS
[09:41:15.242264] [221] HEARTBEAT
[09:41:15.250149] [222] ATTITUDE_TARGET
[09:41:15.573175] [223] VFR_HUD
[09:41:16.037264] [98] RADIO
[09:41:16.040158] [98] RADIO_STATUS
[09:41:16.258223] [224] HEARTBEAT
[09:41:16.383297] [225] VFR_HUD
[09:41:17.062340] [99] RADIO
[09:41:17.065321] [99] RADIO_STATUS
[09:41:17.190455] [226] HEARTBEAT
[09:41:17.197431] [227] SYS_STATUS
[09:41:17.311422] [228] BATTERY_STATUS
[09:41:17.429446] [229] ATTITUDE_TARGET
[09:41:17.434381] [230] VFR_HUD
[09:41:17.992382] [231] VFR_HUD
[09:41:18.107392] [100] RADIO
[09:41:18.110491] [100] RADIO_STATUS
[09:41:18.223462] [232] HEARTBEAT
[09:41:18.792633] [233] VFR_HUD
[09:41:19.026570] [101] RADIO
[09:41:19.029582] [101] RADIO_STATUS
[09:41:19.261651] [234] HEARTBEAT
[09:41:19.269674] [235] ATTITUDE_TARGET
[09:41:19.607564] [236] VFR_HUD
[09:41:20.056211] [102] RADIO
[09:41:20.056339] [102] RADIO_STATUS
[09:41:20.166773] [237] HEARTBEAT
[09:41:20.401699] [238] VFR_HUD
[09:41:21.095785] [103] RADIO
[09:41:21.098770] [103] RADIO_STATUS
[09:41:21.223790] [239] HEARTBEAT
[09:41:21.230790] [240] SYS_STATUS
[09:41:21.269792] [241] BATTERY_STATUS
[09:41:21.277779] [242] ATTITUDE_TARGET
[09:41:21.282741] [243] VFR_HUD
[09:41:22.119884] [104] RADIO
[09:41:22.122804] [104] RADIO_STATUS
[09:41:22.199403] [244] VFR_HUD
[09:41:22.201920] [245] HEARTBEAT
[09:41:22.825976] [246] VFR_HUD
[09:41:23.040049] [105] RADIO
[09:41:23.042866] [105] RADIO_STATUS
[09:41:23.161014] [247] HEARTBEAT
[09:41:23.184652] [248] ATTITUDE_TARGET
[09:41:23.620019] [249] VFR_HUD
[09:41:24.085074] [106] RADIO
[09:41:24.088053] [106] RADIO_STATUS
[09:41:24.203965] [250] HEARTBEAT
[09:41:24.430071] [251] VFR_HUD
[09:41:25.109384] [107] RADIO
[09:41:25.112122] [107] RADIO_STATUS
[09:41:25.237185] [252] HEARTBEAT
[09:41:25.244221] [253] SYS_STATUS
[09:41:25.367242] [254] BATTERY_STATUS
[09:41:25.369285] [255] EXTENDED_SYS_STATE
[09:41:25.402055] [0] ATTITUDE_TARGET
[09:41:25.406156] [1] VFR_HUD
[09:41:25.409178] [2] SYSTEM_TIME
[09:41:26.040357] [3] VFR_HUD
[09:41:26.154243] [108] RADIO
[09:41:26.157233] [108] RADIO_STATUS
[09:41:26.270313] [4] HEARTBEAT
[09:41:26.839491] [5] VFR_HUD
[09:41:27.068587] [109] RADIO
[09:41:27.071322] [109] RADIO_STATUS
[09:41:27.198530] [6] HEARTBEAT
[09:41:27.206500] [7] ATTITUDE_TARGET
[09:41:27.649438] [8] VFR_HUD
[09:41:28.098495] [110] RADIO
[09:41:28.101501] [110] RADIO_STATUS
[09:41:28.214526] [9] HEARTBEAT
[09:41:28.448596] [10] VFR_HUD
[09:41:29.137825] [111] RADIO
[09:41:29.140508] [111] RADIO_STATUS
[09:41:29.271647] [11] HEARTBEAT
[09:41:29.277769] [12] SYS_STATUS
[09:41:29.317594] [13] BATTERY_STATUS
[09:41:29.325972] [14] ATTITUDE_TARGET
[09:41:29.330650] [15] VFR_HUD
[09:41:30.167737] [112] RADIO
[09:41:30.170851] [112] RADIO_STATUS
[09:41:30.293730] [16] VFR_HUD
[09:41:30.296711] [17] HEARTBEAT
[09:41:30.875537] [18] VFR_HUD
[09:41:31.087772] [113] RADIO
[09:41:31.090722] [113] RADIO_STATUS
[09:41:31.217827] [19] HEARTBEAT
[09:41:31.224791] [20] ATTITUDE_TARGET
[09:41:31.667929] [21] VFR_HUD
[09:41:32.126933] [114] RADIO
[09:41:32.130368] [114] RADIO_STATUS
[09:41:32.243978] [22] HEARTBEAT
[09:41:32.482983] [23] VFR_HUD
[09:41:33.157011] [115] RADIO
[09:41:33.159992] [115] RADIO_STATUS
[09:41:33.285129] [24] HEARTBEAT
[09:41:33.292090] [25] SYS_STATUS
[09:41:33.412032] [26] BATTERY_STATUS
[09:41:33.524124] [27] ATTITUDE_TARGET
[09:41:33.529127] [28] VFR_HUD
[09:41:33.972200] [29] VFR_HUD
[09:41:34.192230] [30] HEARTBEAT
[09:41:34.306147] [116] RADIO
[09:41:34.309134] [116] RADIO_STATUS
[09:41:34.776265] [31] VFR_HUD
[09:41:35.116285] [117] RADIO
[09:41:35.118270] [117] RADIO_STATUS
[09:41:35.246278] [32] HEARTBEAT
[09:41:35.253788] [33] ATTITUDE_TARGET
[09:41:35.576301] [34] VFR_HUD
[09:41:36.145367] [118] RADIO
[09:41:36.148329] [118] RADIO_STATUS
[09:41:36.261360] [35] HEARTBEAT
[09:41:36.385465] [36] VFR_HUD
[09:41:37.294562] [119] RADIO
[09:41:37.297535] [119] RADIO_STATUS
[09:41:37.335534] [39] BATTERY_STATUS
[09:41:37.363704] [40] ATTITUDE_TARGET
[09:41:37.367663] [41] VFR_HUD
[09:41:38.000606] [42] VFR_HUD
[09:41:38.115647] [120] RADIO
[09:41:38.121044] [120] RADIO_STATUS
[09:41:38.229706] [43] HEARTBEAT
[09:41:38.794746] [44] VFR_HUD
[09:41:39.133871] [121] RADIO
[09:41:39.136857] [121] RADIO_STATUS
[09:41:39.167894] [45] HEARTBEAT
[09:41:39.190824] [46] ATTITUDE_TARGET
[09:41:39.609890] [47] VFR_HUD
[09:41:40.172240] [48] HEARTBEAT
[09:41:40.282905] [122] RADIO
[09:41:40.285794] [122] RADIO_STATUS
[09:41:40.403958] [49] VFR_HUD
[09:41:41.203477] [123] RADIO
[09:41:41.206038] [123] RADIO_STATUS
[09:41:41.262374] [50] HEARTBEAT
[09:41:41.269788] [51] SYS_STATUS
[09:41:41.277079] [52] BATTERY_STATUS
[09:41:41.289056] [53] ATTITUDE_TARGET
[09:41:41.294031] [54] VFR_HUD
[09:41:42.013132] [55] VFR_HUD
[09:41:42.238195] [56] HEARTBEAT
[09:41:42.352153] [124] RADIO
[09:41:42.355230] [124] RADIO_STATUS
[09:41:42.823258] [57] VFR_HUD
[09:41:43.163195] [58] HEARTBEAT
[09:41:43.186281] [59] ATTITUDE_TARGET
[09:41:43.211218] [125] RADIO
[09:41:43.214149] [125] RADIO_STATUS
[09:41:43.622292] [60] VFR_HUD
[09:41:44.191345] [126] RADIO
[09:41:44.194310] [126] RADIO_STATUS
[09:41:44.225339] [61] HEARTBEAT
[09:41:44.432434] [62] VFR_HUD
[09:41:45.341467] [127] RADIO
[09:41:45.343490] [127] RADIO_STATUS
[09:41:45.381527] [65] BATTERY_STATUS
[09:41:45.412733] [66] EXTENDED_SYS_STATE
[09:41:45.420507] [67] ATTITUDE_TARGET
[09:41:45.424513] [68] VFR_HUD
[09:41:45.428472] [69] SYSTEM_TIME
[09:41:46.260593] [128] RADIO
[09:41:46.263640] [128] RADIO_STATUS
[09:41:46.304652] [70] VFR_HUD
[09:41:46.309002] [71] HEARTBEAT
[09:41:46.841684] [72] VFR_HUD
