[10:22:57.770776] [165] RADIO
[10:22:57.773726] [165] RADIO_STATUS
[10:22:58.230897] [204] VFR_HUD
[10:22:58.595880] [205] HEARTBEAT
[10:22:58.602856] [206] ATTITUDE_TARGET
[10:22:58.799971] [166] RADIO
[10:22:58.803078] [166] RADIO_STATUS
[10:22:59.046127] [207] VFR_HUD
[10:22:59.606041] [208] HEARTBEAT
[10:22:59.840964] [209] VFR_HUD
[10:22:59.867978] [167] RADIO
[10:22:59.870932] [167] RADIO_STATUS
[10:23:00.526128] [210] HEARTBEAT
[10:23:00.546071] [211] SYS_STATUS
[10:23:00.594050] [212] BATTERY_STATUS
[10:23:00.602170] [213] ATTITUDE_TARGET
[10:23:00.607062] [214] VFR_HUD
[10:23:00.761193] [168] RADIO
[10:23:00.764017] [168] RADIO_STATUS
[10:23:01.577226] [215] VFR_HUD
[10:23:01.580177] [216] HEARTBEAT
[10:23:01.791266] [169] RADIO
[10:23:01.794134] [169] RADIO_STATUS
[10:23:02.141223] [217] VFR_HUD
[10:23:02.611293] [218] HEARTBEAT
[10:23:02.618192] [219] ATTITUDE_TARGET
[10:23:02.830275] [170] RADIO
[10:23:02.833355] [170] RADIO_STATUS
[10:23:02.951242] [220] VFR_HUD
[10:23:03.642300] [221] HEARTBEAT
[10:23:03.751390] [222] VFR_HUD
[10:23:03.783391] [171] RADIO
[10:23:03.786243] [171] RADIO_STATUS
[10:23:04.568473] [223] HEARTBEAT
[10:23:04.575391] [224] SYS_STATUS
[10:23:04.693379] [225] BATTERY_STATUS
[10:23:04.701368] [226] ATTITUDE_TARGET
[10:23:04.732389] [227] VFR_HUD
[10:23:04.759402] [172] RADIO
[10:23:04.762325] [172] RADIO_STATUS
[10:23:05.360425] [228] VFR_HUD
[10:23:05.586473] [229] HEARTBEAT
[10:23:05.825454] [173] RADIO
[10:23:05.828419] [173] RADIO_STATUS
[10:23:06.170528] [230] VFR_HUD
[10:23:06.639669] [231] HEARTBEAT
[10:23:06.647538] [232] ATTITUDE_TARGET
[10:23:06.767553] [174] RADIO
[10:23:06.770516] [174] RADIO_STATUS
[10:23:06.970668] [233] VFR_HUD
[10:23:07.545683] [234] HEARTBEAT
[10:23:07.785654] [235] VFR_HUD
[10:23:07.905772] [175] RADIO
[10:23:07.908718] [175] RADIO_STATUS
[10:23:08.587818] [236] HEARTBEAT
[10:23:08.593753] [237] SYS_STATUS
[10:23:08.708766] [238] BATTERY_STATUS
[10:23:08.829774] [239] ATTITUDE_TARGET
[10:23:08.831714] [240] VFR_HUD
[10:23:08.865771] [176] RADIO
[10:23:08.868748] [176] RADIO_STATUS
[10:23:09.394867] [241] VFR_HUD
[10:23:09.614813] [242] HEARTBEAT
[10:23:09.838798] [177] RADIO
[10:23:09.841827] [177] RADIO_STATUS
[10:23:10.190056] [243] VFR_HUD
[10:23:10.535023] [244] HEARTBEAT
[10:23:10.557968] [245] ATTITUDE_TARGET
[10:23:10.884026] [178] RADIO
[10:23:10.886971] [178] RADIO_STATUS
[10:23:11.004961] [246] VFR_HUD
[10:23:11.564993] [247] HEARTBEAT
[10:23:11.799151] [248] VFR_HUD
[10:23:11.826265] [179] RADIO
[10:23:11.829003] [179] RADIO_STATUS
[10:23:12.616287] [249] HEARTBEAT
[10:23:12.623153] [250] SYS_STATUS
[10:23:12.741167] [251] BATTERY_STATUS
[10:23:12.749152] [252] ATTITUDE_TARGET
[10:23:12.779122] [253] VFR_HUD
[10:23:12.802242] [180] RADIO
[10:23:12.805148] [180] RADIO_STATUS
[10:23:13.408238] [254] VFR_HUD
[10:23:13.529196] [255] HEARTBEAT
[10:23:13.867285] [181] RADIO
[10:23:13.870225] [181] RADIO_STATUS
[10:23:14.218283] [0] VFR_HUD
[10:23:14.567403] [1] HEARTBEAT
[10:23:14.576408] [2] ATTITUDE_TARGET
[10:23:14.897353] [182] RADIO
[10:23:14.900270] [182] RADIO_STATUS
[10:23:15.018393] [3] VFR_HUD
[10:23:15.598392] [4] HEARTBEAT
[10:23:15.817411] [183] RADIO
[10:23:15.820398] [183] RADIO_STATUS
[10:23:15.941922] [5] VFR_HUD
[10:23:16.635497] [6] HEARTBEAT
[10:23:16.642642] [7] SYS_STATUS
[10:23:16.759593] [8] BATTERY_STATUS
[10:23:16.761521] [9] EXTENDED_SYS_STATE
[10:23:16.881556] [10] ATTITUDE_TARGET
[10:23:16.885513] [11] VFR_HUD
[10:23:16.889703] [12] SYSTEM_TIME
[10:23:16.918506] [184] RADIO
[10:23:16.921524] [184] RADIO_STATUS
[10:23:17.442613] [13] VFR_HUD
[10:23:17.554594] [14] HEARTBEAT
[10:23:17.886598] [185] RADIO
[10:23:17.889570] [185] RADIO_STATUS
[10:23:18.132636] [15] VFR_HUD
[10:23:18.601762] [16] HEARTBEAT
[10:23:18.609683] [17] ATTITUDE_TARGET
[10:23:18.925698] [186] RADIO
[10:23:18.928691] [186] RADIO_STATUS
[10:23:19.051730] [18] VFR_HUD
[10:23:19.612762] [19] HEARTBEAT
[10:23:19.845870] [187] RADIO
[10:23:19.848775] [187] RADIO_STATUS
[10:23:20.543877] [21] HEARTBEAT
[10:23:20.550892] [22] SYS_STATUS
[10:23:20.670949] [23] BATTERY_STATUS
[10:23:20.782923] [24] ATTITUDE_TARGET
[10:23:20.787882] [25] VFR_HUD
[10:23:20.875919] [188] RADIO
[10:23:20.878853] [188] RADIO_STATUS
[10:23:21.346043] [26] VFR_HUD
[10:23:21.576976] [27] HEARTBEAT
[10:23:21.914984] [189] RADIO
[10:23:21.917948] [189] RADIO_STATUS
[10:23:22.146030] [28] VFR_HUD
[10:23:22.615080] [29] HEARTBEAT
[10:23:22.623212] [30] ATTITUDE_TARGET
[10:23:22.835058] [190] RADIO
[10:23:22.838068] [190] RADIO_STATUS
[10:23:22.956270] [31] VFR_HUD
[10:23:23.646152] [32] HEARTBEAT
[10:23:23.760035] [33] VFR_HUD
[10:23:23.865141] [191] RADIO
[10:23:23.868091] [191] RADIO_STATUS
[10:23:24.573266] [34] HEARTBEAT
[10:23:24.579262] [35] SYS_STATUS
[10:23:24.698308] [36] BATTERY_STATUS
[10:23:24.706385] [37] ATTITUDE_TARGET
[10:23:24.736299] [38] VFR_HUD
[10:23:24.904297] [192] RADIO
[10:23:24.907246] [192] RADIO_STATUS
[10:23:25.365350] [39] VFR_HUD
[10:23:25.590407] [40] HEARTBEAT
[10:23:25.934388] [193] RADIO
[10:23:25.937942] [193] RADIO_STATUS
[10:23:26.180429] [41] VFR_HUD
[10:23:26.974601] [44] VFR_HUD
[10:23:27.001702] [194] RADIO
[10:23:27.004512] [194] RADIO_STATUS
[10:23:27.381166] JAMMING_START
[10:23:27.549593] [45] HEARTBEAT
[10:23:27.894756] [46] VFR_HUD
[10:23:27.910593] [195] RADIO
[10:23:27.913572] [195] RADIO_STATUS
[10:23:28.591631] [47] HEARTBEAT
[10:23:28.598640] [48] SYS_STATUS
[10:23:28.718868] [49] BATTERY_STATUS
[10:23:28.830682] [50] ATTITUDE_TARGET
[10:23:28.835638] [51] VFR_HUD
[10:23:28.869649] [196] RADIO
[10:23:28.872643] [196] RADIO_STATUS
[10:23:29.398786] [52] VFR_HUD
[10:23:29.619746] [53] HEARTBEAT
[10:23:29.962753] [197] RADIO
[10:23:29.965744] [197] RADIO_STATUS
[10:23:30.193811] [54] VFR_HUD
[10:23:30.552845] [55] HEARTBEAT
[10:23:30.561206] [56] ATTITUDE_TARGET
[10:23:30.887912] [198] RADIO
[10:23:30.890898] [198] RADIO_STATUS
[10:23:31.002962] [57] VFR_HUD
[10:23:31.568964] [58] HEARTBEAT
[10:23:31.802975] [59] VFR_HUD
[10:23:31.911984] [199] RADIO
[10:23:31.914984] [199] RADIO_STATUS
[10:23:32.620122] [60] HEARTBEAT
[10:23:32.627102] [61] SYS_STATUS
[10:23:32.746064] [62] BATTERY_STATUS
[10:23:32.753137] [63] ATTITUDE_TARGET
[10:23:32.784043] [64] VFR_HUD
[10:23:32.952122] [200] RADIO
[10:23:32.955053] [200] RADIO_STATUS
[10:23:33.413166] [65] VFR_HUD
[10:23:33.982160] [201] RADIO
[10:23:33.985067] [201] RADIO_STATUS
[10:23:34.224307] [67] VFR_HUD
[10:23:34.571264] [68] HEARTBEAT
[10:23:34.579218] [69] ATTITUDE_TARGET
[10:23:34.901230] [202] RADIO
[10:23:34.904195] [202] RADIO_STATUS
[10:23:34.940306] [70] VFR_HUD
[10:23:35.597279] [71] HEARTBEAT
[10:23:35.941301] [72] VFR_HUD
[10:23:35.958339] [203] RADIO
[10:23:35.961292] [203] RADIO_STATUS
[10:23:36.639483] [73] HEARTBEAT
[10:23:36.646349] [74] SYS_STATUS
[10:23:36.764388] [75] BATTERY_STATUS
[10:23:36.765352] [76] EXTENDED_SYS_STATE
[10:23:36.885347] [77] ATTITUDE_TARGET
[10:23:36.890349] [78] VFR_HUD
[10:23:36.893350] [79] SYSTEM_TIME
[10:23:36.928347] [204] RADIO
[10:23:36.931319] [204] RADIO_STATUS
[10:23:37.557526] [80] VFR_HUD
[10:23:37.560508] [81] HEARTBEAT
[10:23:38.016399] [205] RADIO
[10:23:38.018489] [205] RADIO_STATUS
[10:23:38.241470] [82] VFR_HUD
[10:23:38.605502] [83] HEARTBEAT
[10:23:38.613509] [84] ATTITUDE_TARGET
[10:23:38.930733] [85] VFR_HUD
[10:23:38.963533] [206] RADIO
[10:23:38.966487] [206] RADIO_STATUS
[10:23:39.616608] [86] HEARTBEAT
[10:23:39.740635] [87] VFR_HUD
[10:23:39.959634] [207] RADIO
[10:23:39.962637] [207] RADIO_STATUS
[10:23:40.535698] [88] HEARTBEAT
[10:23:40.555692] [89] SYS_STATUS
[10:23:40.604736] [90] BATTERY_STATUS
[10:23:40.611824] [91] ATTITUDE_TARGET
[10:23:40.616870] [92] VFR_HUD
[10:23:41.006835] [208] RADIO
[10:23:41.009828] [208] RADIO_STATUS
[10:23:41.696923] [93] VFR_HUD
[10:23:41.699835] [94] HEARTBEAT
[10:23:41.921157] [209] RADIO
[10:23:41.923888] [209] RADIO_STATUS
[10:23:42.151880] [95] VFR_HUD
[10:23:42.620939] [96] HEARTBEAT
[10:23:42.628954] [97] ATTITUDE_TARGET
[10:23:42.950952] [210] RADIO
[10:23:42.953916] [210] RADIO_STATUS
[10:23:42.988953] [98] VFR_HUD
[10:23:43.527018] [99] HEARTBEAT
[10:23:43.761039] [100] VFR_HUD
[10:23:43.990146] [211] RADIO
[10:23:43.993134] [211] RADIO_STATUS
[10:23:44.583150] [101] HEARTBEAT
[10:23:44.590117] [102] SYS_STATUS
[10:23:44.630133] [103] BATTERY_STATUS
[10:23:44.638131] [104] ATTITUDE_TARGET
[10:23:44.642127] [105] VFR_HUD
[10:23:45.020141] [212] RADIO
[10:23:45.023182] [212] RADIO_STATUS
[10:23:45.370209] [106] VFR_HUD
[10:23:45.596224] [107] HEARTBEAT
[10:23:45.939250] [213] RADIO
[10:23:45.942190] [213] RADIO_STATUS
[10:23:46.290278] [108] VFR_HUD
[10:23:46.654326] [109] HEARTBEAT
[10:23:46.662254] [110] ATTITUDE_TARGET
[10:23:46.980309] [111] VFR_HUD
[10:23:47.007257] [214] RADIO
[10:23:47.010211] [214] RADIO_STATUS
[10:23:47.555446] [112] HEARTBEAT
[10:23:47.795318] [113] VFR_HUD
[10:23:48.009345] [215] RADIO
[10:23:48.012304] [215] RADIO_STATUS
[10:23:48.597433] [114] HEARTBEAT
[10:23:48.603429] [115] SYS_STATUS
[10:23:48.723431] [116] BATTERY_STATUS
[10:23:48.836447] [117] ATTITUDE_TARGET
[10:23:48.840436] [118] VFR_HUD
[10:23:49.048436] [216] RADIO
[10:23:49.051451] [216] RADIO_STATUS
[10:23:49.399510] [119] VFR_HUD
[10:23:49.968727] [217] RADIO
[10:23:49.974315] [217] RADIO_STATUS
[10:23:50.199652] [121] VFR_HUD
[10:23:50.558748] [122] HEARTBEAT
[10:23:50.565606] [123] ATTITUDE_TARGET
[10:23:50.997652] [218] RADIO
[10:23:51.000623] [218] RADIO_STATUS
[10:23:51.118864] [124] VFR_HUD
[10:23:51.573748] [125] HEARTBEAT
[10:23:51.807738] [126] VFR_HUD
[10:23:52.037941] [219] RADIO
[10:23:52.040755] [219] RADIO_STATUS
[10:23:52.625831] [127] HEARTBEAT
[10:23:52.631768] [128] SYS_STATUS
[10:23:52.750748] [129] BATTERY_STATUS
[10:23:52.758804] [130] ATTITUDE_TARGET
[10:23:52.788749] [131] VFR_HUD
[10:23:53.066786] [220] RADIO
[10:23:53.069796] [220] RADIO_STATUS
[10:23:53.417875] [132] VFR_HUD
[10:23:53.532835] [133] HEARTBEAT
[10:23:53.986889] [221] RADIO
[10:23:53.989899] [221] RADIO_STATUS
[10:23:54.336914] [134] VFR_HUD
[10:23:54.577108] [135] HEARTBEAT
[10:23:54.584052] [136] ATTITUDE_TARGET
[10:23:55.027029] [137] VFR_HUD
[10:23:55.058988] [222] RADIO
[10:23:55.061960] [222] RADIO_STATUS
[10:23:55.602116] [138] HEARTBEAT
[10:23:55.842024] [139] VFR_HUD
[10:23:56.056091] [223] RADIO
[10:23:56.058995] [223] RADIO_STATUS
[10:23:56.644168] [140] HEARTBEAT
[10:23:56.651324] [141] SYS_STATUS
[10:23:56.768264] [142] BATTERY_STATUS
[10:23:56.770175] [143] EXTENDED_SYS_STATE
[10:23:56.890161] [144] ATTITUDE_TARGET
[10:23:56.894170] [145] VFR_HUD
[10:23:56.898142] [146] SYSTEM_TIME
[10:23:57.095150] [224] RADIO
[10:23:57.098074] [224] RADIO_STATUS
[10:23:57.451211] [147] VFR_HUD
[10:23:57.563241] [148] HEARTBEAT
[10:23:58.020238] [225] RADIO
[10:23:58.023231] [225] RADIO_STATUS
[10:23:58.246252] [149] VFR_HUD
[10:23:58.605326] [150] HEARTBEAT
[10:23:58.613782] [151] ATTITUDE_TARGET
[10:23:58.936324] [152] VFR_HUD
[10:23:59.045305] [226] RADIO
[10:23:59.049733] [226] RADIO_STATUS
[10:23:59.621391] [153] HEARTBEAT
[10:23:59.745337] [154] VFR_HUD
[10:24:00.090645] [227] RADIO
[10:24:00.093421] [227] RADIO_STATUS
[10:24:00.553532] [155] HEARTBEAT
[10:24:00.559458] [156] SYS_STATUS
[10:24:00.674522] [157] BATTERY_STATUS
[10:24:00.792553] [158] ATTITUDE_TARGET
[10:24:00.796452] [159] VFR_HUD
[10:24:01.037532] [228] RADIO
[10:24:01.040476] [228] RADIO_STATUS
[10:24:01.355592] [160] VFR_HUD
[10:24:01.585639] [161] HEARTBEAT
[10:24:02.034717] [229] RADIO
[10:24:02.037632] [229] RADIO_STATUS
[10:24:02.154610] [162] VFR_HUD
[10:24:02.625984] [163] HEARTBEAT
[10:24:02.632072] [164] ATTITUDE_TARGET
[10:24:02.969762] [165] VFR_HUD
[10:24:03.090856] [230] RADIO
[10:24:03.093746] [230] RADIO_STATUS
[10:24:03.530754] [166] HEARTBEAT
[10:24:03.764731] [167] VFR_HUD
[10:24:04.103779] [231] RADIO
[10:24:04.106798] [231] RADIO_STATUS
[10:24:05.022949] [232] RADIO
[10:24:05.025842] [232] RADIO_STATUS
[10:24:05.091924] [170] BATTERY_STATUS
[10:24:05.099891] [171] ATTITUDE_TARGET
[10:24:05.104855] [172] VFR_HUD
[10:24:05.373952] [173] VFR_HUD
[10:24:05.599955] [174] HEARTBEAT
[10:24:06.062939] [233] RADIO
[10:24:06.065953] [233] RADIO_STATUS
[10:24:06.189931] [175] VFR_HUD
[10:24:06.658079] [176] HEARTBEAT
[10:24:06.666035] [177] ATTITUDE_TARGET
[10:24:06.985803] [178] VFR_HUD
[10:24:07.093138] [234] RADIO
[10:24:07.096030] [234] RADIO_STATUS
[10:24:07.564150] [179] HEARTBEAT
[10:24:07.793182] [180] VFR_HUD
[10:24:08.132459] [235] RADIO
[10:24:08.136008] [235] RADIO_STATUS
[10:24:08.600195] [181] HEARTBEAT
[10:24:08.607685] [182] SYS_STATUS
[10:24:08.727247] [183] BATTERY_STATUS
[10:24:08.839251] [184] ATTITUDE_TARGET
[10:24:08.844566] [185] VFR_HUD
[10:24:09.052333] [236] RADIO
[10:24:09.058937] [236] RADIO_STATUS
[10:24:09.402310] [186] VFR_HUD
[10:24:09.633353] [187] HEARTBEAT
[10:24:10.081403] [237] RADIO
[10:24:10.084350] [237] RADIO_STATUS
[10:24:10.202417] [188] VFR_HUD
[10:24:10.561482] [189] HEARTBEAT
[10:24:10.569392] [190] ATTITUDE_TARGET
[10:24:11.012806] [191] VFR_HUD
[10:24:11.121392] [238] RADIO
[10:24:11.124396] [238] RADIO_STATUS
[10:24:11.577466] [192] HEARTBEAT
[10:24:11.811575] [193] VFR_HUD
[10:24:12.151484] [239] RADIO
[10:24:12.153470] [239] RADIO_STATUS
[10:24:13.070555] [240] RADIO
[10:24:13.074113] [240] RADIO_STATUS
[10:24:13.546683] [199] VFR_HUD
[10:24:13.549609] [200] HEARTBEAT
[10:24:14.110692] [241] RADIO
[10:24:14.113742] [241] RADIO_STATUS
[10:24:14.236748] [201] VFR_HUD
[10:24:14.579990] [202] HEARTBEAT
[10:24:14.587761] [203] ATTITUDE_TARGET
[10:24:15.030784] [204] VFR_HUD
[10:24:15.062771] [242] RADIO
[10:24:15.069864] [242] RADIO_STATUS
[10:24:15.607074] [205] HEARTBEAT
[10:24:15.845854] [206] VFR_HUD
[10:24:16.179845] [243] RADIO
[10:24:16.183070] [243] RADIO_STATUS
[10:24:16.525947] [207] HEARTBEAT
[10:24:16.546040] [208] SYS_STATUS
[10:24:16.583897] [209] BATTERY_STATUS
[10:24:16.585931] [210] EXTENDED_SYS_STATE
[10:24:16.593934] [211] ATTITUDE_TARGET
[10:24:16.600780] [212] VFR_HUD
[10:24:16.601905] [213] SYSTEM_TIME
[10:24:17.098985] [244] RADIO
[10:24:17.101926] [244] RADIO_STATUS
[10:24:17.450107] [214] VFR_HUD
[10:24:17.555092] [215] HEARTBEAT
[10:24:18.129122] [245] RADIO
[10:24:18.132059] [245] RADIO_STATUS
[10:24:18.250081] [216] VFR_HUD
[10:24:18.609276] [217] HEARTBEAT
[10:24:18.616182] [218] ATTITUDE_TARGET
[10:24:18.939190] [219] VFR_HUD
[10:24:19.169506] [246] RADIO
[10:24:19.172271] [246] RADIO_STATUS
[10:24:19.625186] [220] HEARTBEAT
[10:24:19.749185] [221] VFR_HUD
[10:24:20.094221] [247] RADIO
[10:24:20.097169] [247] RADIO_STATUS
[10:24:20.557536] [222] HEARTBEAT
[10:24:20.563370] [223] SYS_STATUS
[10:24:20.796483] [225] ATTITUDE_TARGET
[10:24:20.800240] [226] VFR_HUD
[10:24:21.118390] [248] RADIO
[10:24:21.121533] [248] RADIO_STATUS
[10:24:21.364362] [227] VFR_HUD
[10:24:21.584392] [228] HEARTBEAT
[10:24:22.158465] [229] VFR_HUD
[10:24:22.191411] [249] RADIO
[10:24:22.194520] [249] RADIO_STATUS
[10:24:22.628501] [230] HEARTBEAT
[10:24:22.635435] [231] ATTITUDE_TARGET
[10:24:23.078474] [232] VFR_HUD
[10:24:23.187466] [250] RADIO
[10:24:23.190524] [250] RADIO_STATUS
[10:24:23.534571] [233] HEARTBEAT
[10:24:23.768621] [234] VFR_HUD
[10:24:24.232549] [251] RADIO
[10:24:24.235565] [251] RADIO_STATUS
[10:24:24.591718] [235] HEARTBEAT
[10:24:24.597554] [236] SYS_STATUS
[10:24:24.637644] [237] BATTERY_STATUS
[10:24:24.645631] [238] ATTITUDE_TARGET
[10:24:24.650601] [239] VFR_HUD
[10:24:25.152642] [252] RADIO
[10:24:25.155652] [252] RADIO_STATUS
[10:24:25.613698] [240] VFR_HUD
[10:24:25.616653] [241] HEARTBEAT
[10:24:26.176790] [253] RADIO
[10:24:26.179689] [253] RADIO_STATUS
[10:24:26.297795] [242] VFR_HUD
[10:24:26.523843] [243] HEARTBEAT
[10:24:26.545877] [244] ATTITUDE_TARGET
[10:24:26.987882] [245] VFR_HUD
[10:24:27.221829] [254] RADIO
[10:24:27.224820] [254] RADIO_STATUS
[10:24:27.797015] [247] VFR_HUD
[10:24:28.141933] [255] RADIO
[10:24:28.144878] [255] RADIO_STATUS
[10:24:28.604970] [248] HEARTBEAT
[10:24:28.610958] [249] SYS_STATUS
[10:24:28.845272] [251] ATTITUDE_TARGET
[10:24:28.847958] [252] VFR_HUD
[10:24:29.166178] [0] RADIO
[10:24:29.169064] [0] RADIO_STATUS
[10:24:29.407023] [253] VFR_HUD
[10:24:29.637084] [254] HEARTBEAT
[10:24:30.206333] [255] VFR_HUD
[10:24:30.239325] [1] RADIO
[10:24:30.242114] [1] RADIO_STATUS
[10:24:30.571144] [0] HEARTBEAT
[10:24:30.579234] [1] ATTITUDE_TARGET
[10:24:31.126195] [2] VFR_HUD
[10:24:31.137164] [2] RADIO
[10:24:31.140157] [2] RADIO_STATUS
[10:24:31.581271] [3] HEARTBEAT
[10:24:31.816244] [4] VFR_HUD
[10:24:32.155298] [3] RADIO
[10:24:32.158328] [3] RADIO_STATUS
[10:24:32.638560] [5] HEARTBEAT
[10:24:32.645517] [6] SYS_STATUS
[10:24:32.684360] [7] BATTERY_STATUS
[10:24:32.692408] [8] ATTITUDE_TARGET
[10:24:32.697349] [9] VFR_HUD
[10:24:33.194527] [4] RADIO
[10:24:33.197395] [4] RADIO_STATUS
[10:24:33.551476] [10] VFR_HUD
[10:24:33.554501] [11] HEARTBEAT
[10:24:34.224553] [5] RADIO
[10:24:34.227473] [5] RADIO_STATUS
[10:24:34.263540] [12] VFR_HUD
[10:24:34.584616] [13] HEARTBEAT
[10:24:34.592632] [14] ATTITUDE_TARGET
[10:24:35.034639] [15] VFR_HUD
[10:24:35.263630] [6] RADIO
[10:24:35.266558] [6] RADIO_STATUS
[10:24:35.844769] [17] VFR_HUD
[10:24:36.183721] [7] RADIO
[10:24:36.186670] [7] RADIO_STATUS
[10:24:36.541772] [18] HEARTBEAT
[10:24:36.548794] [19] SYS_STATUS
[10:24:36.670841] [20] BATTERY_STATUS
[10:24:36.671835] [21] EXTENDED_SYS_STATE
[10:24:36.679839] [22] ATTITUDE_TARGET
[10:24:36.684861] [23] VFR_HUD
[10:24:36.688825] [24] SYSTEM_TIME
[10:24:37.213907] [8] RADIO
[10:24:37.216891] [8] RADIO_STATUS
[10:24:37.333845] [25] VFR_HUD
[10:24:37.561003] [26] HEARTBEAT
[10:24:38.143988] [27] VFR_HUD
[10:24:38.252906] [9] RADIO
[10:24:38.257886] [9] RADIO_STATUS
[10:24:38.612983] [28] HEARTBEAT
[10:24:38.621047] [29] ATTITUDE_TARGET
[10:24:38.943022] [30] VFR_HUD
[10:24:39.173044] [10] RADIO
[10:24:39.175986] [10] RADIO_STATUS
[10:24:39.629090] [31] HEARTBEAT
[10:24:39.758069] [32] VFR_HUD
[10:24:40.202227] [11] RADIO
[10:24:40.205129] [11] RADIO_STATUS
[10:24:40.560169] [33] HEARTBEAT
[10:24:40.567244] [34] SYS_STATUS
[10:24:40.682223] [35] BATTERY_STATUS
[10:24:40.799153] [36] ATTITUDE_TARGET
[10:24:40.804139] [37] VFR_HUD
[10:24:41.242183] [12] RADIO
[10:24:41.245172] [12] RADIO_STATUS
[10:24:41.472308] [38] VFR_HUD
[10:24:41.588240] [39] HEARTBEAT
[10:24:42.162432] [40] VFR_HUD
[10:24:42.189394] [13] RADIO
[10:24:42.192287] [13] RADIO_STATUS
[10:24:42.631323] [41] HEARTBEAT
[10:24:42.639371] [42] ATTITUDE_TARGET
[10:24:42.977512] [43] VFR_HUD
[10:24:43.191426] [14] RADIO
[10:24:43.194358] [14] RADIO_STATUS
[10:24:43.537454] [44] HEARTBEAT
[10:24:43.771424] [45] VFR_HUD
[10:24:44.230499] [15] RADIO
[10:24:44.233424] [15] RADIO_STATUS
[10:24:44.588582] [46] HEARTBEAT
[10:24:44.595590] [47] SYS_STATUS
[10:24:44.714636] [48] BATTERY_STATUS
[10:24:44.722730] [49] ATTITUDE_TARGET
[10:24:44.753722] [50] VFR_HUD
[10:24:45.260861] [16] RADIO
[10:24:45.263573] [16] RADIO_STATUS
[10:24:45.381561] [51] VFR_HUD
[10:24:45.606583] [52] HEARTBEAT
[10:24:46.190911] [53] VFR_HUD
[10:24:46.300647] [17] RADIO
[10:24:46.303618] [17] RADIO_STATUS
[10:24:46.526695] [54] HEARTBEAT
[10:24:46.552602] [55] ATTITUDE_TARGET
[10:24:46.993674] [56] VFR_HUD
[10:24:47.224717] [18] RADIO
[10:24:47.227679] [18] RADIO_STATUS
[10:24:47.571831] [57] HEARTBEAT
[10:24:47.801171] [58] VFR_HUD
[10:24:48.249831] [19] RADIO
[10:24:48.252842] [19] RADIO_STATUS
[10:24:48.607894] [59] HEARTBEAT
[10:24:48.614914] [60] SYS_STATUS
[10:24:48.728911] [61] BATTERY_STATUS
[10:24:48.846901] [62] ATTITUDE_TARGET
[10:24:48.851873] [63] VFR_HUD
[10:24:49.288962] [20] RADIO
[10:24:49.291911] [20] RADIO_STATUS
[10:24:49.519985] [64] VFR_HUD
[10:24:49.527102] [65] HEARTBEAT
[10:24:50.210076] [66] VFR_HUD
[10:24:50.242229] [21] RADIO
[10:24:50.245245] [21] RADIO_STATUS
[10:24:51.025333] [69] VFR_HUD
[10:24:51.238212] [22] RADIO
[10:24:51.241451] [22] RADIO_STATUS
[10:24:51.584194] [70] HEARTBEAT
[10:24:51.819228] [71] VFR_HUD
[10:24:52.284388] [23] RADIO
[10:24:52.286410] [23] RADIO_STATUS
[10:24:52.641635] [72] HEARTBEAT
[10:24:52.648536] [73] SYS_STATUS
[10:24:52.687291] [74] BATTERY_STATUS
[10:24:52.695514] [75] ATTITUDE_TARGET
[10:24:52.701962] [76] VFR_HUD
[10:24:53.309053] [24] RADIO
[10:24:53.310866] [24] RADIO_STATUS
[10:24:53.559691] [77] VFR_HUD
[10:24:53.562318] [78] HEARTBEAT
[10:24:54.238420] [79] VFR_HUD
[10:24:54.352440] [25] RADIO
[10:24:54.356710] [25] RADIO_STATUS
[10:24:54.587393] [80] HEARTBEAT
[10:24:54.595413] [81] ATTITUDE_TARGET
[10:24:55.037415] [82] VFR_HUD
[10:24:55.272622] [26] RADIO
[10:24:55.275521] [26] RADIO_STATUS
[10:24:55.618502] [83] HEARTBEAT
[10:24:55.847483] [84] VFR_HUD
[10:24:56.296674] [27] RADIO
[10:24:56.299480] [27] RADIO_STATUS
[10:24:56.545118] [85] HEARTBEAT
[10:24:56.551659] [86] SYS_STATUS
[10:24:56.672596] [87] BATTERY_STATUS
[10:24:56.676289] [88] EXTENDED_SYS_STATE
[10:24:56.682582] [89] ATTITUDE_TARGET
[10:24:56.687564] [90] VFR_HUD
[10:24:56.690608] [91] SYSTEM_TIME
[10:24:57.336704] [92] VFR_HUD
[10:24:57.368621] [28] RADIO
[10:24:57.371640] [28] RADIO_STATUS
[10:24:57.562769] [93] HEARTBEAT
[10:24:58.151718] [94] VFR_HUD
[10:24:58.268354] [29] RADIO
[10:24:58.269789] [29] RADIO_STATUS
[10:24:58.945907] [97] VFR_HUD
[10:24:59.285923] [30] RADIO
[10:24:59.288854] [30] RADIO_STATUS
[10:24:59.521906] [98] HEARTBEAT
[10:24:59.865860] [99] VFR_HUD
[10:25:00.324987] [31] RADIO
[10:25:00.328089] [31] RADIO_STATUS
[10:25:00.564077] [100] HEARTBEAT
[10:25:00.570030] [101] SYS_STATUS
[10:25:00.690177] [102] BATTERY_STATUS
[10:25:00.802034] [103] ATTITUDE_TARGET
[10:25:00.807205] [104] VFR_HUD
[10:25:01.355095] [32] RADIO
[10:25:01.358048] [32] RADIO_STATUS
[10:25:01.393108] [105] VFR_HUD
[10:25:01.591063] [106] HEARTBEAT
[10:25:02.165165] [107] VFR_HUD
[10:25:02.274338] [33] RADIO
[10:25:02.277115] [33] RADIO_STATUS
[10:25:02.634186] [108] HEARTBEAT
[10:25:02.642246] [109] ATTITUDE_TARGET
[10:25:02.977255] [110] VFR_HUD
[10:25:03.314208] [34] RADIO
[10:25:03.317262] [34] RADIO_STATUS
[10:25:03.540248] [111] HEARTBEAT
[10:25:03.775270] [112] VFR_HUD
[10:25:04.344311] [35] RADIO
[10:25:04.346247] [35] RADIO_STATUS
[10:25:04.592287] [113] HEARTBEAT
[10:25:04.598476] [114] SYS_STATUS
[10:25:04.717267] [115] BATTERY_STATUS
[10:25:04.725295] [116] ATTITUDE_TARGET
[10:25:04.755317] [117] VFR_HUD
[10:25:05.384427] [118] VFR_HUD
[10:25:05.412689] [36] RADIO
[10:25:05.414330] [36] RADIO_STATUS
[10:25:05.609907] [119] HEARTBEAT
[10:25:06.193750] [120] VFR_HUD
[10:25:06.302428] [37] RADIO
[10:25:06.305427] [37] RADIO_STATUS
[10:25:06.529453] [121] HEARTBEAT
[10:25:06.551461] [122] ATTITUDE_TARGET
[10:25:06.993562] [123] VFR_HUD
[10:25:07.332507] [38] RADIO
[10:25:07.335451] [38] RADIO_STATUS
[10:25:07.569765] [124] HEARTBEAT
[10:25:07.913643] [125] VFR_HUD
[10:25:08.372826] [39] RADIO
[10:25:08.375654] [39] RADIO_STATUS
[10:25:08.610651] [126] HEARTBEAT
[10:25:08.617654] [127] SYS_STATUS
[10:25:08.732689] [128] BATTERY_STATUS
[10:25:08.849665] [129] ATTITUDE_TARGET
[10:25:08.854619] [130] VFR_HUD
[10:25:09.292756] [40] RADIO
[10:25:09.294895] [40] RADIO_STATUS
[10:25:09.417834] [131] VFR_HUD
[10:25:09.529896] [132] HEARTBEAT
[10:25:10.212858] [133] VFR_HUD
[10:25:10.321859] [41] RADIO
[10:25:10.324804] [41] RADIO_STATUS
[10:25:10.571881] [134] HEARTBEAT
[10:25:10.579945] [135] ATTITUDE_TARGET
[10:25:11.028023] [136] VFR_HUD
[10:25:11.361902] [42] RADIO
[10:25:11.364835] [42] RADIO_STATUS
[10:25:11.587945] [137] HEARTBEAT
[10:25:11.822045] [138] VFR_HUD
[10:25:12.391057] [43] RADIO
[10:25:12.393976] [43] RADIO_STATUS
[10:25:12.639195] [139] HEARTBEAT
[10:25:12.646164] [140] SYS_STATUS
[10:25:12.765051] [141] BATTERY_STATUS
[10:25:12.772126] [142] ATTITUDE_TARGET
[10:25:12.803144] [143] VFR_HUD
[10:25:13.431192] [144] VFR_HUD
[10:25:13.458196] [44] RADIO
[10:25:13.461176] [44] RADIO_STATUS
[10:25:14.241342] [146] VFR_HUD
[10:25:14.356244] [45] RADIO
[10:25:14.359181] [45] RADIO_STATUS
[10:25:14.590261] [147] HEARTBEAT
[10:25:14.598598] [148] ATTITUDE_TARGET
[10:25:14.931271] [149] VFR_HUD
[10:25:15.380265] [46] RADIO
[10:25:15.383280] [46] RADIO_STATUS
[10:25:15.621329] [150] HEARTBEAT
[10:25:15.730377] [151] VFR_HUD
[10:25:16.425548] [47] RADIO
[10:25:16.428370] [47] RADIO_STATUS
[10:25:16.553436] [152] HEARTBEAT
[10:25:16.562185] [153] SYS_STATUS
[10:25:16.594674] [154] BATTERY_STATUS
[10:25:16.595393] [155] EXTENDED_SYS_STATE
[10:25:16.603456] [156] ATTITUDE_TARGET
[10:25:16.608411] [157] VFR_HUD
[10:25:16.612650] [158] SYSTEM_TIME
[10:25:17.340453] [159] VFR_HUD
[10:25:17.372493] [48] RADIO
[10:25:17.375474] [48] RADIO_STATUS
[10:25:17.565525] [160] HEARTBEAT
[10:25:18.259482] [161] VFR_HUD
[10:25:18.369520] [49] RADIO
[10:25:18.372541] [49] RADIO_STATUS
[10:25:18.624585] [162] HEARTBEAT
[10:25:18.632519] [163] ATTITUDE_TARGET
[10:25:18.949646] [164] VFR_HUD
[10:25:19.414592] [50] RADIO
[10:25:19.417797] [50] RADIO_STATUS
[10:25:19.525758] [165] HEARTBEAT
[10:25:19.764698] [166] VFR_HUD
[10:25:20.438634] [51] RADIO
[10:25:20.441716] [51] RADIO_STATUS
[10:25:20.566733] [167] HEARTBEAT
[10:25:20.573779] [168] SYS_STATUS
[10:25:20.693847] [169] BATTERY_STATUS
[10:25:20.805736] [170] ATTITUDE_TARGET
[10:25:20.810697] [171] VFR_HUD
[10:25:21.358758] [52] RADIO
[10:25:21.360726] [52] RADIO_STATUS
[10:25:21.478853] [172] VFR_HUD
[10:25:22.168950] [174] VFR_HUD
[10:25:22.402915] [53] RADIO
[10:25:22.406033] [53] RADIO_STATUS
[10:25:22.638047] [175] HEARTBEAT
[10:25:22.645934] [176] ATTITUDE_TARGET
[10:25:22.978870] [177] VFR_HUD
[10:25:23.427984] [54] RADIO
[10:25:23.430958] [54] RADIO_STATUS
[10:25:23.543945] [178] HEARTBEAT
[10:25:23.778101] [179] VFR_HUD
[10:25:24.472523] [55] RADIO
[10:25:24.476494] [55] RADIO_STATUS
[10:25:24.595365] [180] HEARTBEAT
[10:25:24.602459] [181] SYS_STATUS
[10:25:24.721115] [182] BATTERY_STATUS
[10:25:24.728466] [183] ATTITUDE_TARGET
[10:25:24.760900] [184] VFR_HUD
[10:25:25.390026] [185] VFR_HUD
[10:25:25.415920] [56] RADIO
[10:25:25.418537] [56] RADIO_STATUS
[10:25:25.613685] [186] HEARTBEAT
[10:25:26.417253] [57] RADIO
[10:25:26.419172] [57] RADIO_STATUS
[10:25:26.546288] [188] HEARTBEAT
[10:25:26.554222] [189] ATTITUDE_TARGET
[10:25:26.997535] [190] VFR_HUD
[10:25:27.456309] [58] RADIO
[10:25:27.459467] [58] RADIO_STATUS
[10:25:27.572314] [191] HEARTBEAT
[10:25:27.813967] [192] VFR_HUD
[10:25:28.486362] [59] RADIO
[10:25:28.489394] [59] RADIO_STATUS
[10:25:28.614450] [193] HEARTBEAT
[10:25:28.621463] [194] SYS_STATUS
[10:25:28.735509] [195] BATTERY_STATUS
[10:25:28.853414] [196] ATTITUDE_TARGET
[10:25:28.858693] [197] VFR_HUD
[10:25:29.405467] [60] RADIO
[10:25:29.408459] [60] RADIO_STATUS
[10:25:29.444480] [198] VFR_HUD
[10:25:29.521442] [199] HEARTBEAT
[10:25:30.216803] [200] VFR_HUD
[10:25:30.445533] [61] RADIO
[10:25:30.449764] [61] RADIO_STATUS
[10:25:30.575582] [201] HEARTBEAT
[10:25:30.583563] [202] ATTITUDE_TARGET
[10:25:31.030644] [203] VFR_HUD
[10:25:31.474905] [62] RADIO
[10:25:31.477671] [62] RADIO_STATUS
[10:25:31.590975] [204] HEARTBEAT
[10:25:31.825730] [205] VFR_HUD
[10:25:32.394769] [63] RADIO
[10:25:32.397710] [63] RADIO_STATUS
[10:25:32.642813] [206] HEARTBEAT
[10:25:32.649800] [207] SYS_STATUS
[10:25:32.767714] [208] BATTERY_STATUS
[10:25:32.775950] [209] ATTITUDE_TARGET
[10:25:32.806026] [210] VFR_HUD
[10:25:33.434765] [211] VFR_HUD
[10:25:33.461791] [64] RADIO
[10:25:33.464891] [64] RADIO_STATUS
[10:25:33.555832] [212] HEARTBEAT
[10:25:34.463971] [65] RADIO
[10:25:34.466865] [65] RADIO_STATUS
[10:25:34.594099] [214] HEARTBEAT
[10:25:34.602274] [215] ATTITUDE_TARGET
[10:25:34.940003] [216] VFR_HUD
[10:25:35.503951] [66] RADIO
[10:25:35.508202] [66] RADIO_STATUS
[10:25:35.624984] [217] HEARTBEAT
[10:25:35.734916] [218] VFR_HUD
[10:25:36.424160] [67] RADIO
[10:25:36.427370] [67] RADIO_STATUS
[10:25:37.345298] [226] VFR_HUD
[10:25:37.457863] [68] RADIO
[10:25:37.459054] [68] RADIO_STATUS
[10:25:37.569215] [227] HEARTBEAT
[10:25:38.159351] [228] VFR_HUD
[10:25:38.493207] [69] RADIO
[10:25:38.496176] [69] RADIO_STATUS
[10:25:38.628406] [229] HEARTBEAT
[10:25:38.636301] [230] ATTITUDE_TARGET
[10:25:38.954255] [231] VFR_HUD
[10:25:39.522562] [70] RADIO
[10:25:39.525342] [70] RADIO_STATUS
[10:25:39.556617] [232] HEARTBEAT
[10:25:39.763359] [233] VFR_HUD
[10:25:40.442456] [71] RADIO
[10:25:40.445435] [71] RADIO_STATUS
[10:25:40.570477] [234] HEARTBEAT
[10:25:40.577494] [235] SYS_STATUS
[10:25:40.697492] [236] BATTERY_STATUS
[10:25:40.809570] [237] ATTITUDE_TARGET
[10:25:40.814459] [238] VFR_HUD
[10:25:41.372533] [239] VFR_HUD
[10:25:41.487525] [72] RADIO
[10:25:41.490581] [72] RADIO_STATUS
[10:25:41.603545] [240] HEARTBEAT
[10:25:42.172729] [241] VFR_HUD
[10:25:42.511671] [73] RADIO
[10:25:42.514646] [73] RADIO_STATUS
[10:25:42.642052] [242] HEARTBEAT
[10:25:42.649711] [243] ATTITUDE_TARGET
[10:25:42.982736] [244] VFR_HUD
[10:25:43.547745] [245] HEARTBEAT
[10:25:43.661765] [74] RADIO
[10:25:43.664751] [74] RADIO_STATUS
[10:25:43.781817] [246] VFR_HUD
[10:25:44.475822] [75] RADIO
[10:25:44.478763] [75] RADIO_STATUS
[10:25:44.724954] [249] BATTERY_STATUS
[10:25:44.731933] [250] ATTITUDE_TARGET
[10:25:44.762993] [251] VFR_HUD
[10:25:45.391077] [252] VFR_HUD
[10:25:45.500007] [76] RADIO
[10:25:45.502984] [76] RADIO_STATUS
[10:25:45.617085] [253] HEARTBEAT
[10:25:46.206017] [254] VFR_HUD
[10:25:46.550110] [255] HEARTBEAT
[10:25:46.558475] [0] ATTITUDE_TARGET
[10:25:46.568082] [77] RADIO
[10:25:46.571146] [77] RADIO_STATUS
[10:25:47.001060] [1] VFR_HUD
[10:25:47.570103] [78] RADIO
[10:25:47.573261] [78] RADIO_STATUS
[10:25:47.686244] [2] HEARTBEAT
[10:25:47.815190] [3] VFR_HUD
[10:25:48.617361] [4] HEARTBEAT
[10:25:48.624228] [5] SYS_STATUS
[10:25:48.637240] [79] RADIO
[10:25:48.640263] [79] RADIO_STATUS
[10:25:48.744271] [6] BATTERY_STATUS
[10:25:48.856452] [7] ATTITUDE_TARGET
[10:25:48.861299] [8] VFR_HUD
[10:25:49.425363] [9] VFR_HUD
[10:25:49.536987] [10] HEARTBEAT
[10:25:49.567305] [80] RADIO
[10:25:49.570530] [80] RADIO_STATUS
[10:25:50.219402] [11] VFR_HUD
[10:25:50.559049] [81] RADIO
[10:25:50.561434] [81] RADIO_STATUS
[10:25:50.688461] [12] HEARTBEAT
[10:25:50.696492] [13] ATTITUDE_TARGET
[10:25:51.029449] [14] VFR_HUD
[10:25:51.594528] [15] HEARTBEAT
[10:25:51.626527] [82] RADIO
[10:25:51.629542] [82] RADIO_STATUS
[10:25:51.829547] [16] VFR_HUD
[10:25:52.521588] [83] RADIO
[10:25:52.525741] [83] RADIO_STATUS
[10:25:52.771783] [19] BATTERY_STATUS
[10:25:52.779689] [20] ATTITUDE_TARGET
[10:25:52.809655] [21] VFR_HUD
[10:25:53.333768] [22] VFR_HUD
[10:25:53.547685] [84] RADIO
[10:25:53.550720] [84] RADIO_STATUS
[10:25:53.663791] [23] HEARTBEAT
[10:25:54.133782] [24] VFR_HUD
[10:25:54.597810] [25] HEARTBEAT
[10:25:54.605848] [26] ATTITUDE_TARGET
[10:25:54.614864] [85] RADIO
[10:25:54.617830] [85] RADIO_STATUS
[10:25:55.047842] [27] VFR_HUD
[10:25:55.616981] [86] RADIO
[10:25:55.619834] [86] RADIO_STATUS
[10:25:55.742082] [28] HEARTBEAT
[10:25:55.745932] [29] VFR_HUD
[10:25:56.537017] [87] RADIO
[10:25:56.539959] [87] RADIO_STATUS
[10:25:56.600045] [30] HEARTBEAT
[10:25:56.607107] [31] SYS_STATUS
[10:25:56.615063] [32] BATTERY_STATUS
[10:25:56.615971] [33] EXTENDED_SYS_STATE
[10:25:56.632990] [34] ATTITUDE_TARGET
[10:25:56.638079] [35] VFR_HUD
[10:25:56.641308] [36] SYSTEM_TIME
[10:25:57.347084] [37] VFR_HUD
[10:25:57.573287] [38] HEARTBEAT
[10:25:57.686154] [88] RADIO
[10:25:57.689107] [88] RADIO_STATUS
[10:25:58.157649] [39] VFR_HUD
[10:25:58.606352] [89] RADIO
[10:25:58.609219] [89] RADIO_STATUS
[10:25:58.657840] [40] HEARTBEAT
[10:25:58.661267] [41] ATTITUDE_TARGET
[10:25:58.956256] [42] VFR_HUD
[10:25:59.645304] [90] RADIO
[10:25:59.648332] [90] RADIO_STATUS
[10:25:59.766310] [44] VFR_HUD
[10:26:00.573385] [45] HEARTBEAT
[10:26:00.585780] [46] SYS_STATUS
[10:26:00.675352] [91] RADIO
[10:26:00.678370] [91] RADIO_STATUS
[10:26:01.376387] [50] VFR_HUD
[10:26:01.595478] [92] RADIO
[10:26:01.598485] [92] RADIO_STATUS
[10:26:01.629480] [51] HEARTBEAT
[10:26:02.175592] [52] VFR_HUD
[10:26:02.539650] [53] HEARTBEAT
[10:26:02.548747] [54] ATTITUDE_TARGET
[10:26:02.634566] [93] RADIO
[10:26:02.637636] [93] RADIO_STATUS
[10:26:03.550724] [56] HEARTBEAT
[10:26:03.664872] [94] RADIO
[10:26:03.667675] [94] RADIO_STATUS
[10:26:03.785694] [57] VFR_HUD
[10:26:04.589825] [95] RADIO
[10:26:04.592837] [95] RADIO_STATUS
[10:26:04.643864] [58] HEARTBEAT
[10:26:04.650809] [59] SYS_STATUS
[10:26:04.658862] [60] BATTERY_STATUS
[10:26:04.670815] [61] ATTITUDE_TARGET
[10:26:04.675868] [62] VFR_HUD
[10:26:05.394921] [63] VFR_HUD
[10:26:05.620983] [64] HEARTBEAT
[10:26:05.733851] [96] RADIO
[10:26:05.736858] [96] RADIO_STATUS
[10:26:06.210027] [65] VFR_HUD
[10:26:06.554267] [66] HEARTBEAT
[10:26:06.562093] [67] ATTITUDE_TARGET
[10:26:06.654056] [97] RADIO
[10:26:06.658123] [97] RADIO_STATUS
[10:26:07.004102] [68] VFR_HUD
[10:26:07.693095] [98] RADIO
[10:26:07.696038] [98] RADIO_STATUS
[10:26:07.819280] [70] VFR_HUD
[10:26:08.621241] [71] HEARTBEAT
[10:26:08.628214] [72] SYS_STATUS
[10:26:08.641238] [99] RADIO
[10:26:08.644201] [99] RADIO_STATUS
[10:26:08.860291] [74] ATTITUDE_TARGET
[10:26:08.865224] [75] VFR_HUD
[10:26:09.423264] [76] VFR_HUD
[10:26:09.529307] [77] HEARTBEAT
[10:26:09.642295] [100] RADIO
[10:26:09.645318] [100] RADIO_STATUS
[10:26:10.223410] [78] VFR_HUD
[10:26:10.582454] [79] HEARTBEAT
[10:26:10.590380] [80] ATTITUDE_TARGET
[10:26:10.710408] [101] RADIO
[10:26:10.713373] [101] RADIO_STATUS
[10:26:11.598583] [82] HEARTBEAT
[10:26:11.711488] [102] RADIO
[10:26:11.714502] [102] RADIO_STATUS
[10:26:11.750483] [83] VFR_HUD
[10:26:12.517694] [84] HEARTBEAT
[10:26:12.537717] [85] SYS_STATUS
[10:26:12.586646] [86] BATTERY_STATUS
[10:26:12.594744] [87] ATTITUDE_TARGET
[10:26:12.598665] [88] VFR_HUD
[10:26:12.753703] [103] RADIO
[10:26:12.757875] [103] RADIO_STATUS
[10:26:13.569737] [89] VFR_HUD
[10:26:13.572776] [90] HEARTBEAT
[10:26:13.782856] [104] RADIO
[10:26:13.785755] [104] RADIO_STATUS
[10:26:14.133769] [91] VFR_HUD
[10:26:14.602865] [92] HEARTBEAT
[10:26:14.610844] [93] ATTITUDE_TARGET
[10:26:14.702869] [105] RADIO
[10:26:14.705828] [105] RADIO_STATUS
[10:26:14.948972] [94] VFR_HUD
[10:26:15.743188] [96] VFR_HUD
[10:26:15.775018] [106] RADIO
[10:26:15.777927] [106] RADIO_STATUS
[10:26:16.560021] [97] HEARTBEAT
[10:26:16.567044] [98] SYS_STATUS
[10:26:16.689040] [99] BATTERY_STATUS
[10:26:16.689944] [100] EXTENDED_SYS_STATE
[10:26:16.698022] [101] ATTITUDE_TARGET
[10:26:16.702982] [102] VFR_HUD
[10:26:16.707905] [103] SYSTEM_TIME
[10:26:16.734026] [107] RADIO
[10:26:16.737034] [107] RADIO_STATUS
[10:26:17.352084] [104] VFR_HUD
[10:26:17.578119] [105] HEARTBEAT
[10:26:17.693672] [108] RADIO
[10:26:17.694180] [108] RADIO_STATUS
[10:26:18.162224] [106] VFR_HUD
[10:26:18.631292] [107] HEARTBEAT
[10:26:18.640407] [108] ATTITUDE_TARGET
[10:26:18.759212] [109] RADIO
[10:26:18.761222] [109] RADIO_STATUS
[10:26:18.961242] [109] VFR_HUD
[10:26:19.542415] [110] HEARTBEAT
[10:26:19.760300] [110] RADIO
[10:26:19.763478] [110] RADIO_STATUS
[10:26:19.881414] [111] VFR_HUD
[10:26:20.578580] [112] HEARTBEAT
[10:26:20.585516] [113] SYS_STATUS
[10:26:20.680419] [111] RADIO
[10:26:20.683492] [111] RADIO_STATUS
[10:26:20.720484] [114] BATTERY_STATUS
[10:26:20.747504] [115] ATTITUDE_TARGET
[10:26:20.752420] [116] VFR_HUD
[10:26:21.611551] [118] HEARTBEAT
[10:26:21.724576] [112] RADIO
[10:26:21.729330] [112] RADIO_STATUS
[10:26:22.180713] [119] VFR_HUD
[10:26:22.649639] [120] HEARTBEAT
[10:26:22.656629] [121] ATTITUDE_TARGET
[10:26:22.749627] [113] RADIO
[10:26:22.752667] [113] RADIO_STATUS
[10:26:22.994662] [122] VFR_HUD
[10:26:23.554778] [123] HEARTBEAT
[10:26:23.789732] [124] VFR_HUD
[10:26:23.821807] [114] RADIO
[10:26:23.824657] [114] RADIO_STATUS
[10:26:24.611808] [125] HEARTBEAT
[10:26:24.618767] [126] SYS_STATUS
[10:26:24.657818] [127] BATTERY_STATUS
[10:26:24.665791] [128] ATTITUDE_TARGET
[10:26:24.670785] [129] VFR_HUD
[10:26:24.708792] [115] RADIO
[10:26:24.711756] [115] RADIO_STATUS
[10:26:25.529894] [130] VFR_HUD
[10:26:25.532931] [131] HEARTBEAT
[10:26:25.737941] [116] RADIO
[10:26:25.740926] [116] RADIO_STATUS
[10:26:26.213949] [132] VFR_HUD
[10:26:26.558260] [133] HEARTBEAT
[10:26:26.566097] [134] ATTITUDE_TARGET
[10:26:26.778025] [117] RADIO
[10:26:26.781094] [117] RADIO_STATUS
[10:26:27.009100] [135] VFR_HUD
[10:26:27.589161] [136] HEARTBEAT
[10:26:27.809469] [118] RADIO
[10:26:27.811054] [118] RADIO_STATUS
[10:26:27.928142] [137] VFR_HUD
[10:26:28.626343] [138] HEARTBEAT
[10:26:28.632184] [139] SYS_STATUS
[10:26:28.727334] [119] RADIO
[10:26:28.730211] [119] RADIO_STATUS
[10:26:28.797238] [140] BATTERY_STATUS
[10:26:28.805250] [141] ATTITUDE_TARGET
[10:26:28.810259] [142] VFR_HUD
[10:26:29.544224] [143] VFR_HUD
[10:26:29.547257] [144] HEARTBEAT
[10:26:29.767206] [120] RADIO
[10:26:29.770212] [120] RADIO_STATUS
[10:26:30.123379] [145] VFR_HUD
[10:26:30.696357] [146] HEARTBEAT
[10:26:30.706106] [147] ATTITUDE_TARGET
[10:26:30.797303] [121] RADIO
[10:26:30.800315] [121] RADIO_STATUS
[10:26:31.037336] [148] VFR_HUD
[10:26:31.603430] [149] HEARTBEAT
[10:26:31.722423] [122] RADIO
[10:26:31.724390] [122] RADIO_STATUS
[10:26:32.534609] [151] HEARTBEAT
[10:26:32.541507] [152] SYS_STATUS
[10:26:32.661494] [153] BATTERY_STATUS
[10:26:32.773565] [154] ATTITUDE_TARGET
[10:26:32.778561] [155] VFR_HUD
[10:26:32.784481] [123] RADIO
[10:26:32.787488] [123] RADIO_STATUS
[10:26:33.342568] [156] VFR_HUD
[10:26:33.562594] [157] HEARTBEAT
[10:26:33.786619] [124] RADIO
[10:26:33.789761] [124] RADIO_STATUS
[10:26:34.136598] [158] VFR_HUD
[10:26:34.606133] [159] HEARTBEAT
[10:26:34.613644] [160] ATTITUDE_TARGET
[10:26:34.825688] [125] RADIO
[10:26:34.828642] [125] RADIO_STATUS
[10:26:34.946723] [161] VFR_HUD
[10:26:35.516766] [162] HEARTBEAT
[10:26:35.746719] [163] VFR_HUD
[10:26:35.773744] [126] RADIO
[10:26:35.776729] [126] RADIO_STATUS
[10:26:36.563761] [164] HEARTBEAT
[10:26:36.569757] [165] SYS_STATUS
[10:26:36.691787] [166] BATTERY_STATUS
[10:26:36.693818] [167] EXTENDED_SYS_STATE
[10:26:36.701987] [168] ATTITUDE_TARGET
[10:26:36.706901] [169] VFR_HUD
[10:26:36.709799] [170] SYSTEM_TIME
[10:26:36.775802] [127] RADIO
[10:26:36.777755] [127] RADIO_STATUS
[10:26:37.355910] [171] VFR_HUD
[10:26:37.580952] [172] HEARTBEAT
[10:26:37.814929] [128] RADIO
[10:26:37.817922] [128] RADIO_STATUS
[10:26:38.166183] [173] VFR_HUD
[10:26:38.743942] [174] HEARTBEAT
[10:26:38.751931] [175] ATTITUDE_TARGET
[10:26:38.763007] [129] RADIO
[10:26:38.764947] [129] RADIO_STATUS
[10:26:38.965023] [176] VFR_HUD
[10:26:39.540972] [177] HEARTBEAT
[10:26:39.764125] [130] RADIO
[10:26:39.767206] [130] RADIO_STATUS
[10:26:40.582714] [179] HEARTBEAT
[10:26:40.589395] [180] SYS_STATUS
[10:26:40.704185] [181] BATTERY_STATUS
[10:26:40.821274] [182] ATTITUDE_TARGET
[10:26:40.826181] [183] VFR_HUD
[10:26:40.860153] [131] RADIO
[10:26:40.863153] [131] RADIO_STATUS
[10:26:41.389307] [184] VFR_HUD
[10:26:41.610220] [185] HEARTBEAT
[10:26:41.833322] [132] RADIO
[10:26:41.836530] [132] RADIO_STATUS
[10:26:42.184354] [186] VFR_HUD
[10:26:42.548553] [187] HEARTBEAT
[10:26:42.558624] [188] ATTITUDE_TARGET
[10:26:42.878397] [133] RADIO
[10:26:42.881305] [133] RADIO_STATUS
[10:26:42.999361] [189] VFR_HUD
[10:26:43.559522] [190] HEARTBEAT
[10:26:43.793416] [191] VFR_HUD
[10:26:43.825423] [134] RADIO
[10:26:43.828388] [134] RADIO_STATUS
[10:26:44.615515] [192] HEARTBEAT
[10:26:44.622490] [193] SYS_STATUS
[10:26:44.662483] [194] BATTERY_STATUS
[10:26:44.672961] [195] ATTITUDE_TARGET
[10:26:44.674485] [196] VFR_HUD
[10:26:44.822493] [135] RADIO
[10:26:44.825449] [135] RADIO_STATUS
[10:26:45.637640] [197] VFR_HUD
[10:26:45.641942] [198] HEARTBEAT
[10:26:45.867646] [136] RADIO
[10:26:45.870597] [136] RADIO_STATUS
[10:26:46.212707] [199] VFR_HUD
[10:26:46.561671] [200] HEARTBEAT
[10:26:46.569733] [201] ATTITUDE_TARGET
[10:26:46.891909] [137] RADIO
[10:26:46.894730] [137] RADIO_STATUS
[10:26:47.012696] [202] VFR_HUD
[10:26:47.592737] [203] HEARTBEAT
[10:26:47.936926] [138] RADIO
[10:26:47.939815] [138] RADIO_STATUS
[10:26:48.628938] [205] HEARTBEAT
[10:26:48.636020] [206] SYS_STATUS
[10:26:48.750874] [207] BATTERY_STATUS
[10:26:48.868102] [208] ATTITUDE_TARGET
[10:26:48.872891] [209] VFR_HUD
[10:26:48.906940] [139] RADIO
[10:26:48.909922] [139] RADIO_STATUS
[10:26:49.430907] [210] VFR_HUD
[10:26:49.537098] [211] HEARTBEAT
[10:26:49.881058] [140] RADIO
[10:26:49.883036] [140] RADIO_STATUS
[10:26:50.230980] [212] VFR_HUD
[10:26:50.595025] [213] HEARTBEAT
[10:26:50.603080] [214] ATTITUDE_TARGET
[10:26:50.931448] [215] VFR_HUD
[10:26:50.953228] [141] RADIO
[10:26:50.957298] [141] RADIO_STATUS
[10:26:51.608178] [216] HEARTBEAT
[10:26:51.736222] [217] VFR_HUD
[10:26:51.851369] [142] RADIO
[10:26:51.854184] [142] RADIO_STATUS
[10:26:52.538207] [218] HEARTBEAT
[10:26:52.545197] [219] SYS_STATUS
[10:26:52.664397] [220] BATTERY_STATUS
[10:26:52.777221] [221] ATTITUDE_TARGET
[10:26:52.782240] [222] VFR_HUD
[10:26:52.869232] [143] RADIO
[10:26:52.872220] [143] RADIO_STATUS
[10:26:53.340324] [223] VFR_HUD
[10:26:53.909276] [144] RADIO
[10:26:53.912328] [144] RADIO_STATUS
[10:26:54.140422] [225] VFR_HUD
[10:26:54.609390] [226] HEARTBEAT
[10:26:54.617359] [227] ATTITUDE_TARGET
[10:26:54.939461] [145] RADIO
[10:26:54.942410] [145] RADIO_STATUS
[10:26:55.059484] [228] VFR_HUD
[10:26:55.515452] [229] HEARTBEAT
[10:26:55.749483] [230] VFR_HUD
[10:26:55.858669] [146] RADIO
[10:26:55.861463] [146] RADIO_STATUS
[10:26:56.566563] [231] HEARTBEAT
[10:26:56.573569] [232] SYS_STATUS
[10:26:56.694537] [233] BATTERY_STATUS
[10:26:56.696507] [234] EXTENDED_SYS_STATE
[10:26:56.704650] [235] ATTITUDE_TARGET
[10:26:56.709631] [236] VFR_HUD
[10:26:56.712664] [237] SYSTEM_TIME
[10:26:56.898800] [147] RADIO
[10:26:56.901588] [147] RADIO_STATUS
[10:26:57.358568] [238] VFR_HUD
[10:26:57.584672] [239] HEARTBEAT
[10:26:57.927694] [148] RADIO
[10:26:57.930696] [148] RADIO_STATUS
[10:26:58.637832] [241] HEARTBEAT
[10:26:58.645756] [242] ATTITUDE_TARGET
[10:26:58.968729] [243] VFR_HUD
[10:26:58.995767] [149] RADIO
[10:26:58.998722] [149] RADIO_STATUS
[10:26:59.543843] [244] HEARTBEAT
[10:26:59.783890] [245] VFR_HUD
[10:26:59.898861] [150] RADIO
[10:26:59.901821] [150] RADIO_STATUS
[10:27:00.585158] [246] HEARTBEAT
[10:27:00.591987] [247] SYS_STATUS
[10:27:00.706962] [248] BATTERY_STATUS
[10:27:00.823996] [249] ATTITUDE_TARGET
[10:27:00.828976] [250] VFR_HUD
[10:27:00.917142] [151] RADIO
[10:27:00.919915] [151] RADIO_STATUS
[10:27:01.393057] [251] VFR_HUD
[10:27:01.956147] [152] RADIO
[10:27:01.959094] [152] RADIO_STATUS
[10:27:02.187268] [253] VFR_HUD
[10:27:02.546340] [254] HEARTBEAT
[10:27:02.554282] [255] ATTITUDE_TARGET
[10:27:02.986227] [153] RADIO
[10:27:02.989283] [153] RADIO_STATUS
[10:27:03.025315] [0] VFR_HUD
[10:27:03.562222] [1] HEARTBEAT
[10:27:03.797351] [2] VFR_HUD
[10:27:03.906256] [154] RADIO
[10:27:03.909301] [154] RADIO_STATUS
[10:27:04.614340] [3] HEARTBEAT
[10:27:04.621441] [4] SYS_STATUS
[10:27:04.739481] [5] BATTERY_STATUS
[10:27:04.747324] [6] ATTITUDE_TARGET
[10:27:04.777557] [7] VFR_HUD
[10:27:04.946322] [155] RADIO
[10:27:04.948314] [155] RADIO_STATUS
[10:27:05.406394] [8] VFR_HUD
[10:27:05.527471] [9] HEARTBEAT
[10:27:05.975386] [156] RADIO
[10:27:05.978548] [156] RADIO_STATUS
[10:27:06.565450] [11] HEARTBEAT
[10:27:06.573494] [12] ATTITUDE_TARGET
[10:27:07.016443] [13] VFR_HUD
[10:27:07.043456] [157] RADIO
[10:27:07.046427] [157] RADIO_STATUS
[10:27:07.596698] [14] HEARTBEAT
[10:27:07.825491] [15] VFR_HUD
[10:27:07.940623] [158] RADIO
[10:27:07.943502] [158] RADIO_STATUS
[10:27:08.632536] [16] HEARTBEAT
[10:27:08.639683] [17] SYS_STATUS
[10:27:08.754539] [18] BATTERY_STATUS
[10:27:08.872636] [19] ATTITUDE_TARGET
[10:27:08.876564] [20] VFR_HUD
[10:27:08.964592] [159] RADIO
[10:27:08.967589] [159] RADIO_STATUS
[10:27:09.440638] [21] VFR_HUD
[10:27:09.552633] [22] HEARTBEAT
[10:27:10.004719] [160] RADIO
[10:27:10.008312] [160] RADIO_STATUS
[10:27:10.129674] [23] VFR_HUD
[10:27:10.598739] [24] HEARTBEAT
[10:27:10.606752] [25] ATTITUDE_TARGET
[10:27:10.924973] [26] VFR_HUD
[10:27:10.957802] [161] RADIO
[10:27:10.959887] [161] RADIO_STATUS
[10:27:11.609850] [27] HEARTBEAT
[10:27:11.733841] [28] VFR_HUD
[10:27:11.952893] [162] RADIO
[10:27:11.955856] [162] RADIO_STATUS
[10:27:12.541946] [29] HEARTBEAT
[10:27:12.548043] [30] SYS_STATUS
[10:27:12.668131] [31] BATTERY_STATUS
[10:27:12.780971] [32] ATTITUDE_TARGET
[10:27:12.784917] [33] VFR_HUD
[10:27:12.997992] [163] RADIO
[10:27:13.000895] [163] RADIO_STATUS
[10:27:13.343997] [34] VFR_HUD
[10:27:13.574163] [35] HEARTBEAT
[10:27:14.023370] [164] RADIO
[10:27:14.029693] [164] RADIO_STATUS
[10:27:14.143154] [36] VFR_HUD
[10:27:14.612213] [37] HEARTBEAT
[10:27:14.620170] [38] ATTITUDE_TARGET
[10:27:14.942108] [165] RADIO
[10:27:14.945192] [165] RADIO_STATUS
[10:27:15.065839] [39] VFR_HUD
[10:27:15.518548] [40] HEARTBEAT
[10:27:15.756268] [41] VFR_HUD
[10:27:15.987212] [166] RADIO
[10:27:15.990273] [166] RADIO_STATUS
[10:27:16.698314] [44] BATTERY_STATUS
[10:27:16.700434] [45] EXTENDED_SYS_STATE
[10:27:16.708324] [46] ATTITUDE_TARGET
[10:27:16.713248] [47] VFR_HUD
[10:27:16.716298] [48] SYSTEM_TIME
[10:27:17.011331] [167] RADIO
[10:27:17.014323] [167] RADIO_STATUS
[10:27:17.362385] [49] VFR_HUD
[10:27:17.587331] [50] HEARTBEAT
[10:27:18.056438] [168] RADIO
[10:27:18.059371] [168] RADIO_STATUS
[10:27:18.177522] [51] VFR_HUD
[10:27:18.645447] [52] HEARTBEAT
[10:27:18.653434] [53] ATTITUDE_TARGET
[10:27:18.971449] [54] VFR_HUD
[10:27:19.003436] [169] RADIO
[10:27:19.006442] [169] RADIO_STATUS
[10:27:19.546592] [55] HEARTBEAT
[10:27:19.786561] [56] VFR_HUD
[10:27:20.000632] [170] RADIO
[10:27:20.003547] [170] RADIO_STATUS
[10:27:20.588612] [57] HEARTBEAT
[10:27:20.594707] [58] SYS_STATUS
[10:27:20.714626] [59] BATTERY_STATUS
[10:27:20.826663] [60] ATTITUDE_TARGET
[10:27:20.831668] [61] VFR_HUD
[10:27:21.044672] [171] RADIO
[10:27:21.047702] [171] RADIO_STATUS
[10:27:21.395698] [62] VFR_HUD
[10:27:21.615760] [63] HEARTBEAT
[10:27:21.959786] [172] RADIO
[10:27:21.961773] [172] RADIO_STATUS
[10:27:22.189805] [64] VFR_HUD
[10:27:22.551843] [65] HEARTBEAT
[10:27:22.575834] [66] ATTITUDE_TARGET
[10:27:22.988901] [173] RADIO
[10:27:22.991838] [173] RADIO_STATUS
[10:27:23.108847] [67] VFR_HUD
[10:27:23.564914] [68] HEARTBEAT
[10:27:23.798955] [69] VFR_HUD
[10:27:24.027955] [174] RADIO
[10:27:24.030903] [174] RADIO_STATUS
[10:27:24.742120] [72] BATTERY_STATUS
[10:27:24.749063] [73] ATTITUDE_TARGET
[10:27:24.780078] [74] VFR_HUD
[10:27:25.058103] [175] RADIO
[10:27:25.061034] [175] RADIO_STATUS
[10:27:25.409084] [75] VFR_HUD
[10:27:25.524115] [76] HEARTBEAT
[10:27:25.978214] [176] RADIO
[10:27:25.980164] [176] RADIO_STATUS
[10:27:26.218236] [77] VFR_HUD
[10:27:26.567276] [78] HEARTBEAT
[10:27:26.575213] [79] ATTITUDE_TARGET
[10:27:27.018311] [80] VFR_HUD
[10:27:27.045271] [177] RADIO
[10:27:27.048212] [177] RADIO_STATUS
[10:27:27.593370] [81] HEARTBEAT
[10:27:27.832500] [82] VFR_HUD
[10:27:28.046421] [178] RADIO
[10:27:28.049386] [178] RADIO_STATUS
[10:27:28.518425] [83] HEARTBEAT
[10:27:28.647451] [84] SYS_STATUS
[10:27:28.655477] [85] BATTERY_STATUS
[10:27:28.764488] [86] ATTITUDE_TARGET
[10:27:28.769416] [87] VFR_HUD
[10:27:29.086491] [179] RADIO
[10:27:29.089518] [179] RADIO_STATUS
[10:27:29.442496] [88] VFR_HUD
[10:27:29.554526] [89] HEARTBEAT
[10:27:30.006560] [180] RADIO
[10:27:30.009632] [180] RADIO_STATUS
[10:27:30.237802] [90] VFR_HUD
[10:27:30.601681] [91] HEARTBEAT
[10:27:30.609619] [92] ATTITUDE_TARGET
[10:27:30.926688] [93] VFR_HUD
[10:27:31.036734] [181] RADIO
[10:27:31.039662] [181] RADIO_STATUS
[10:27:31.612742] [94] HEARTBEAT
[10:27:31.736783] [95] VFR_HUD
[10:27:32.075770] [182] RADIO
[10:27:32.078697] [182] RADIO_STATUS
[10:27:32.543786] [96] HEARTBEAT
[10:27:32.550786] [97] SYS_STATUS
[10:27:32.782829] [99] ATTITUDE_TARGET
[10:27:32.787827] [100] VFR_HUD
[10:27:33.105873] [183] RADIO
[10:27:33.108841] [183] RADIO_STATUS
[10:27:33.346861] [101] VFR_HUD
[10:27:33.576954] [102] HEARTBEAT
[10:27:34.024935] [184] RADIO
[10:27:34.027933] [184] RADIO_STATUS
[10:27:34.145952] [103] VFR_HUD
[10:27:34.615009] [104] HEARTBEAT
[10:27:34.622982] [105] ATTITUDE_TARGET
[10:27:35.065034] [185] RADIO
[10:27:35.068033] [185] RADIO_STATUS
[10:27:35.521136] [107] HEARTBEAT
[10:27:35.755072] [108] VFR_HUD
[10:27:36.094174] [186] RADIO
[10:27:36.097063] [186] RADIO_STATUS
[10:27:36.577156] [109] HEARTBEAT
[10:27:36.584152] [110] SYS_STATUS
[10:27:36.618146] [111] BATTERY_STATUS
[10:27:36.620141] [112] EXTENDED_SYS_STATE
[10:27:36.628253] [113] ATTITUDE_TARGET
[10:27:36.633181] [114] VFR_HUD
[10:27:36.636168] [115] SYSTEM_TIME
[10:27:37.134193] [187] RADIO
[10:27:37.137185] [187] RADIO_STATUS
[10:27:37.364219] [116] VFR_HUD
[10:27:37.590293] [117] HEARTBEAT
[10:27:38.059292] [188] RADIO
[10:27:38.062244] [188] RADIO_STATUS
[10:27:38.179263] [118] VFR_HUD
[10:27:38.514312] [119] HEARTBEAT
[10:27:38.537324] [120] ATTITUDE_TARGET
[10:27:38.974336] [121] VFR_HUD
[10:27:39.083325] [189] RADIO
[10:27:39.086347] [189] RADIO_STATUS
[10:27:39.790011] [123] VFR_HUD
[10:27:40.128453] [190] RADIO
[10:27:40.131390] [190] RADIO_STATUS
[10:27:40.591607] [124] HEARTBEAT
[10:27:40.598553] [125] SYS_STATUS
[10:27:40.830537] [127] ATTITUDE_TARGET
[10:27:40.834471] [128] VFR_HUD
[10:27:41.152527] [191] RADIO
[10:27:41.155513] [191] RADIO_STATUS
[10:27:41.393549] [129] VFR_HUD
[10:27:41.623694] [130] HEARTBEAT
[10:27:42.072583] [192] RADIO
[10:27:42.075613] [192] RADIO_STATUS
[10:27:42.193578] [131] VFR_HUD
[10:27:42.552648] [132] HEARTBEAT
[10:27:42.559612] [133] ATTITUDE_TARGET
[10:27:43.117708] [193] RADIO
[10:27:43.120661] [193] RADIO_STATUS
[10:27:43.568821] [135] HEARTBEAT
[10:27:43.805734] [136] VFR_HUD
[10:27:44.141730] [194] RADIO
[10:27:44.144709] [194] RADIO_STATUS
[10:27:44.619809] [137] HEARTBEAT
[10:27:44.626829] [138] SYS_STATUS
[10:27:44.744821] [139] BATTERY_STATUS
[10:27:44.752783] [140] ATTITUDE_TARGET
[10:27:44.782863] [141] VFR_HUD
[10:27:45.186898] [195] RADIO
[10:27:45.189878] [195] RADIO_STATUS
[10:27:45.411922] [142] VFR_HUD
[10:27:45.527886] [143] HEARTBEAT
[10:27:46.106940] [196] RADIO
[10:27:46.109975] [196] RADIO_STATUS
[10:27:46.226997] [144] VFR_HUD
[10:27:46.571011] [145] HEARTBEAT
[10:27:46.579043] [146] ATTITUDE_TARGET
[10:27:47.021974] [147] VFR_HUD
[10:27:47.130999] [197] RADIO
[10:27:47.134027] [197] RADIO_STATUS
[10:27:47.836152] [149] VFR_HUD
[10:27:48.175110] [198] RADIO
[10:27:48.178133] [198] RADIO_STATUS
[10:27:48.516184] [150] HEARTBEAT
[10:27:48.536135] [151] SYS_STATUS
[10:27:48.580197] [152] BATTERY_STATUS
[10:27:48.587167] [153] ATTITUDE_TARGET
[10:27:48.592237] [154] VFR_HUD
[10:27:49.200217] [199] RADIO
[10:27:49.203182] [199] RADIO_STATUS
[10:27:49.556254] [155] VFR_HUD
[10:27:49.559220] [156] HEARTBEAT
[10:27:50.119294] [200] RADIO
[10:27:50.122247] [200] RADIO_STATUS
[10:27:50.241815] [157] VFR_HUD
[10:27:50.599336] [158] HEARTBEAT
[10:27:50.607515] [159] ATTITUDE_TARGET
[10:27:50.930380] [160] VFR_HUD
[10:27:51.159545] [201] RADIO
[10:27:51.162553] [201] RADIO_STATUS
[10:27:51.615498] [161] HEARTBEAT
[10:27:51.739520] [162] VFR_HUD
[10:27:52.188475] [202] RADIO
[10:27:52.191463] [202] RADIO_STATUS
[10:27:52.546562] [163] HEARTBEAT
[10:27:52.553589] [164] SYS_STATUS
[10:27:52.685639] [165] BATTERY_STATUS
[10:27:52.714545] [166] ATTITUDE_TARGET
[10:27:52.719598] [167] VFR_HUD
[10:27:53.228612] [203] RADIO
[10:27:53.231572] [203] RADIO_STATUS
[10:27:53.579698] [169] HEARTBEAT
[10:27:54.148708] [170] VFR_HUD
[10:27:54.175731] [204] RADIO
[10:27:54.178701] [204] RADIO_STATUS
[10:27:54.617716] [171] HEARTBEAT
[10:27:54.625710] [172] ATTITUDE_TARGET
[10:27:54.963893] [173] VFR_HUD
[10:27:55.177847] [205] RADIO
[10:27:55.180853] [205] RADIO_STATUS
[10:27:55.523883] [174] HEARTBEAT
[10:27:55.758336] [175] VFR_HUD
[10:27:56.217068] [206] RADIO
[10:27:56.220648] [206] RADIO_STATUS
[10:27:56.579997] [176] HEARTBEAT
[10:27:56.586974] [177] SYS_STATUS
[10:27:56.621274] [178] BATTERY_STATUS
[10:27:56.623029] [179] EXTENDED_SYS_STATE
[10:27:56.630941] [180] ATTITUDE_TARGET
[10:27:56.635933] [181] VFR_HUD
[10:27:56.638971] [182] SYSTEM_TIME
[10:27:57.247001] [207] RADIO
[10:27:57.250129] [207] RADIO_STATUS
[10:27:57.367057] [183] VFR_HUD
[10:27:57.593176] [184] HEARTBEAT
[10:27:58.166066] [208] RADIO
[10:27:58.169194] [208] RADIO_STATUS
[10:27:58.205494] [185] VFR_HUD
[10:27:58.517168] [186] HEARTBEAT
[10:27:58.541952] [187] ATTITUDE_TARGET
[10:27:58.977128] [188] VFR_HUD
[10:27:59.206298] [209] RADIO
[10:27:59.209149] [209] RADIO_STATUS
[10:27:59.557271] [189] HEARTBEAT
[10:27:59.786300] [190] VFR_HUD
[10:28:00.235328] [210] RADIO
[10:28:00.238766] [210] RADIO_STATUS
[10:28:00.593354] [191] HEARTBEAT
[10:28:00.600382] [192] SYS_STATUS
[10:28:00.720342] [193] BATTERY_STATUS
[10:28:00.832394] [194] ATTITUDE_TARGET
[10:28:00.837356] [195] VFR_HUD
[10:28:01.160377] [211] RADIO
[10:28:01.163488] [211] RADIO_STATUS
[10:28:01.626526] [197] HEARTBEAT
[10:28:02.195418] [198] VFR_HUD
[10:28:02.222444] [212] RADIO
[10:28:02.226980] [212] RADIO_STATUS
[10:28:02.664556] [199] HEARTBEAT
[10:28:02.672504] [200] ATTITUDE_TARGET
[10:28:03.005559] [201] VFR_HUD
[10:28:03.224636] [213] RADIO
[10:28:03.227525] [213] RADIO_STATUS
[10:28:03.570613] [202] HEARTBEAT
[10:28:03.805601] [203] VFR_HUD
[10:28:04.264687] [214] RADIO
[10:28:04.267594] [214] RADIO_STATUS
[10:28:04.627955] [204] HEARTBEAT
[10:28:04.634780] [205] SYS_STATUS
[10:28:04.673772] [206] BATTERY_STATUS
[10:28:04.681979] [207] ATTITUDE_TARGET
[10:28:04.686695] [208] VFR_HUD
[10:28:05.189894] [215] RADIO
[10:28:05.192801] [215] RADIO_STATUS
[10:28:05.540840] [209] VFR_HUD
[10:28:05.543751] [210] HEARTBEAT
[10:28:06.213864] [216] RADIO
[10:28:06.216876] [216] RADIO_STATUS
[10:28:06.252788] [211] VFR_HUD
[10:28:06.573827] [212] HEARTBEAT
[10:28:06.581858] [213] ATTITUDE_TARGET
[10:28:07.024992] [214] VFR_HUD
[10:28:07.259253] [217] RADIO
[10:28:07.261960] [217] RADIO_STATUS
[10:28:07.600001] [215] HEARTBEAT
[10:28:07.839242] [216] VFR_HUD
[10:28:08.285781] [218] RADIO
[10:28:08.286141] [218] RADIO_STATUS
[10:28:08.531102] [217] HEARTBEAT
[10:28:08.538345] [218] SYS_STATUS
[10:28:08.657221] [219] BATTERY_STATUS
[10:28:08.665157] [220] ATTITUDE_TARGET
[10:28:08.695120] [221] VFR_HUD
[10:28:09.203139] [219] RADIO
[10:28:09.206201] [219] RADIO_STATUS
[10:28:09.324177] [222] VFR_HUD
[10:28:09.549158] [223] HEARTBEAT
[10:28:10.133206] [224] VFR_HUD
[10:28:10.248216] [220] RADIO
[10:28:10.250202] [220] RADIO_STATUS
[10:28:10.712454] [225] HEARTBEAT
[10:28:10.719243] [226] ATTITUDE_TARGET
[10:28:10.933327] [227] VFR_HUD
[10:28:11.272214] [221] RADIO
[10:28:11.275219] [221] RADIO_STATUS
[10:28:11.618293] [228] HEARTBEAT
[10:28:12.317315] [222] RADIO
[10:28:12.320226] [222] RADIO_STATUS
[10:28:12.550340] [230] HEARTBEAT
[10:28:12.556762] [231] SYS_STATUS
[10:28:12.671409] [232] BATTERY_STATUS
[10:28:12.789415] [233] ATTITUDE_TARGET
[10:28:12.793321] [234] VFR_HUD
[10:28:13.236323] [223] RADIO
[10:28:13.239332] [223] RADIO_STATUS
[10:28:13.357353] [235] VFR_HUD
[10:28:13.577447] [236] HEARTBEAT
[10:28:14.151400] [237] VFR_HUD
[10:28:14.261450] [224] RADIO
[10:28:14.263428] [224] RADIO_STATUS
[10:28:14.620491] [238] HEARTBEAT
[10:28:14.628475] [239] ATTITUDE_TARGET
[10:28:14.966471] [240] VFR_HUD
[10:28:15.305534] [225] RADIO
[10:28:15.308517] [225] RADIO_STATUS
[10:28:15.526630] [241] HEARTBEAT
[10:28:15.760965] [242] VFR_HUD
[10:28:16.329658] [226] RADIO
[10:28:16.332600] [226] RADIO_STATUS
[10:28:16.577694] [243] HEARTBEAT
[10:28:16.584690] [244] SYS_STATUS
[10:28:16.706737] [245] BATTERY_STATUS
[10:28:16.708880] [246] EXTENDED_SYS_STATE
[10:28:16.715766] [247] ATTITUDE_TARGET
[10:28:16.720647] [248] VFR_HUD
[10:28:16.724696] [249] SYSTEM_TIME
[10:28:17.249756] [227] RADIO
[10:28:17.252784] [227] RADIO_STATUS
[10:28:17.370904] [250] VFR_HUD
[10:28:17.596008] [251] HEARTBEAT
[10:28:18.179844] [252] VFR_HUD
[10:28:18.288855] [228] RADIO
[10:28:18.291865] [228] RADIO_STATUS
[10:28:18.515991] [253] HEARTBEAT
[10:28:18.538012] [254] ATTITUDE_TARGET
[10:28:18.979913] [255] VFR_HUD
[10:28:19.318967] [229] RADIO
[10:28:19.321921] [229] RADIO_STATUS
[10:28:19.559964] [0] HEARTBEAT
[10:28:20.364237] [230] RADIO
[10:28:20.366961] [230] RADIO_STATUS
[10:28:20.601863] [2] HEARTBEAT
[10:28:20.603172] [3] SYS_STATUS
[10:28:20.718064] [4] BATTERY_STATUS
[10:28:20.835320] [5] ATTITUDE_TARGET
[10:28:20.840110] [6] VFR_HUD
[10:28:21.278140] [231] RADIO
[10:28:21.281130] [231] RADIO_STATUS
[10:28:21.399181] [7] VFR_HUD
[10:28:21.629135] [8] HEARTBEAT
[10:28:22.198180] [9] VFR_HUD
[10:28:22.307265] [232] RADIO
[10:28:22.310286] [232] RADIO_STATUS
[10:28:22.667260] [10] HEARTBEAT
[10:28:22.675283] [11] ATTITUDE_TARGET
[10:28:23.013304] [12] VFR_HUD
[10:28:23.347311] [233] RADIO
[10:28:23.350243] [233] RADIO_STATUS
[10:28:23.573371] [13] HEARTBEAT
[10:28:23.807308] [14] VFR_HUD
[10:28:24.376363] [234] RADIO
[10:28:24.379337] [234] RADIO_STATUS
[10:28:24.630356] [15] HEARTBEAT
[10:28:24.636348] [16] SYS_STATUS
[10:28:24.676359] [17] BATTERY_STATUS
[10:28:24.684354] [18] ATTITUDE_TARGET
[10:28:24.689299] [19] VFR_HUD
[10:28:25.296460] [235] RADIO
[10:28:25.299478] [235] RADIO_STATUS
[10:28:25.652435] [20] VFR_HUD
[10:28:25.655416] [21] HEARTBEAT
[10:28:26.232447] [22] VFR_HUD
[10:28:26.347481] [236] RADIO
[10:28:26.350477] [236] RADIO_STATUS
[10:28:26.575551] [23] HEARTBEAT
[10:28:26.583489] [24] ATTITUDE_TARGET
[10:28:27.026544] [25] VFR_HUD
[10:28:27.365556] [237] RADIO
[10:28:27.368507] [237] RADIO_STATUS
[10:28:27.607616] [26] HEARTBEAT
[10:28:28.405600] [238] RADIO
[10:28:28.408626] [238] RADIO_STATUS
[10:28:28.533696] [28] HEARTBEAT
[10:28:28.540787] [29] SYS_STATUS
[10:28:28.658746] [30] BATTERY_STATUS
[10:28:28.666639] [31] ATTITUDE_TARGET
[10:28:28.696658] [32] VFR_HUD
[10:28:29.325702] [33] VFR_HUD
[10:28:29.352760] [239] RADIO
[10:28:29.355787] [239] RADIO_STATUS
[10:28:29.550902] [34] HEARTBEAT
[10:28:30.354779] [240] RADIO
[10:28:30.357743] [240] RADIO_STATUS
[10:28:30.604869] [36] HEARTBEAT
[10:28:30.612850] [37] ATTITUDE_TARGET
[10:28:30.935062] [38] VFR_HUD
[10:28:31.393931] [241] RADIO
[10:28:31.396937] [241] RADIO_STATUS
[10:28:31.620931] [39] HEARTBEAT
[10:28:31.749905] [40] VFR_HUD
[10:28:32.424067] [242] RADIO
[10:28:32.426970] [242] RADIO_STATUS
[10:28:32.552042] [41] HEARTBEAT
[10:28:32.559052] [42] SYS_STATUS
[10:28:32.674284] [43] BATTERY_STATUS
[10:28:32.791142] [44] ATTITUDE_TARGET
[10:28:32.796152] [45] VFR_HUD
[10:28:33.343061] [243] RADIO
[10:28:33.346021] [243] RADIO_STATUS
[10:28:33.382228] [46] VFR_HUD
[10:28:34.154280] [48] VFR_HUD
[10:28:34.383205] [244] RADIO
[10:28:34.386181] [244] RADIO_STATUS
[10:28:34.623362] [49] HEARTBEAT
[10:28:34.631270] [50] ATTITUDE_TARGET
[10:28:34.969235] [51] VFR_HUD
[10:28:35.413313] [245] RADIO
[10:28:35.416270] [245] RADIO_STATUS
[10:28:35.529367] [52] HEARTBEAT
[10:28:35.763393] [53] VFR_HUD
[10:28:36.452441] [246] RADIO
[10:28:36.455448] [246] RADIO_STATUS
[10:28:36.580478] [54] HEARTBEAT
[10:28:36.587432] [55] SYS_STATUS
[10:28:36.709960] [56] BATTERY_STATUS
[10:28:36.710511] [57] EXTENDED_SYS_STATE
[10:28:36.718622] [58] ATTITUDE_TARGET
[10:28:36.723484] [59] VFR_HUD
[10:28:36.727442] [60] SYSTEM_TIME
[10:28:37.373542] [61] VFR_HUD
[10:28:37.405497] [247] RADIO
[10:28:37.408495] [247] RADIO_STATUS
[10:28:37.598610] [62] HEARTBEAT
[10:28:38.402564] [248] RADIO
[10:28:38.405553] [248] RADIO_STATUS
[10:28:38.531707] [64] HEARTBEAT
[10:28:38.539654] [65] ATTITUDE_TARGET
[10:28:38.982664] [66] VFR_HUD
[10:28:39.446810] [249] RADIO
[10:28:39.449796] [249] RADIO_STATUS
[10:28:39.562802] [67] HEARTBEAT
[10:28:39.792893] [68] VFR_HUD
[10:28:40.471818] [250] RADIO
[10:28:40.474821] [250] RADIO_STATUS
[10:28:40.599903] [69] HEARTBEAT
[10:28:40.605880] [70] SYS_STATUS
[10:28:40.720864] [71] BATTERY_STATUS
[10:28:40.838891] [72] ATTITUDE_TARGET
[10:28:40.843971] [73] VFR_HUD
[10:28:41.390913] [251] RADIO
[10:28:41.393900] [251] RADIO_STATUS
[10:28:41.429918] [74] VFR_HUD
[10:28:41.513034] [75] HEARTBEAT
[10:28:42.201983] [76] VFR_HUD
[10:28:42.436017] [252] RADIO
