[19:01:42.614579] [227] HEARTBEAT
[19:01:42.622568] [228] ATTITUDE_TARGET
[19:01:42.940792] [229] VFR_HUD
[19:01:43.169755] [202] RADIO
[19:01:43.178551] [202] RADIO_STATUS
[19:01:43.515692] [230] HEARTBEAT
[19:01:43.755756] [231] VFR_HUD
[19:01:44.199829] [203] RADIO
[19:01:44.201772] [203] RADIO_STATUS
[19:01:44.558489] [232] HEARTBEAT
[19:01:44.563974] [233] SYS_STATUS
[19:01:44.683864] [234] BATTERY_STATUS
[19:01:44.796926] [235] ATTITUDE_TARGET
[19:01:44.800887] [236] VFR_HUD
[19:01:45.124056] [204] RADIO
[19:01:45.127042] [204] RADIO_STATUS
[19:01:45.360260] [237] VFR_HUD
[19:01:45.585056] [238] HEARTBEAT
[19:01:46.159281] [239] VFR_HUD
[19:01:46.186138] [205] RADIO
[19:01:46.189175] [205] RADIO_STATUS
[19:01:46.628263] [240] HEARTBEAT
[19:01:46.636228] [241] ATTITUDE_TARGET
[19:01:46.969390] [242] VFR_HUD
[19:01:47.188334] [206] RADIO
[19:01:47.191296] [206] RADIO_STATUS
[19:01:47.534400] [243] HEARTBEAT
[19:01:47.768403] [244] VFR_HUD
[19:01:48.227570] [207] RADIO
[19:01:48.230463] [207] RADIO_STATUS
[19:01:48.585579] [245] HEARTBEAT
[19:01:48.592581] [246] SYS_STATUS
[19:01:48.710661] [247] BATTERY_STATUS
[19:01:48.718531] [248] ATTITUDE_TARGET
[19:01:48.748557] [249] VFR_HUD
[19:01:49.152859] [208] RADIO
[19:01:49.155672] [208] RADIO_STATUS
[19:01:49.377722] [250] VFR_HUD
[19:01:49.603707] [251] HEARTBEAT
[19:01:50.176753] [209] RADIO
[19:01:50.179743] [209] RADIO_STATUS
[19:01:50.297885] [252] VFR_HUD
[19:01:50.523016] [253] HEARTBEAT
[19:01:50.545838] [254] ATTITUDE_TARGET
[19:01:50.986934] [255] VFR_HUD
[19:01:51.216056] [210] RADIO
[19:01:51.218930] [210] RADIO_STATUS
[19:01:51.562008] [0] HEARTBEAT
[19:01:51.802009] [1] VFR_HUD
[19:01:52.246134] [211] RADIO
[19:01:52.249042] [211] RADIO_STATUS
[19:01:52.604269] [2] HEARTBEAT
[19:01:52.611137] [3] SYS_STATUS
[19:01:52.728177] [4] BATTERY_STATUS
[19:01:52.730179] [5] EXTENDED_SYS_STATE
[19:01:52.850310] [6] ATTITUDE_TARGET
[19:01:52.855170] [7] VFR_HUD
[19:01:52.858204] [8] SYSTEM_TIME
[19:01:53.165272] [212] RADIO
[19:01:53.168242] [212] RADIO_STATUS
[19:01:53.411348] [9] VFR_HUD
[19:01:53.523471] [10] HEARTBEAT
[19:01:54.209101] [11] VFR_HUD
[19:01:54.238500] [213] RADIO
[19:01:54.241390] [213] RADIO_STATUS
[19:01:54.565541] [12] HEARTBEAT
[19:01:54.572535] [13] ATTITUDE_TARGET
[19:01:55.020605] [14] VFR_HUD
[19:01:55.234577] [214] RADIO
[19:01:55.237629] [214] RADIO_STATUS
[19:01:55.580706] [15] HEARTBEAT
[19:01:55.815933] [16] VFR_HUD
[19:01:56.279774] [215] RADIO
[19:01:56.282696] [215] RADIO_STATUS
[19:01:56.632865] [17] HEARTBEAT
[19:01:56.639499] [18] SYS_STATUS
[19:01:56.757962] [19] BATTERY_STATUS
[19:01:56.765892] [20] ATTITUDE_TARGET
[19:01:56.796024] [21] VFR_HUD
[19:01:57.199032] [216] RADIO
[19:01:57.202005] [216] RADIO_STATUS
[19:01:57.424971] [22] VFR_HUD
[19:01:57.545045] [23] HEARTBEAT
[19:01:58.226010] [217] RADIO
[19:01:58.226350] [217] RADIO_STATUS
[19:01:58.264111] [24] VFR_HUD
[19:01:58.583155] [25] HEARTBEAT
[19:01:58.591189] [26] ATTITUDE_TARGET
[19:01:58.929336] [27] VFR_HUD
[19:01:59.268415] [218] RADIO
[19:01:59.271395] [218] RADIO_STATUS
[19:01:59.614383] [28] HEARTBEAT
[19:01:59.725669] [29] VFR_HUD
[19:02:00.182430] [219] RADIO
[19:02:00.185440] [219] RADIO_STATUS
[19:02:00.545670] [30] HEARTBEAT
[19:02:00.552544] [31] SYS_STATUS
[19:02:00.592554] [32] BATTERY_STATUS
[19:02:00.599589] [33] ATTITUDE_TARGET
[19:02:00.604540] [34] VFR_HUD
[19:02:01.211786] [220] RADIO
[19:02:01.214652] [220] RADIO_STATUS
[19:02:01.568702] [35] VFR_HUD
[19:02:01.570701] [36] HEARTBEAT
[19:02:02.147823] [37] VFR_HUD
[19:02:02.262823] [221] RADIO
[19:02:02.265783] [221] RADIO_STATUS
[19:02:02.616890] [38] HEARTBEAT
[19:02:02.623969] [39] ATTITUDE_TARGET
[19:02:02.941903] [40] VFR_HUD
[19:02:03.281072] [222] RADIO
[19:02:03.283948] [222] RADIO_STATUS
[19:02:03.522160] [41] HEARTBEAT
[19:02:03.751074] [42] VFR_HUD
[19:02:04.200212] [223] RADIO
[19:02:04.203159] [223] RADIO_STATUS
[19:02:04.558329] [43] HEARTBEAT
[19:02:04.565212] [44] SYS_STATUS
[19:02:04.685228] [45] BATTERY_STATUS
[19:02:04.798317] [46] ATTITUDE_TARGET
[19:02:04.802228] [47] VFR_HUD
[19:02:05.243313] [224] RADIO
[19:02:05.246260] [224] RADIO_STATUS
[19:02:05.360319] [48] VFR_HUD
[19:02:05.591465] [49] HEARTBEAT
[19:02:06.160481] [50] VFR_HUD
[19:02:06.269576] [225] RADIO
[19:02:06.275342] [225] RADIO_STATUS
[19:02:06.629660] [51] HEARTBEAT
[19:02:06.637574] [52] ATTITUDE_TARGET
[19:02:06.970624] [53] VFR_HUD
[19:02:07.309676] [226] RADIO
[19:02:07.312658] [226] RADIO_STATUS
[19:02:07.535844] [54] HEARTBEAT
[19:02:07.769730] [55] VFR_HUD
[19:02:08.228821] [227] RADIO
[19:02:08.231766] [227] RADIO_STATUS
[19:02:08.586874] [56] HEARTBEAT
[19:02:08.593818] [57] SYS_STATUS
[19:02:08.712920] [58] BATTERY_STATUS
[19:02:08.719910] [59] ATTITUDE_TARGET
[19:02:08.750952] [60] VFR_HUD
[19:02:09.259038] [228] RADIO
[19:02:09.260943] [228] RADIO_STATUS
[19:02:09.378928] [61] VFR_HUD
[19:02:09.605149] [62] HEARTBEAT
[19:02:10.197421] [63] VFR_HUD
[19:02:10.309140] [229] RADIO
[19:02:10.312279] [229] RADIO_STATUS
[19:02:10.537186] [64] HEARTBEAT
[19:02:10.547381] [65] ATTITUDE_TARGET
[19:02:10.988228] [66] VFR_HUD
[19:02:11.217370] [230] RADIO
[19:02:11.220285] [230] RADIO_STATUS
[19:02:11.563457] [67] HEARTBEAT
[19:02:11.803425] [68] VFR_HUD
[19:02:12.247365] [231] RADIO
[19:02:12.250336] [231] RADIO_STATUS
[19:02:12.605522] [69] HEARTBEAT
[19:02:12.612513] [70] SYS_STATUS
[19:02:12.734549] [71] BATTERY_STATUS
[19:02:12.736486] [72] EXTENDED_SYS_STATE
[19:02:12.768532] [73] ATTITUDE_TARGET
[19:02:12.773488] [74] VFR_HUD
[19:02:12.777494] [75] SYSTEM_TIME
[19:02:13.286718] [232] RADIO
[19:02:13.290278] [232] RADIO_STATUS
[19:02:13.412659] [76] VFR_HUD
[19:02:13.525007] [77] HEARTBEAT
[19:02:14.206828] [78] VFR_HUD
[19:02:14.239765] [233] RADIO
[19:02:14.241724] [233] RADIO_STATUS
[19:02:14.565973] [79] HEARTBEAT
[19:02:14.573819] [80] ATTITUDE_TARGET
[19:02:15.016991] [81] VFR_HUD
[19:02:15.235943] [234] RADIO
[19:02:15.240281] [234] RADIO_STATUS
[19:02:15.582106] [82] HEARTBEAT
[19:02:15.816104] [83] VFR_HUD
[19:02:16.280239] [235] RADIO
[19:02:16.283103] [235] RADIO_STATUS
[19:02:16.633221] [84] HEARTBEAT
[19:02:16.640262] [85] SYS_STATUS
[19:02:16.758314] [86] BATTERY_STATUS
[19:02:16.766219] [87] ATTITUDE_TARGET
[19:02:16.796205] [88] VFR_HUD
[19:02:17.304463] [236] RADIO
[19:02:17.308599] [236] RADIO_STATUS
[19:02:17.343333] [89] VFR_HUD
[19:02:17.540786] [90] HEARTBEAT
[19:02:18.235469] [91] VFR_HUD
[19:02:18.344505] [237] RADIO
[19:02:18.347493] [237] RADIO_STATUS
[19:02:18.584652] [92] HEARTBEAT
[19:02:18.592603] [93] ATTITUDE_TARGET
[19:02:18.929715] [94] VFR_HUD
[19:02:19.269657] [238] RADIO
[19:02:19.271641] [238] RADIO_STATUS
[19:02:19.609737] [95] HEARTBEAT
[19:02:19.724730] [96] VFR_HUD
[19:02:20.296838] [239] RADIO
[19:02:20.299814] [239] RADIO_STATUS
[19:02:20.546897] [97] HEARTBEAT
[19:02:20.553916] [98] SYS_STATUS
[19:02:20.592957] [99] BATTERY_STATUS
[19:02:20.600911] [100] ATTITUDE_TARGET
[19:02:20.605890] [101] VFR_HUD
[19:02:21.340172] [240] RADIO
[19:02:21.340988] [240] RADIO_STATUS
[19:02:21.569077] [102] VFR_HUD
[19:02:21.572127] [103] HEARTBEAT
[19:02:22.143165] [104] VFR_HUD
[19:02:22.362225] [241] RADIO
[19:02:22.365244] [241] RADIO_STATUS
[19:02:22.617445] [105] HEARTBEAT
[19:02:22.625366] [106] ATTITUDE_TARGET
[19:02:22.943416] [107] VFR_HUD
[19:02:23.282411] [242] RADIO
[19:02:23.285383] [242] RADIO_STATUS
[19:02:23.523494] [108] HEARTBEAT
[19:02:23.752537] [109] VFR_HUD
[19:02:24.326556] [243] RADIO
[19:02:24.329472] [243] RADIO_STATUS
[19:02:24.559644] [110] HEARTBEAT
[19:02:24.566631] [111] SYS_STATUS
[19:02:24.686590] [112] BATTERY_STATUS
[19:02:24.798740] [113] ATTITUDE_TARGET
[19:02:24.803631] [114] VFR_HUD
[19:02:25.350854] [244] RADIO
[19:02:25.354188] [244] RADIO_STATUS
[19:02:25.471855] [115] VFR_HUD
[19:02:25.592782] [116] HEARTBEAT
[19:02:26.161926] [117] VFR_HUD
[19:02:26.270819] [245] RADIO
[19:02:26.273825] [245] RADIO_STATUS
[19:02:26.511888] [118] HEARTBEAT
[19:02:26.628965] [119] ATTITUDE_TARGET
[19:02:26.970945] [120] VFR_HUD
[19:02:27.310272] [246] RADIO
[19:02:27.313061] [246] RADIO_STATUS
[19:02:27.536087] [121] HEARTBEAT
[19:02:27.770126] [122] VFR_HUD
[19:02:28.339233] [247] RADIO
[19:02:28.342156] [247] RADIO_STATUS
[19:02:28.592297] [123] HEARTBEAT
[19:02:28.599304] [124] SYS_STATUS
[19:02:28.639309] [125] BATTERY_STATUS
[19:02:28.646308] [126] ATTITUDE_TARGET
[19:02:28.651248] [127] VFR_HUD
[19:02:29.384374] [248] RADIO
[19:02:29.389654] [248] RADIO_STATUS
[19:02:29.615415] [128] VFR_HUD
[19:02:29.618408] [129] HEARTBEAT
[19:02:30.194569] [130] VFR_HUD
[19:02:30.309522] [249] RADIO
[19:02:30.312476] [249] RADIO_STATUS
[19:02:30.538960] [131] HEARTBEAT
[19:02:30.546585] [132] ATTITUDE_TARGET
[19:02:30.988653] [133] VFR_HUD
[19:02:31.327718] [250] RADIO
[19:02:31.330616] [250] RADIO_STATUS
[19:02:31.563759] [134] HEARTBEAT
[19:02:31.803745] [135] VFR_HUD
[19:02:32.367836] [251] RADIO
[19:02:32.370820] [251] RADIO_STATUS
[19:02:32.605946] [136] HEARTBEAT
[19:02:32.612894] [137] SYS_STATUS
[19:02:32.735891] [138] BATTERY_STATUS
[19:02:32.736872] [139] EXTENDED_SYS_STATE
[19:02:32.768923] [140] ATTITUDE_TARGET
[19:02:32.773910] [141] VFR_HUD
[19:02:32.777851] [142] SYSTEM_TIME
[19:02:33.396982] [252] RADIO
[19:02:33.399979] [252] RADIO_STATUS
[19:02:33.524174] [143] VFR_HUD
[19:02:33.527058] [144] HEARTBEAT
[19:02:34.207171] [145] VFR_HUD
[19:02:34.317171] [253] RADIO
[19:02:34.319152] [253] RADIO_STATUS
[19:02:34.566291] [146] HEARTBEAT
[19:02:34.574212] [147] ATTITUDE_TARGET
[19:02:35.017271] [148] VFR_HUD
[19:02:35.356353] [254] RADIO
[19:02:35.359296] [254] RADIO_STATUS
[19:02:35.582404] [149] HEARTBEAT
[19:02:35.816392] [150] VFR_HUD
[19:02:36.385485] [255] RADIO
[19:02:36.388455] [255] RADIO_STATUS
[19:02:36.633847] [151] HEARTBEAT
[19:02:36.640544] [152] SYS_STATUS
[19:02:36.758598] [153] BATTERY_STATUS
[19:02:36.766546] [154] ATTITUDE_TARGET
[19:02:36.796592] [155] VFR_HUD
[19:02:37.320687] [156] VFR_HUD
[19:02:37.436773] [0] RADIO
[19:02:37.439694] [0] RADIO_STATUS
[19:02:37.550707] [157] HEARTBEAT
[19:02:38.234815] [158] VFR_HUD
[19:02:38.344838] [1] RADIO
[19:02:38.347871] [1] RADIO_STATUS
[19:02:38.583893] [159] HEARTBEAT
[19:02:38.591899] [160] ATTITUDE_TARGET
[19:02:38.929968] [161] VFR_HUD
[19:02:39.374067] [2] RADIO
[19:02:39.376994] [2] RADIO_STATUS
[19:02:39.610149] [162] HEARTBEAT
[19:02:39.724166] [163] VFR_HUD
[19:02:40.413299] [3] RADIO
[19:02:40.417098] [3] RADIO_STATUS
[19:02:40.542270] [164] HEARTBEAT
[19:02:40.548246] [165] SYS_STATUS
[19:02:40.667448] [166] BATTERY_STATUS
[19:02:40.675265] [167] ATTITUDE_TARGET
[19:02:40.705593] [168] VFR_HUD
[19:02:41.334362] [169] VFR_HUD
[19:02:41.368795] [4] RADIO
[19:02:41.369379] [4] RADIO_STATUS
[19:02:41.559412] [170] HEARTBEAT
[19:02:42.143494] [171] VFR_HUD
[19:02:42.362616] [5] RADIO
[19:02:42.365447] [5] RADIO_STATUS
[19:02:42.612647] [172] HEARTBEAT
[19:02:42.620606] [173] ATTITUDE_TARGET
[19:02:42.943689] [174] VFR_HUD
[19:02:43.402770] [6] RADIO
[19:02:43.404675] [6] RADIO_STATUS
[19:02:43.523707] [175] HEARTBEAT
[19:02:43.752777] [176] VFR_HUD
[19:02:44.431874] [7] RADIO
[19:02:44.434791] [7] RADIO_STATUS
[19:02:44.559872] [177] HEARTBEAT
[19:02:44.566876] [178] SYS_STATUS
[19:02:44.681930] [179] BATTERY_STATUS
[19:02:44.798901] [180] ATTITUDE_TARGET
[19:02:44.803974] [181] VFR_HUD
[19:02:45.350994] [8] RADIO
[19:02:45.353952] [8] RADIO_STATUS
[19:02:45.472983] [182] VFR_HUD
[19:02:45.593033] [183] HEARTBEAT
[19:02:46.161146] [184] VFR_HUD
[19:02:46.396177] [9] RADIO
[19:02:46.399209] [9] RADIO_STATUS
[19:02:46.512227] [185] HEARTBEAT
[19:02:46.629260] [186] ATTITUDE_TARGET
[19:02:46.976256] [187] VFR_HUD
[19:02:47.420294] [10] RADIO
[19:02:47.423370] [10] RADIO_STATUS
[19:02:47.536362] [188] HEARTBEAT
[19:02:47.770380] [189] VFR_HUD
[19:02:48.464511] [11] RADIO
[19:02:48.467489] [11] RADIO_STATUS
[19:02:48.592532] [190] HEARTBEAT
[19:02:48.599522] [191] SYS_STATUS
[19:02:48.639542] [192] BATTERY_STATUS
[19:02:48.647505] [193] ATTITUDE_TARGET
[19:02:48.651474] [194] VFR_HUD
[19:02:49.384696] [12] RADIO
[19:02:49.387702] [12] RADIO_STATUS
[19:02:49.615666] [195] VFR_HUD
[19:02:49.618698] [196] HEARTBEAT
[19:02:50.194769] [197] VFR_HUD
[19:02:50.416859] [13] RADIO
[19:02:50.419771] [13] RADIO_STATUS
[19:02:50.538878] [198] HEARTBEAT
[19:02:50.547049] [199] ATTITUDE_TARGET
[19:02:50.988915] [200] VFR_HUD
[19:02:51.452971] [14] RADIO
[19:02:51.455960] [14] RADIO_STATUS
[19:02:51.568998] [201] HEARTBEAT
[19:02:51.798987] [202] VFR_HUD
[19:02:52.373199] [15] RADIO
[19:02:52.376071] [15] RADIO_STATUS
[19:02:52.605206] [203] HEARTBEAT
[19:02:52.612142] [204] SYS_STATUS
[19:02:52.735174] [205] BATTERY_STATUS
[19:02:52.737148] [206] EXTENDED_SYS_STATE
[19:02:52.769270] [207] ATTITUDE_TARGET
[19:02:52.774179] [208] VFR_HUD
[19:02:52.777137] [209] SYSTEM_TIME
[19:02:53.397437] [16] RADIO
[19:02:53.400231] [16] RADIO_STATUS
[19:02:53.523259] [210] VFR_HUD
[19:02:53.526299] [211] HEARTBEAT
[19:02:54.207371] [212] VFR_HUD
[19:02:54.441450] [17] RADIO
[19:02:54.444412] [17] RADIO_STATUS
[19:02:54.566457] [213] HEARTBEAT
[19:02:54.574450] [214] ATTITUDE_TARGET
[19:02:55.017529] [215] VFR_HUD
[19:02:55.466598] [18] RADIO
[19:02:55.468615] [18] RADIO_STATUS
[19:02:55.582632] [216] HEARTBEAT
[19:02:55.816672] [217] VFR_HUD
[19:02:56.385718] [19] RADIO
[19:02:56.388757] [19] RADIO_STATUS
[19:02:56.506741] [218] HEARTBEAT
[19:02:56.526992] [219] SYS_STATUS
[19:02:56.569826] [220] BATTERY_STATUS
[19:02:56.577797] [221] ATTITUDE_TARGET
[19:02:56.582707] [222] VFR_HUD
[19:02:57.426947] [20] RADIO
[19:02:57.429846] [20] RADIO_STATUS
[19:02:57.552932] [223] VFR_HUD
[19:02:57.555989] [224] HEARTBEAT
[19:02:58.122028] [225] VFR_HUD
[19:02:58.457833] [21] RADIO
[19:02:58.459076] [21] RADIO_STATUS
[19:02:58.586131] [226] HEARTBEAT
[19:02:58.594128] [227] ATTITUDE_TARGET
[19:02:58.926136] [228] VFR_HUD
[19:02:59.495258] [22] RADIO
[19:02:59.498224] [22] RADIO_STATUS
[19:02:59.611288] [229] HEARTBEAT
[19:02:59.726335] [230] VFR_HUD
[19:03:00.415551] [23] RADIO
[19:03:00.418424] [23] RADIO_STATUS
[19:03:00.543586] [231] HEARTBEAT
[19:03:00.550503] [232] SYS_STATUS
[19:03:00.668524] [233] BATTERY_STATUS
[19:03:00.676531] [234] ATTITUDE_TARGET
[19:03:00.706535] [235] VFR_HUD
[19:03:01.335594] [236] VFR_HUD
[19:03:01.444549] [24] RADIO
[19:03:01.447533] [24] RADIO_STATUS
[19:03:01.560631] [237] HEARTBEAT
[19:03:02.145828] [238] VFR_HUD
[19:03:02.484849] [25] RADIO
[19:03:02.487806] [25] RADIO_STATUS
[19:03:02.614807] [239] HEARTBEAT
[19:03:02.621783] [240] ATTITUDE_TARGET
[19:03:02.944905] [241] VFR_HUD
[19:03:03.513922] [26] RADIO
[19:03:03.517020] [26] RADIO_STATUS
[19:03:03.630023] [242] HEARTBEAT
[19:03:03.755041] [243] VFR_HUD
[19:03:04.433092] [27] RADIO
[19:03:04.436078] [27] RADIO_STATUS
[19:03:04.562267] [244] HEARTBEAT
[19:03:04.568162] [245] SYS_STATUS
[19:03:04.683312] [246] BATTERY_STATUS
[19:03:04.801309] [247] ATTITUDE_TARGET
[19:03:04.808925] [248] VFR_HUD
[19:03:05.369287] [249] VFR_HUD
[19:03:05.484268] [28] RADIO
[19:03:05.487251] [28] RADIO_STATUS
[19:03:05.598342] [250] HEARTBEAT
[19:03:06.163539] [251] VFR_HUD
[19:03:06.502563] [29] RADIO
[19:03:06.505500] [29] RADIO_STATUS
[19:03:06.550594] [252] HEARTBEAT
[19:03:06.558466] [253] ATTITUDE_TARGET
[19:03:06.978564] [254] VFR_HUD
[19:03:07.538636] [255] HEARTBEAT
[19:03:07.651740] [30] RADIO
[19:03:07.654545] [30] RADIO_STATUS
[19:03:07.773600] [0] VFR_HUD
[19:03:08.461813] [31] RADIO
[19:03:08.464882] [31] RADIO_STATUS
[19:03:08.594827] [1] HEARTBEAT
[19:03:08.601812] [2] SYS_STATUS
[19:03:08.640854] [3] BATTERY_STATUS
[19:03:08.648852] [4] ATTITUDE_TARGET
[19:03:08.653809] [5] VFR_HUD
[19:03:09.490980] [32] RADIO
[19:03:09.493976] [32] RADIO_STATUS
[19:03:09.536027] [6] VFR_HUD
[19:03:09.538967] [7] HEARTBEAT
[19:03:10.192202] [8] VFR_HUD
[19:03:10.541175] [9] HEARTBEAT
[19:03:10.548228] [10] ATTITUDE_TARGET
[19:03:10.641938] [33] RADIO
[19:03:10.644101] [33] RADIO_STATUS
[19:03:10.991234] [11] VFR_HUD
[19:03:11.560368] [34] RADIO
[19:03:11.563308] [34] RADIO_STATUS
[19:03:11.594359] [12] HEARTBEAT
[19:03:11.800554] [13] VFR_HUD
[19:03:12.479472] [35] RADIO
[19:03:12.482532] [35] RADIO_STATUS
[19:03:12.514575] [14] HEARTBEAT
[19:03:12.533530] [15] SYS_STATUS
[19:03:12.569591] [16] BATTERY_STATUS
[19:03:12.570449] [17] EXTENDED_SYS_STATE
[19:03:12.578526] [18] ATTITUDE_TARGET
[19:03:12.583495] [19] VFR_HUD
[19:03:12.609547] [20] SYSTEM_TIME
[19:03:13.410586] [21] VFR_HUD
[19:03:13.515719] [22] HEARTBEAT
[19:03:13.547818] [36] RADIO
[19:03:13.550829] [36] RADIO_STATUS
[19:03:14.209896] [23] VFR_HUD
[19:03:14.548821] [37] RADIO
[19:03:14.551796] [37] RADIO_STATUS
[19:03:14.596906] [24] HEARTBEAT
[19:03:14.604821] [25] ATTITUDE_TARGET
[19:03:15.019979] [26] VFR_HUD
[19:03:15.585147] [27] HEARTBEAT
[19:03:15.698098] [38] RADIO
[19:03:15.701842] [38] RADIO_STATUS
[19:03:15.736962] [28] VFR_HUD
[19:03:16.510134] [29] HEARTBEAT
[19:03:16.530194] [30] SYS_STATUS
[19:03:16.573151] [31] BATTERY_STATUS
[19:03:16.581129] [32] ATTITUDE_TARGET
[19:03:16.585094] [33] VFR_HUD
[19:03:16.588066] [39] RADIO
[19:03:16.592382] [39] RADIO_STATUS
[19:03:17.539356] [40] RADIO
[19:03:17.542186] [40] RADIO_STATUS
[19:03:17.665292] [34] VFR_HUD
[19:03:17.668277] [35] HEARTBEAT
[19:03:18.120444] [36] VFR_HUD
[19:03:18.588423] [37] HEARTBEAT
[19:03:18.596500] [38] ATTITUDE_TARGET
[19:03:18.606443] [41] RADIO
[19:03:18.609451] [41] RADIO_STATUS
[19:03:18.929509] [39] VFR_HUD
[19:03:19.608753] [42] RADIO
[19:03:19.611590] [42] RADIO_STATUS
[19:03:19.642667] [40] HEARTBEAT
[19:03:19.728633] [41] VFR_HUD
[19:03:20.527793] [43] RADIO
[19:03:20.530710] [43] RADIO_STATUS
[19:03:20.655796] [42] HEARTBEAT
[19:03:20.662763] [43] SYS_STATUS
[19:03:20.782881] [44] BATTERY_STATUS
[19:03:20.894816] [45] ATTITUDE_TARGET
[19:03:20.899774] [46] VFR_HUD
[19:03:21.350002] [47] VFR_HUD
[19:03:21.565846] [48] HEARTBEAT
[19:03:21.595007] [44] RADIO
[19:03:21.597949] [44] RADIO_STATUS
[19:03:22.147023] [49] VFR_HUD
[19:03:22.596108] [45] RADIO
[19:03:22.599067] [45] RADIO_STATUS
[19:03:22.726134] [50] HEARTBEAT
[19:03:22.734151] [51] ATTITUDE_TARGET
[19:03:22.947198] [52] VFR_HUD
[19:03:23.522259] [53] HEARTBEAT
[19:03:23.641306] [46] RADIO
[19:03:23.644248] [46] RADIO_STATUS
[19:03:23.866325] [54] VFR_HUD
[19:03:24.564430] [55] HEARTBEAT
[19:03:24.570477] [56] SYS_STATUS
[19:03:24.583399] [47] RADIO
[19:03:24.586392] [47] RADIO_STATUS
[19:03:24.685526] [57] BATTERY_STATUS
[19:03:25.032475] [58] ATTITUDE_TARGET
[19:03:25.037452] [59] VFR_HUD
[19:03:25.371605] [60] VFR_HUD
[19:03:25.584551] [48] RADIO
[19:03:25.587554] [48] RADIO_STATUS
[19:03:25.700644] [61] HEARTBEAT
[19:03:26.165742] [62] VFR_HUD
[19:03:26.510773] [63] HEARTBEAT
[19:03:26.533772] [64] ATTITUDE_TARGET
[19:03:26.629709] [49] RADIO
[19:03:26.632739] [49] RADIO_STATUS
[19:03:26.980837] [65] VFR_HUD
[19:03:27.539932] [66] HEARTBEAT
[19:03:27.654122] [50] RADIO
[19:03:27.656926] [50] RADIO_STATUS
[19:03:27.774927] [67] VFR_HUD
[19:03:28.574095] [51] RADIO
[19:03:28.576193] [51] RADIO_STATUS
[19:03:28.702081] [68] HEARTBEAT
[19:03:28.709306] [69] SYS_STATUS
[19:03:28.823168] [70] BATTERY_STATUS
[19:03:28.941165] [71] ATTITUDE_TARGET
[19:03:28.946202] [72] VFR_HUD
[19:03:29.384208] [73] VFR_HUD
[19:03:29.609256] [74] HEARTBEAT
[19:03:29.723256] [52] RADIO
[19:03:29.726219] [52] RADIO_STATUS
[19:03:30.193293] [75] VFR_HUD
[19:03:30.542376] [76] HEARTBEAT
[19:03:30.550317] [77] ATTITUDE_TARGET
[19:03:30.642387] [53] RADIO
[19:03:30.645378] [53] RADIO_STATUS
[19:03:30.993430] [78] VFR_HUD
[19:03:31.573563] [79] HEARTBEAT
[19:03:31.682529] [54] RADIO
[19:03:31.684532] [54] RADIO_STATUS
[19:03:32.609732] [81] HEARTBEAT
[19:03:32.616745] [82] SYS_STATUS
[19:03:32.711717] [55] RADIO
[19:03:32.715932] [55] RADIO_STATUS
[19:03:32.751797] [83] BATTERY_STATUS
[19:03:32.782709] [84] EXTENDED_SYS_STATE
[19:03:32.790825] [85] ATTITUDE_TARGET
[19:03:32.795703] [86] VFR_HUD
[19:03:32.798694] [87] SYSTEM_TIME
[19:03:33.527835] [88] VFR_HUD
[19:03:33.530814] [89] HEARTBEAT
[19:03:33.630872] [56] RADIO
[19:03:33.633802] [56] RADIO_STATUS
[19:03:34.211939] [90] VFR_HUD
[19:03:34.576029] [91] HEARTBEAT
[19:03:34.584016] [92] ATTITUDE_TARGET
[19:03:34.670002] [57] RADIO
[19:03:34.673064] [57] RADIO_STATUS
[19:03:35.026069] [93] VFR_HUD
[19:03:35.585266] [94] HEARTBEAT
[19:03:35.699125] [58] RADIO
[19:03:35.702121] [58] RADIO_STATUS
[19:03:35.819390] [95] VFR_HUD
[19:03:36.505337] [96] HEARTBEAT
[19:03:36.525283] [97] SYS_STATUS
[19:03:36.573362] [98] BATTERY_STATUS
[19:03:36.581291] [99] ATTITUDE_TARGET
[19:03:36.586384] [100] VFR_HUD
[19:03:36.620313] [59] RADIO
[19:03:36.623322] [59] RADIO_STATUS
[19:03:37.320616] [101] VFR_HUD
[19:03:37.659724] [60] RADIO
[19:03:37.662581] [60] RADIO_STATUS
[19:03:38.119598] [103] VFR_HUD
[19:03:38.606701] [61] RADIO
[19:03:38.609662] [61] RADIO_STATUS
[19:03:38.929843] [106] VFR_HUD
[19:03:39.608843] [62] RADIO
[19:03:39.611773] [62] RADIO_STATUS
[19:03:39.642880] [107] HEARTBEAT
[19:03:39.728820] [108] VFR_HUD
[19:03:40.546948] [109] HEARTBEAT
[19:03:40.552957] [110] SYS_STATUS
[19:03:40.672017] [111] BATTERY_STATUS
[19:03:40.679962] [112] ATTITUDE_TARGET
[19:03:40.710007] [113] VFR_HUD
[19:03:40.737981] [63] RADIO
[19:03:40.739973] [63] RADIO_STATUS
[19:03:41.339206] [114] VFR_HUD
[19:03:41.564146] [115] HEARTBEAT
[19:03:41.678150] [64] RADIO
[19:03:41.681112] [64] RADIO_STATUS
[19:03:42.258214] [116] VFR_HUD
[19:03:42.617324] [117] HEARTBEAT
[19:03:42.625252] [118] ATTITUDE_TARGET
[19:03:42.827270] [65] RADIO
[19:03:42.830266] [65] RADIO_STATUS
[19:03:42.947301] [119] VFR_HUD
[19:03:43.523434] [120] HEARTBEAT
[19:03:43.645754] [66] RADIO
[19:03:43.645905] [66] RADIO_STATUS
[19:03:43.762506] [121] VFR_HUD
[19:03:44.564615] [122] HEARTBEAT
[19:03:44.571558] [123] SYS_STATUS
[19:03:44.666544] [67] RADIO
[19:03:44.669515] [67] RADIO_STATUS
[19:03:44.735568] [124] BATTERY_STATUS
[19:03:44.743570] [125] ATTITUDE_TARGET
[19:03:44.748594] [126] VFR_HUD
[19:03:45.711764] [127] VFR_HUD
[19:03:45.714756] [128] HEARTBEAT
[19:03:45.815752] [68] RADIO
[19:03:45.818754] [68] RADIO_STATUS
[19:03:46.165830] [129] VFR_HUD
[19:03:46.511945] [130] HEARTBEAT
[19:03:46.533881] [131] ATTITUDE_TARGET
[19:03:46.734936] [69] RADIO
[19:03:46.737898] [69] RADIO_STATUS
[19:03:46.976052] [132] VFR_HUD
[19:03:47.464256] JAMMING_START
[19:03:47.541152] [133] HEARTBEAT
[19:03:47.655069] [70] RADIO
[19:03:47.658084] [70] RADIO_STATUS
[19:03:48.592275] [135] HEARTBEAT
[19:03:48.599237] [136] SYS_STATUS
[19:03:48.718304] [137] BATTERY_STATUS
[19:03:48.725256] [138] ATTITUDE_TARGET
[19:03:48.756298] [139] VFR_HUD
[19:03:48.783352] [71] RADIO
[19:03:48.786309] [71] RADIO_STATUS
[19:03:49.384360] [140] VFR_HUD
[19:03:49.610411] [141] HEARTBEAT
[19:03:49.723442] [72] RADIO
[19:03:49.726379] [72] RADIO_STATUS
[19:03:50.543706] [143] HEARTBEAT
[19:03:50.551600] [144] ATTITUDE_TARGET
[19:03:50.768653] [73] RADIO
[19:03:50.773615] [73] RADIO_STATUS
[19:03:50.993648] [145] VFR_HUD
[19:03:51.568790] [146] HEARTBEAT
[19:03:51.682746] [74] RADIO
[19:03:51.685756] [74] RADIO_STATUS
[19:03:51.803758] [147] VFR_HUD
[19:03:52.610975] [148] HEARTBEAT
[19:03:52.617866] [149] SYS_STATUS
[19:03:52.712846] [75] RADIO
[19:03:52.714851] [75] RADIO_STATUS
[19:03:52.752882] [150] BATTERY_STATUS
[19:03:52.783886] [151] EXTENDED_SYS_STATE
[19:03:52.791907] [152] ATTITUDE_TARGET
[19:03:52.795911] [153] VFR_HUD
[19:03:52.799996] [154] SYSTEM_TIME
[19:03:53.757348] [76] RADIO
[19:03:53.760177] [76] RADIO_STATUS
[19:03:54.212197] [157] VFR_HUD
[19:03:54.576251] [158] HEARTBEAT
[19:03:54.584208] [159] ATTITUDE_TARGET
[19:03:54.781243] [77] RADIO
[19:03:54.784252] [77] RADIO_STATUS
[19:03:55.027286] [160] VFR_HUD
[19:03:55.587376] [161] HEARTBEAT
[19:03:55.700691] [78] RADIO
[19:03:55.703349] [78] RADIO_STATUS
[19:03:55.832458] [162] VFR_HUD
[19:03:56.506476] [163] HEARTBEAT
[19:03:56.526448] [164] SYS_STATUS
[19:03:56.575467] [165] BATTERY_STATUS
[19:03:56.583461] [166] ATTITUDE_TARGET
[19:03:56.587503] [167] VFR_HUD
[19:03:56.742488] [79] RADIO
[19:03:56.745489] [79] RADIO_STATUS
[19:03:57.563607] [168] VFR_HUD
[19:03:57.566694] [169] HEARTBEAT
[19:03:57.771615] [80] RADIO
[19:03:57.774568] [80] RADIO_STATUS
[19:03:58.133713] [170] VFR_HUD
[19:03:58.590734] [171] HEARTBEAT
[19:03:58.598731] [172] ATTITUDE_TARGET
[19:03:58.690745] [81] RADIO
[19:03:58.693734] [81] RADIO_STATUS
[19:03:58.931787] [173] VFR_HUD
[19:03:59.621966] [174] HEARTBEAT
[19:03:59.731005] [175] VFR_HUD
[19:03:59.757867] [82] RADIO
[19:03:59.760920] [82] RADIO_STATUS
[19:04:00.760123] [83] RADIO
[19:04:00.763398] [83] RADIO_STATUS
[19:04:01.799298] [84] RADIO
[19:04:01.802404] [84] RADIO_STATUS
[19:04:02.155401] [183] VFR_HUD
[19:04:02.624416] [184] HEARTBEAT
[19:04:02.631470] [185] ATTITUDE_TARGET
[19:04:02.718606] [85] RADIO
[19:04:02.721447] [85] RADIO_STATUS
[19:04:02.949449] [186] VFR_HUD
[19:04:03.524620] [187] HEARTBEAT
[19:04:03.748802] [86] RADIO
[19:04:03.751673] [86] RADIO_STATUS
[19:04:03.786721] [188] VFR_HUD
[19:04:04.566840] [189] HEARTBEAT
[19:04:04.573824] [190] SYS_STATUS
[19:04:04.692895] [191] BATTERY_STATUS
[19:04:04.805912] [192] ATTITUDE_TARGET
[19:04:04.810850] [193] VFR_HUD
[19:04:04.815800] [87] RADIO
[19:04:04.818805] [87] RADIO_STATUS
[19:04:05.478954] [194] VFR_HUD
[19:04:05.593982] [195] HEARTBEAT
[19:04:05.817995] [88] RADIO
[19:04:05.820987] [88] RADIO_STATUS
[19:04:06.180038] [196] VFR_HUD
[19:04:06.514108] [197] HEARTBEAT
[19:04:06.536170] [198] ATTITUDE_TARGET
[19:04:06.737174] [89] RADIO
[19:04:06.740174] [89] RADIO_STATUS
[19:04:06.978177] [199] VFR_HUD
[19:04:07.543309] [200] HEARTBEAT
[19:04:07.777327] [201] VFR_HUD
[19:04:07.804349] [90] RADIO
[19:04:07.807311] [90] RADIO_STATUS
[19:04:08.720566] [204] BATTERY_STATUS
[19:04:08.728491] [205] ATTITUDE_TARGET
[19:04:08.758724] [206] VFR_HUD
[19:04:08.785454] [91] RADIO
[19:04:08.788477] [91] RADIO_STATUS
[19:04:09.387619] [207] VFR_HUD
[19:04:09.612610] [208] HEARTBEAT
[19:04:09.731810] [92] RADIO
[19:04:09.734805] [92] RADIO_STATUS
[19:04:10.196722] [209] VFR_HUD
[19:04:10.545770] [210] HEARTBEAT
[19:04:10.553791] [211] ATTITUDE_TARGET
[19:04:10.770811] [93] RADIO
[19:04:10.773806] [93] RADIO_STATUS
[19:04:10.995870] [212] VFR_HUD
[19:04:11.571984] [213] HEARTBEAT
[19:04:11.794976] [94] RADIO
[19:04:11.798138] [94] RADIO_STATUS
[19:04:11.833945] [214] VFR_HUD
[19:04:12.613115] [215] HEARTBEAT
[19:04:12.620097] [216] SYS_STATUS
[19:04:12.738124] [217] BATTERY_STATUS
[19:04:12.739009] [218] EXTENDED_SYS_STATE
[19:04:12.859175] [219] ATTITUDE_TARGET
[19:04:12.864103] [220] VFR_HUD
[19:04:12.867088] [221] SYSTEM_TIME
[19:04:12.901113] [95] RADIO
[19:04:12.904100] [95] RADIO_STATUS
[19:04:13.420224] [222] VFR_HUD
[19:04:13.532279] [223] HEARTBEAT
[19:04:13.759275] [96] RADIO
[19:04:13.762331] [96] RADIO_STATUS
[19:04:14.215440] [224] VFR_HUD
[19:04:14.574424] [225] HEARTBEAT
[19:04:14.582430] [226] ATTITUDE_TARGET
[19:04:14.784396] [97] RADIO
[19:04:14.787374] [97] RADIO_STATUS
[19:04:15.024468] [227] VFR_HUD
[19:04:15.590078] [228] HEARTBEAT
[19:04:15.824562] [229] VFR_HUD
[19:04:15.858025] [98] RADIO
[19:04:15.859681] [98] RADIO_STATUS
[19:04:16.521742] [230] HEARTBEAT
[19:04:16.528720] [231] SYS_STATUS
[19:04:16.760814] [233] ATTITUDE_TARGET
[19:04:16.765784] [234] VFR_HUD
[19:04:16.799717] [99] RADIO
[19:04:16.802684] [99] RADIO_STATUS
[19:04:17.323875] [235] VFR_HUD
[19:04:17.554854] [236] HEARTBEAT
[19:04:17.898024] [100] RADIO
[19:04:17.900843] [100] RADIO_STATUS
[19:04:18.123040] [237] VFR_HUD
[19:04:18.591998] [238] HEARTBEAT
[19:04:18.600035] [239] ATTITUDE_TARGET
[19:04:18.818018] [101] RADIO
[19:04:18.819985] [101] RADIO_STATUS
[19:04:19.044479] [240] VFR_HUD
[19:04:19.503134] [241] HEARTBEAT
[19:04:19.733291] [242] VFR_HUD
[19:04:19.842190] [102] RADIO
[19:04:19.845165] [102] RADIO_STATUS
[19:04:20.555358] [243] HEARTBEAT
[19:04:20.561363] [244] SYS_STATUS
[19:04:20.601364] [245] BATTERY_STATUS
[19:04:20.609349] [246] ATTITUDE_TARGET
[19:04:20.613308] [247] VFR_HUD
[19:04:20.886357] [103] RADIO
[19:04:20.889320] [103] RADIO_STATUS
[19:04:21.577514] [248] VFR_HUD
[19:04:21.580711] [249] HEARTBEAT
[19:04:21.801646] [104] RADIO
[19:04:21.803477] [104] RADIO_STATUS
[19:04:22.156571] [250] VFR_HUD
[19:04:22.624847] [251] HEARTBEAT
[19:04:22.632731] [252] ATTITUDE_TARGET
[19:04:22.829710] [105] RADIO
[19:04:22.832720] [105] RADIO_STATUS
[19:04:22.950770] [253] VFR_HUD
[19:04:23.759870] [255] VFR_HUD
[19:04:23.869847] [106] RADIO
[19:04:23.872802] [106] RADIO_STATUS
[19:04:24.567984] [0] HEARTBEAT
[19:04:24.574073] [1] SYS_STATUS
[19:04:24.806062] [3] ATTITUDE_TARGET
[19:04:24.811024] [4] VFR_HUD
[19:04:24.817008] [107] RADIO
[19:04:24.820126] [107] RADIO_STATUS
[19:04:25.369072] [5] VFR_HUD
[19:04:25.600142] [6] HEARTBEAT
[19:04:25.818192] [108] RADIO
[19:04:25.821157] [108] RADIO_STATUS
[19:04:26.169202] [7] VFR_HUD
[19:04:26.514301] [8] HEARTBEAT
[19:04:26.537355] [9] ATTITUDE_TARGET
[19:04:26.858314] [109] RADIO
[19:04:26.861260] [109] RADIO_STATUS
[19:04:27.544484] [11] HEARTBEAT
[19:04:27.778496] [12] VFR_HUD
[19:04:27.887474] [110] RADIO
[19:04:27.890526] [110] RADIO_STATUS
[19:04:28.595625] [13] HEARTBEAT
[19:04:28.602591] [14] SYS_STATUS
[19:04:28.720614] [15] BATTERY_STATUS
[19:04:28.728610] [16] ATTITUDE_TARGET
[19:04:28.758621] [17] VFR_HUD
[19:04:28.926700] [111] RADIO
[19:04:28.929614] [111] RADIO_STATUS
[19:04:29.387794] [18] VFR_HUD
[19:04:29.502830] [19] HEARTBEAT
[19:04:29.846851] [112] RADIO
[19:04:29.849882] [112] RADIO_STATUS
[19:04:30.201973] [20] VFR_HUD
[19:04:30.546084] [21] HEARTBEAT
[19:04:30.553007] [22] ATTITUDE_TARGET
[19:04:30.875122] [113] RADIO
[19:04:30.878093] [113] RADIO_STATUS
[19:04:30.996093] [23] VFR_HUD
[19:04:31.811290] [25] VFR_HUD
[19:04:31.926251] [114] RADIO
[19:04:31.929196] [114] RADIO_STATUS
[19:04:32.944423] [115] RADIO
[19:04:32.947386] [115] RADIO_STATUS
[19:04:33.419548] [33] VFR_HUD
[19:04:33.536067] [34] HEARTBEAT
[19:04:33.863594] [116] RADIO
[19:04:33.866545] [116] RADIO_STATUS
[19:04:34.214664] [35] VFR_HUD
[19:04:34.573747] [36] HEARTBEAT
[19:04:34.580724] [37] ATTITUDE_TARGET
[19:04:34.902789] [117] RADIO
[19:04:34.905833] [117] RADIO_STATUS
[19:04:35.589009] [39] HEARTBEAT
[19:04:35.713895] [40] VFR_HUD
[19:04:35.932933] [118] RADIO
[19:04:35.935842] [118] RADIO_STATUS
[19:04:36.641102] [41] HEARTBEAT
[19:04:36.648020] [42] SYS_STATUS
[19:04:36.766110] [43] BATTERY_STATUS
[19:04:36.774137] [44] ATTITUDE_TARGET
[19:04:36.804044] [45] VFR_HUD
[19:04:36.972174] [119] RADIO
[19:04:36.975176] [119] RADIO_STATUS
[19:04:37.433217] [46] VFR_HUD
[19:04:37.548226] [47] HEARTBEAT
[19:04:37.897230] [120] RADIO
[19:04:37.900209] [120] RADIO_STATUS
[19:04:38.123302] [48] VFR_HUD
[19:04:38.591448] [49] HEARTBEAT
[19:04:38.599391] [50] ATTITUDE_TARGET
[19:04:38.921448] [121] RADIO
[19:04:38.924467] [121] RADIO_STATUS
[19:04:38.962102] [51] VFR_HUD
[19:04:39.731678] [53] VFR_HUD
[19:04:39.965661] [122] RADIO
[19:04:39.968730] [122] RADIO_STATUS
[19:04:40.553808] [54] HEARTBEAT
[19:04:40.560777] [55] SYS_STATUS
[19:04:40.599751] [56] BATTERY_STATUS
[19:04:40.607733] [57] ATTITUDE_TARGET
[19:04:40.612697] [58] VFR_HUD
[19:04:40.885804] [123] RADIO
[19:04:40.888800] [123] RADIO_STATUS
[19:04:41.576916] [59] VFR_HUD
[19:04:41.578888] [60] HEARTBEAT
[19:04:41.909984] [124] RADIO
[19:04:41.912902] [124] RADIO_STATUS
[19:04:42.150977] [61] VFR_HUD
[19:04:42.625120] [62] HEARTBEAT
[19:04:42.633077] [63] ATTITUDE_TARGET
[19:04:42.950123] [64] VFR_HUD
[19:04:42.982120] [125] RADIO
[19:04:42.985105] [125] RADIO_STATUS
[19:04:43.530265] [65] HEARTBEAT
[19:04:43.760299] [66] VFR_HUD
[19:04:43.979292] [126] RADIO
[19:04:43.982255] [126] RADIO_STATUS
[19:04:44.567428] [67] HEARTBEAT
[19:04:44.573425] [68] SYS_STATUS
[19:04:44.688471] [69] BATTERY_STATUS
[19:04:44.806510] [70] ATTITUDE_TARGET
[19:04:44.810495] [71] VFR_HUD
[19:04:45.023488] [127] RADIO
[19:04:45.026461] [127] RADIO_STATUS
[19:04:45.599645] [73] HEARTBEAT
[19:04:45.943646] [128] RADIO
[19:04:45.945626] [128] RADIO_STATUS
[19:04:46.168707] [74] VFR_HUD
[19:04:46.967850] [129] RADIO
[19:04:46.970861] [129] RADIO_STATUS
[19:04:47.005949] [77] VFR_HUD
[19:04:47.552954] [78] HEARTBEAT
[19:04:47.777983] [79] VFR_HUD
[19:04:48.012195] [130] RADIO
[19:04:48.015001] [130] RADIO_STATUS
[19:04:48.600187] [80] HEARTBEAT
[19:04:48.607146] [81] SYS_STATUS
[19:04:48.647136] [82] BATTERY_STATUS
[19:04:48.654197] [83] ATTITUDE_TARGET
[19:04:48.659175] [84] VFR_HUD
[19:04:49.037180] [131] RADIO
[19:04:49.040202] [131] RADIO_STATUS
[19:04:49.387309] [85] VFR_HUD
[19:04:49.503324] [86] HEARTBEAT
[19:04:49.956441] [132] RADIO
[19:04:49.959334] [132] RADIO_STATUS
[19:04:50.202535] [87] VFR_HUD
[19:04:50.545580] [88] HEARTBEAT
[19:04:50.553542] [89] ATTITUDE_TARGET
[19:04:51.007772] [90] VFR_HUD
[19:04:51.104684] [133] RADIO
[19:04:51.107613] [133] RADIO_STATUS
[19:04:51.570747] [91] HEARTBEAT
[19:04:51.810882] [92] VFR_HUD
[19:04:52.024805] [134] RADIO
[19:04:52.027733] [134] RADIO_STATUS
[19:04:52.611904] [93] HEARTBEAT
[19:04:52.618907] [94] SYS_STATUS
[19:04:52.742022] [95] BATTERY_STATUS
[19:04:52.743904] [96] EXTENDED_SYS_STATE
[19:04:52.775926] [97] ATTITUDE_TARGET
[19:04:52.780961] [98] VFR_HUD
[19:04:52.783896] [99] SYSTEM_TIME
[19:04:53.064008] [135] RADIO
[19:04:53.066922] [135] RADIO_STATUS
[19:04:53.520060] [101] HEARTBEAT
[19:04:53.983137] [136] RADIO
[19:04:53.986099] [136] RADIO_STATUS
[19:04:54.214165] [102] VFR_HUD
[19:04:54.683241] [103] HEARTBEAT
[19:04:54.693795] [104] ATTITUDE_TARGET
[19:04:55.013267] [137] RADIO
[19:04:55.016311] [137] RADIO_STATUS
[19:04:55.053276] [105] VFR_HUD
[19:04:55.589459] [106] HEARTBEAT
[19:04:55.823474] [107] VFR_HUD
[19:04:56.052459] [138] RADIO
[19:04:56.055521] [138] RADIO_STATUS
[19:04:56.508563] [108] HEARTBEAT
[19:04:56.528568] [109] SYS_STATUS
[19:04:56.642596] [110] BATTERY_STATUS
[19:04:56.972706] [139] RADIO
[19:04:56.975637] [139] RADIO_STATUS
[19:04:57.327772] [113] VFR_HUD
[19:04:57.547766] [114] HEARTBEAT
[19:04:58.001771] [140] RADIO
[19:04:58.004745] [140] RADIO_STATUS
[19:04:58.122828] [115] VFR_HUD
[19:04:58.591961] [116] HEARTBEAT
[19:04:58.598925] [117] ATTITUDE_TARGET
[19:04:58.936950] [118] VFR_HUD
[19:04:59.150950] [141] RADIO
[19:04:59.152935] [141] RADIO_STATUS
[19:04:59.616059] [119] HEARTBEAT
[19:04:59.731220] [120] VFR_HUD
[19:05:00.070158] [142] RADIO
[19:05:00.073143] [142] RADIO_STATUS
[19:05:00.548218] [121] HEARTBEAT
[19:05:00.554299] [122] SYS_STATUS
[19:05:00.673312] [123] BATTERY_STATUS
[19:05:00.681309] [124] ATTITUDE_TARGET
[19:05:00.711263] [125] VFR_HUD
[19:05:00.989332] [143] RADIO
[19:05:00.992344] [143] RADIO_STATUS
[19:05:01.340408] [126] VFR_HUD
[19:05:01.565426] [127] HEARTBEAT
[19:05:02.028472] [144] RADIO
[19:05:02.031468] [144] RADIO_STATUS
[19:05:02.149631] [128] VFR_HUD
[19:05:02.727575] [129] HEARTBEAT
[19:05:02.735606] [130] ATTITUDE_TARGET
[19:05:02.949620] [131] VFR_HUD
[19:05:03.058621] [145] RADIO
[19:05:03.061592] [145] RADIO_STATUS
[19:05:03.529751] [132] HEARTBEAT
[19:05:04.097808] [146] RADIO
[19:05:04.100867] [146] RADIO_STATUS
[19:05:04.565914] [134] HEARTBEAT
[19:05:04.572981] [135] SYS_STATUS
[19:05:04.686924] [136] BATTERY_STATUS
[19:05:05.033988] [137] ATTITUDE_TARGET
[19:05:05.039006] [138] VFR_HUD
[19:05:05.052227] [147] RADIO
[19:05:05.052967] [147] RADIO_STATUS
[19:05:05.478055] [139] VFR_HUD
[19:05:05.506094] [140] HEARTBEAT
[19:05:06.047169] [148] RADIO
[19:05:06.050941] [148] RADIO_STATUS
[19:05:06.167135] [141] VFR_HUD
[19:05:06.533208] [142] HEARTBEAT
[19:05:06.539252] [143] ATTITUDE_TARGET
[19:05:06.982346] [144] VFR_HUD
[19:05:07.103311] [149] RADIO
[19:05:07.106326] [149] RADIO_STATUS
[19:05:07.542410] [145] HEARTBEAT
[19:05:07.777595] [146] VFR_HUD
[19:05:08.116528] [150] RADIO
[19:05:08.119464] [150] RADIO_STATUS
[19:05:08.598577] [147] HEARTBEAT
[19:05:08.605616] [148] SYS_STATUS
[19:05:08.645961] [149] BATTERY_STATUS
[19:05:08.653557] [150] ATTITUDE_TARGET
[19:05:08.657555] [151] VFR_HUD
[19:05:09.035588] [151] RADIO
[19:05:09.038601] [151] RADIO_STATUS
[19:05:10.079760] [152] RADIO
[19:05:10.082755] [152] RADIO_STATUS
[19:05:10.200771] [154] VFR_HUD
[19:05:10.994957] [157] VFR_HUD
[19:05:11.103935] [153] RADIO
[19:05:11.107174] [153] RADIO_STATUS
[19:05:11.576086] [158] HEARTBEAT
[19:05:12.149105] [154] RADIO
[19:05:12.152098] [154] RADIO_STATUS
[19:05:12.612275] [160] HEARTBEAT
[19:05:12.619262] [161] SYS_STATUS
[19:05:12.741306] [162] BATTERY_STATUS
[19:05:12.743208] [163] EXTENDED_SYS_STATE
[19:05:12.775297] [164] ATTITUDE_TARGET
[19:05:12.780287] [165] VFR_HUD
[19:05:12.784246] [166] SYSTEM_TIME
[19:05:13.069306] [155] RADIO
[19:05:13.072291] [155] RADIO_STATUS
[19:05:13.414530] [167] VFR_HUD
[19:05:13.519439] [168] HEARTBEAT
[19:05:14.093552] [156] RADIO
[19:05:14.096523] [156] RADIO_STATUS
[19:05:14.572701] [170] HEARTBEAT
[19:05:14.580568] [171] ATTITUDE_TARGET
[19:05:15.025761] [172] VFR_HUD
[19:05:15.137705] [157] RADIO
[19:05:15.140710] [157] RADIO_STATUS
[19:05:15.588832] [173] HEARTBEAT
[19:05:15.718838] [174] VFR_HUD
[19:05:16.161843] [158] RADIO
[19:05:16.164863] [158] RADIO_STATUS
[19:05:16.507995] [175] HEARTBEAT
[19:05:16.527925] [176] SYS_STATUS
[19:05:16.646943] [177] BATTERY_STATUS
[19:05:16.758980] [178] ATTITUDE_TARGET
[19:05:16.763981] [179] VFR_HUD
[19:05:17.082053] [159] RADIO
[19:05:17.085046] [159] RADIO_STATUS
[19:05:17.327019] [180] VFR_HUD
[19:05:18.122159] [182] VFR_HUD
[19:05:18.154204] [160] RADIO
[19:05:18.157119] [160] RADIO_STATUS
[19:05:18.591152] [183] HEARTBEAT
[19:05:18.599182] [184] ATTITUDE_TARGET
[19:05:18.931213] [185] VFR_HUD
[19:05:19.150333] [161] RADIO
[19:05:19.153210] [161] RADIO_STATUS
[19:05:19.616368] [186] HEARTBEAT
[19:05:19.742358] [187] VFR_HUD
[19:05:20.195537] [162] RADIO
[19:05:20.198455] [162] RADIO_STATUS
[19:05:20.547542] [188] HEARTBEAT
[19:05:20.554533] [189] SYS_STATUS
[19:05:20.673547] [190] BATTERY_STATUS
[19:05:20.681531] [191] ATTITUDE_TARGET
[19:05:20.711502] [192] VFR_HUD
[19:05:21.109553] [163] RADIO
[19:05:21.112536] [163] RADIO_STATUS
[19:05:21.340624] [193] VFR_HUD
[19:05:21.568197] [194] HEARTBEAT
[19:05:22.139819] [164] RADIO
[19:05:22.141735] [164] RADIO_STATUS
[19:05:22.259755] [195] VFR_HUD
[19:05:22.618795] [196] HEARTBEAT
[19:05:22.626787] [197] ATTITUDE_TARGET
[19:05:22.949854] [198] VFR_HUD
[19:05:23.178905] [165] RADIO
[19:05:23.181870] [165] RADIO_STATUS
[19:05:23.524975] [199] HEARTBEAT
[19:05:23.759052] [200] VFR_HUD
[19:05:24.208120] [166] RADIO
[19:05:24.211025] [166] RADIO_STATUS
[19:05:24.566163] [201] HEARTBEAT
[19:05:24.573221] [202] SYS_STATUS
[19:05:24.688281] [203] BATTERY_STATUS
[19:05:24.805317] [204] ATTITUDE_TARGET
[19:05:24.810182] [205] VFR_HUD
[19:05:25.128224] [167] RADIO
[19:05:25.131195] [167] RADIO_STATUS
[19:05:25.373323] [206] VFR_HUD
[19:05:26.168432] [208] VFR_HUD
[19:05:26.195465] [168] RADIO
[19:05:26.198534] [168] RADIO_STATUS
[19:05:26.532547] [209] HEARTBEAT
[19:05:26.540461] [210] ATTITUDE_TARGET
[19:05:26.982566] [211] VFR_HUD
[19:05:27.196587] [169] RADIO
[19:05:27.199509] [169] RADIO_STATUS
[19:05:27.542655] [212] HEARTBEAT
[19:05:27.788844] [213] VFR_HUD
[19:05:28.235830] [170] RADIO
[19:05:28.238791] [170] RADIO_STATUS
[19:05:28.598954] [214] HEARTBEAT
[19:05:28.605900] [215] SYS_STATUS
[19:05:28.644885] [216] BATTERY_STATUS
[19:05:28.652898] [217] ATTITUDE_TARGET
[19:05:28.657879] [218] VFR_HUD
[19:05:29.154933] [171] RADIO
[19:05:29.157906] [171] RADIO_STATUS
[19:05:29.516977] [219] VFR_HUD
[19:05:29.520012] [220] HEARTBEAT
[19:05:30.185135] [172] RADIO
[19:05:30.188072] [172] RADIO_STATUS
[19:05:30.305141] [221] VFR_HUD
[19:05:30.544265] [222] HEARTBEAT
[19:05:30.552252] [223] ATTITUDE_TARGET
[19:05:30.995259] [224] VFR_HUD
[19:05:31.224290] [173] RADIO
[19:05:31.230042] [173] RADIO_STATUS
[19:05:31.575369] [225] HEARTBEAT
[19:05:31.804405] [226] VFR_HUD
[19:05:32.253440] [174] RADIO
[19:05:32.256420] [174] RADIO_STATUS
[19:05:32.612597] [227] HEARTBEAT
[19:05:32.618654] [228] SYS_STATUS
[19:05:32.736557] [229] BATTERY_STATUS
[19:05:32.738576] [230] EXTENDED_SYS_STATE
[19:05:32.857537] [231] ATTITUDE_TARGET
[19:05:32.862569] [232] VFR_HUD
[19:05:32.865521] [233] SYSTEM_TIME
[19:05:33.173702] [175] RADIO
[19:05:33.176544] [175] RADIO_STATUS
[19:05:33.414695] [234] VFR_HUD
[19:05:33.519640] [235] HEARTBEAT
[19:05:34.213802] [236] VFR_HUD
[19:05:34.246810] [176] RADIO
[19:05:34.249703] [176] RADIO_STATUS
[19:05:34.577905] [237] HEARTBEAT
[19:05:34.585821] [238] ATTITUDE_TARGET
[19:05:35.028902] [239] VFR_HUD
[19:05:35.242916] [177] RADIO
[19:05:35.245834] [177] RADIO_STATUS
[19:05:35.588982] [240] HEARTBEAT
[19:05:35.718986] [241] VFR_HUD
[19:05:36.288063] [178] RADIO
[19:05:36.291039] [178] RADIO_STATUS
[19:05:36.509287] [242] HEARTBEAT
[19:05:36.529264] [243] SYS_STATUS
[19:05:36.647239] [244] BATTERY_STATUS
[19:05:36.760243] [245] ATTITUDE_TARGET
[19:05:36.764155] [246] VFR_HUD
[19:05:37.207266] [179] RADIO
[19:05:37.210179] [179] RADIO_STATUS
[19:05:37.325828] [247] VFR_HUD
[19:05:37.548299] [248] HEARTBEAT
[19:05:38.122403] [249] VFR_HUD
[19:05:38.231364] [180] RADIO
[19:05:38.234379] [180] RADIO_STATUS
[19:05:38.591602] [250] HEARTBEAT
[19:05:38.599668] [251] ATTITUDE_TARGET
[19:05:38.931534] [252] VFR_HUD
[19:05:39.276596] [181] RADIO
[19:05:39.279562] [181] RADIO_STATUS
[19:05:39.622619] [253] HEARTBEAT
[19:05:39.731637] [254] VFR_HUD
[19:05:40.196881] [182] RADIO
[19:05:40.198702] [182] RADIO_STATUS
[19:05:40.673819] [1] BATTERY_STATUS
[19:05:40.681815] [2] ATTITUDE_TARGET
[19:05:40.711748] [3] VFR_HUD
[19:05:41.220974] [183] RADIO
[19:05:41.223840] [183] RADIO_STATUS
[19:05:41.340873] [4] VFR_HUD
[19:05:41.575929] [5] HEARTBEAT
[19:05:42.151032] [6] VFR_HUD
[19:05:42.265009] [184] RADIO
[19:05:42.267987] [184] RADIO_STATUS
[19:05:42.620274] [7] HEARTBEAT
[19:05:42.628111] [8] ATTITUDE_TARGET
[19:05:42.950147] [9] VFR_HUD
[19:05:43.289182] [185] RADIO
[19:05:43.292129] [185] RADIO_STATUS
[19:05:43.525221] [10] HEARTBEAT
[19:05:43.765231] [11] VFR_HUD
[19:05:44.209305] [186] RADIO
[19:05:44.212314] [186] RADIO_STATUS
[19:05:44.567378] [12] HEARTBEAT
[19:05:44.574406] [13] SYS_STATUS
[19:05:44.688462] [14] BATTERY_STATUS
[19:05:44.806571] [15] ATTITUDE_TARGET
[19:05:44.811452] [16] VFR_HUD
[19:05:45.248467] [187] RADIO
[19:05:45.251451] [187] RADIO_STATUS
[19:05:45.374506] [17] VFR_HUD
[19:05:45.594524] [18] HEARTBEAT
[19:05:46.180739] [19] VFR_HUD
[19:05:46.277565] [188] RADIO
[19:05:46.280621] [188] RADIO_STATUS
[19:05:46.527641] [20] HEARTBEAT
[19:05:46.534621] [21] ATTITUDE_TARGET
[19:05:46.982735] [22] VFR_HUD
[19:05:47.316758] [189] RADIO
[19:05:47.319925] [189] RADIO_STATUS
[19:05:47.542866] [23] HEARTBEAT
[19:05:47.781868] [24] VFR_HUD
[19:05:48.236921] [190] RADIO
[19:05:48.239920] [190] RADIO_STATUS
[19:05:48.720585] [27] BATTERY_STATUS
[19:05:48.728045] [28] ATTITUDE_TARGET
[19:05:48.758036] [29] VFR_HUD
[19:05:49.266144] [191] RADIO
[19:05:49.269081] [191] RADIO_STATUS
[19:05:49.387102] [30] VFR_HUD
[19:05:49.507145] [31] HEARTBEAT
[19:05:50.196272] [32] VFR_HUD
[19:05:50.309311] [192] RADIO
[19:05:50.312291] [192] RADIO_STATUS
[19:05:50.546372] [33] HEARTBEAT
[19:05:50.553328] [34] ATTITUDE_TARGET
[19:05:50.996440] [35] VFR_HUD
[19:05:51.335472] [193] RADIO
[19:05:51.338534] [193] RADIO_STATUS
[19:05:51.571972] [36] HEARTBEAT
[19:05:51.806554] [37] VFR_HUD
[19:05:52.255925] [194] RADIO
[19:05:52.258600] [194] RADIO_STATUS
[19:05:52.496649] [38] HEARTBEAT
[19:05:52.628684] [39] SYS_STATUS
[19:05:52.636642] [40] BATTERY_STATUS
[19:05:52.638599] [41] EXTENDED_SYS_STATE
[19:05:52.662666] [42] ATTITUDE_TARGET
[19:05:52.666642] [43] VFR_HUD
[19:05:52.670613] [44] SYSTEM_TIME
[19:05:53.294781] [195] RADIO
[19:05:53.297788] [195] RADIO_STATUS
[19:05:53.420776] [45] VFR_HUD
[19:05:53.532800] [46] HEARTBEAT
[19:05:54.110950] [47] VFR_HUD
[19:05:54.324931] [196] RADIO
[19:05:54.327951] [196] RADIO_STATUS
[19:05:54.579996] [48] HEARTBEAT
[19:05:54.586991] [49] ATTITUDE_TARGET
[19:05:55.030073] [50] VFR_HUD
[19:05:55.364170] [197] RADIO
[19:05:55.367196] [197] RADIO_STATUS
[19:05:55.590193] [51] HEARTBEAT
[19:05:55.715240] [52] VFR_HUD
[19:05:56.283301] [198] RADIO
[19:05:56.286244] [198] RADIO_STATUS
[19:05:56.761460] [56] ATTITUDE_TARGET
[19:05:56.765349] [57] VFR_HUD
[19:05:57.313580] [199] RADIO
[19:05:57.316453] [199] RADIO_STATUS
[19:05:57.434518] [58] VFR_HUD
[19:05:57.554530] [59] HEARTBEAT
[19:05:58.123739] [60] VFR_HUD
[19:05:58.353755] [200] RADIO
[19:05:58.355728] [200] RADIO_STATUS
[19:05:58.592984] [61] HEARTBEAT
[19:05:58.600792] [62] ATTITUDE_TARGET
[19:05:59.277891] [201] RADIO
[19:05:59.280816] [201] RADIO_STATUS
[19:05:59.623905] [64] HEARTBEAT
[19:05:59.732882] [65] VFR_HUD
[19:06:00.302013] [202] RADIO
[19:06:00.305152] [202] RADIO_STATUS
[19:06:00.550100] [66] HEARTBEAT
[19:06:00.557184] [67] SYS_STATUS
[19:06:00.676091] [68] BATTERY_STATUS
[19:06:00.684094] [69] ATTITUDE_TARGET
[19:06:00.714358] [70] VFR_HUD
[19:06:01.343220] [71] VFR_HUD
[19:06:01.375406] [203] RADIO
[19:06:01.378293] [203] RADIO_STATUS
[19:06:01.568268] [72] HEARTBEAT
[19:06:02.157335] [73] VFR_HUD
[19:06:02.278355] [204] RADIO
[19:06:02.281326] [204] RADIO_STATUS
[19:06:02.626436] [74] HEARTBEAT
[19:06:02.634401] [75] ATTITUDE_TARGET
[19:06:02.951490] [76] VFR_HUD
[19:06:03.291608] [205] RADIO
[19:06:03.296442] [205] RADIO_STATUS
[19:06:03.766673] [78] VFR_HUD
[19:06:04.335796] [206] RADIO
[19:06:04.338927] [206] RADIO_STATUS
[19:06:04.568778] [79] HEARTBEAT
[19:06:04.575766] [80] SYS_STATUS
[19:06:04.807875] [82] ATTITUDE_TARGET
[19:06:04.812709] [83] VFR_HUD
[19:06:05.363848] [207] RADIO
[19:06:05.366860] [207] RADIO_STATUS
[19:06:05.407418] [84] VFR_HUD
[19:06:05.595910] [85] HEARTBEAT
[19:06:06.171022] [86] VFR_HUD
[19:06:06.405753] [208] RADIO
[19:06:06.408050] [208] RADIO_STATUS
[19:06:06.530064] [87] HEARTBEAT
[19:06:06.537006] [88] ATTITUDE_TARGET
[19:06:07.324188] [209] RADIO
[19:06:07.327154] [209] RADIO_STATUS
[19:06:07.545216] [90] HEARTBEAT
[19:06:07.780233] [91] VFR_HUD
[19:06:08.349347] [210] RADIO
[19:06:08.352493] [210] RADIO_STATUS
[19:06:08.597413] [92] HEARTBEAT
[19:06:08.603414] [93] SYS_STATUS
[19:06:08.722466] [94] BATTERY_STATUS
[19:06:08.730389] [95] ATTITUDE_TARGET
[19:06:08.760469] [96] VFR_HUD
[19:06:09.389490] [97] VFR_HUD
[19:06:09.421660] [211] RADIO
[19:06:09.424526] [211] RADIO_STATUS
[19:06:09.504651] [98] HEARTBEAT
[19:06:10.198748] [99] VFR_HUD
[19:06:10.418761] [212] RADIO
[19:06:10.421702] [212] RADIO_STATUS
[19:06:10.547797] [100] HEARTBEAT
[19:06:10.555773] [101] ATTITUDE_TARGET
[19:06:10.998824] [102] VFR_HUD
[19:06:11.337894] [213] RADIO
[19:06:11.340960] [213] RADIO_STATUS
[19:06:11.814206] [104] VFR_HUD
[19:06:12.378013] [214] RADIO
[19:06:12.379973] [214] RADIO_STATUS
[19:06:12.499123] [105] HEARTBEAT
[19:06:12.631101] [106] SYS_STATUS
[19:06:12.639058] [107] BATTERY_STATUS
[19:06:12.641052] [108] EXTENDED_SYS_STATE
[19:06:12.664120] [109] ATTITUDE_TARGET
[19:06:12.669077] [110] VFR_HUD
[19:06:12.673270] [111] SYSTEM_TIME
[19:06:13.406226] [215] RADIO
[19:06:13.413751] [215] RADIO_STATUS
[19:06:13.444199] [112] VFR_HUD
[19:06:13.522239] [113] HEARTBEAT
[19:06:14.216356] [114] VFR_HUD
[19:06:14.445357] [216] RADIO
[19:06:14.448291] [216] RADIO_STATUS
[19:06:14.580338] [115] HEARTBEAT
[19:06:14.588412] [116] ATTITUDE_TARGET
[19:06:15.135475] [117] VFR_HUD
[19:06:15.364498] [217] RADIO
[19:06:15.367466] [217] RADIO_STATUS
[19:06:15.590626] [118] HEARTBEAT
[19:06:15.715671] [119] VFR_HUD
[19:06:16.394776] [218] RADIO
[19:06:16.397662] [218] RADIO_STATUS
[19:06:16.522786] [120] HEARTBEAT
[19:06:16.529797] [121] SYS_STATUS
[19:06:16.643788] [122] BATTERY_STATUS
[19:06:16.761774] [123] ATTITUDE_TARGET
[19:06:16.766737] [124] VFR_HUD
[19:06:17.433834] [219] RADIO
[19:06:17.436802] [219] RADIO_STATUS
[19:06:17.554971] [126] HEARTBEAT
[19:06:18.123933] [127] VFR_HUD
[19:06:18.463035] [220] RADIO
[19:06:18.465996] [220] RADIO_STATUS
[19:06:18.593040] [128] HEARTBEAT
[19:06:18.601079] [129] ATTITUDE_TARGET
[19:06:18.934149] [130] VFR_HUD
[19:06:19.383189] [221] RADIO
[19:06:19.386178] [221] RADIO_STATUS
[19:06:19.733275] [132] VFR_HUD
[19:06:20.422381] [222] RADIO
[19:06:20.425343] [222] RADIO_STATUS
[19:06:20.555503] [133] HEARTBEAT
[19:06:20.562442] [134] SYS_STATUS
[19:06:20.602518] [135] BATTERY_STATUS
[19:06:20.609405] [136] ATTITUDE_TARGET
[19:06:20.614537] [137] VFR_HUD
[19:06:21.451589] [223] RADIO
[19:06:21.454562] [223] RADIO_STATUS
[19:06:21.578559] [138] VFR_HUD
[19:06:21.581513] [139] HEARTBEAT
[19:06:22.157736] [140] VFR_HUD
[19:06:22.371755] [224] RADIO
[19:06:22.374660] [224] RADIO_STATUS
[19:06:22.626830] [141] HEARTBEAT
[19:06:22.633817] [142] ATTITUDE_TARGET
[19:06:22.963751] [143] VFR_HUD
[19:06:23.410935] [225] RADIO
[19:06:23.414016] [225] RADIO_STATUS
[19:06:23.526883] [144] HEARTBEAT
[19:06:23.766889] [145] VFR_HUD
[19:06:24.441166] [226] RADIO
[19:06:24.442975] [226] RADIO_STATUS
[19:06:24.569055] [146] HEARTBEAT
[19:06:24.575043] [147] SYS_STATUS
[19:06:24.695062] [148] BATTERY_STATUS
[19:06:24.808121] [149] ATTITUDE_TARGET
[19:06:24.812098] [150] VFR_HUD
[19:06:25.480325] [227] RADIO
[19:06:25.483238] [227] RADIO_STATUS
[19:06:25.601276] [152] HEARTBEAT
[19:06:26.170350] [153] VFR_HUD
[19:06:26.405366] [228] RADIO
[19:06:26.408332] [228] RADIO_STATUS
[19:06:26.639611] [154] HEARTBEAT
[19:06:26.647372] [155] ATTITUDE_TARGET
[19:06:26.980449] [156] VFR_HUD
[19:06:27.429499] [229] RADIO
[19:06:27.432483] [229] RADIO_STATUS
[19:06:27.545603] [157] HEARTBEAT
[19:06:27.779570] [158] VFR_HUD
[19:06:28.473860] [230] RADIO
[19:06:28.476775] [230] RADIO_STATUS
[19:06:28.596876] [159] HEARTBEAT
[19:06:28.603961] [160] SYS_STATUS
[19:06:28.754906] [161] BATTERY_STATUS
[19:06:28.762798] [162] ATTITUDE_TARGET
[19:06:28.767717] [163] VFR_HUD
[19:06:29.389222] [164] VFR_HUD
[19:06:29.424696] [231] RADIO
[19:06:29.424830] [231] RADIO_STATUS
[19:06:29.504842] [165] HEARTBEAT
[19:06:30.203938] [166] VFR_HUD
[19:06:30.418176] [232] RADIO
[19:06:30.420997] [232] RADIO_STATUS
[19:06:30.548024] [167] HEARTBEAT
[19:06:30.556773] [168] ATTITUDE_TARGET
[19:06:30.998100] [169] VFR_HUD
[19:06:31.462153] [233] RADIO
[19:06:31.465090] [233] RADIO_STATUS
[19:06:31.573235] [170] HEARTBEAT
[19:06:31.813182] [171] VFR_HUD
[19:06:32.487323] [234] RADIO
[19:06:32.489297] [234] RADIO_STATUS
[19:06:32.615323] [172] HEARTBEAT
[19:06:32.622324] [173] SYS_STATUS
[19:06:32.739424] [174] BATTERY_STATUS
[19:06:32.741433] [175] EXTENDED_SYS_STATE
[19:06:32.860384] [176] ATTITUDE_TARGET
[19:06:32.865393] [177] VFR_HUD
[19:06:32.869347] [178] SYSTEM_TIME
[19:06:33.527471] [179] VFR_HUD
[19:06:33.534553] [180] HEARTBEAT
[19:06:33.565092] [235] RADIO
[19:06:33.567533] [235] RADIO_STATUS
[19:06:34.107650] [181] VFR_HUD
[19:06:34.555782] [236] RADIO
[19:06:34.558797] [236] RADIO_STATUS
[19:06:34.685687] [182] HEARTBEAT
[19:06:34.693652] [183] ATTITUDE_TARGET
[19:06:35.026773] [184] VFR_HUD
[19:06:35.475841] [237] RADIO
[19:06:35.478776] [237] RADIO_STATUS
[19:06:35.509992] [185] HEARTBEAT
[19:06:36.524112] [187] HEARTBEAT
[19:06:36.531066] [188] SYS_STATUS
[19:06:36.543036] [238] RADIO
[19:06:36.546181] [238] RADIO_STATUS
[19:06:36.645059] [189] BATTERY_STATUS
[19:06:36.992131] [190] ATTITUDE_TARGET
[19:06:36.997044] [191] VFR_HUD
[19:06:37.326323] [192] VFR_HUD
[19:06:37.435235] [239] RADIO
[19:06:37.438096] [239] RADIO_STATUS
[19:06:37.556197] [193] HEARTBEAT
[19:06:38.125217] [194] VFR_HUD
[19:06:38.464301] [240] RADIO
[19:06:38.467238] [240] RADIO_STATUS
[19:06:38.594335] [195] HEARTBEAT
[19:06:38.602317] [196] ATTITUDE_TARGET
[19:06:38.940375] [197] VFR_HUD
[19:06:39.503659] [241] RADIO
[19:06:39.509929] [241] RADIO_STATUS
[19:06:39.620653] [198] HEARTBEAT
[19:06:39.734603] [199] VFR_HUD
[19:06:40.533664] [242] RADIO
[19:06:40.536673] [242] RADIO_STATUS
[19:06:40.593684] [200] HEARTBEAT
[19:06:40.599662] [201] SYS_STATUS
[19:06:40.607821] [202] BATTERY_STATUS
[19:06:40.619681] [203] ATTITUDE_TARGET
[19:06:40.624713] [204] VFR_HUD
[19:06:41.458838] [243] RADIO
[19:06:41.461795] [243] RADIO_STATUS
[19:06:41.570208] [206] HEARTBEAT
[19:06:42.158899] [207] VFR_HUD
[19:06:42.492973] [244] RADIO
[19:06:42.495993] [244] RADIO_STATUS
[19:06:42.953113] [210] VFR_HUD
[19:06:43.522135] [245] RADIO
[19:06:43.525111] [245] RADIO_STATUS
[19:06:43.556181] [211] HEARTBEAT
[19:06:44.570355] [213] HEARTBEAT
[19:06:44.577313] [214] SYS_STATUS
[19:06:44.672373] [246] RADIO
[19:06:44.674238] [246] RADIO_STATUS
[19:06:44.741333] [215] BATTERY_STATUS
[19:06:44.749372] [216] ATTITUDE_TARGET
[19:06:44.754461] [217] VFR_HUD
[19:06:45.591421] [247] RADIO
[19:06:45.594402] [247] RADIO_STATUS
[19:06:45.635623] [218] VFR_HUD
[19:06:45.638599] [219] HEARTBEAT
[19:06:46.171549] [220] VFR_HUD
[19:06:46.510983] [248] RADIO
[19:06:46.513755] [248] RADIO_STATUS
[19:06:46.558724] [221] HEARTBEAT
[19:06:46.566660] [222] ATTITUDE_TARGET
[19:06:46.981717] [223] VFR_HUD
[19:06:47.546873] [224] HEARTBEAT
[19:06:47.660835] [249] RADIO
[19:06:47.663912] [249] RADIO_STATUS
[19:06:47.780853] [225] VFR_HUD
[19:06:48.579951] [250] RADIO
[19:06:48.582934] [250] RADIO_STATUS
[19:06:48.639982] [226] HEARTBEAT
[19:06:48.646981] [227] SYS_STATUS
[19:06:48.653974] [228] BATTERY_STATUS
[19:06:48.666969] [229] ATTITUDE_TARGET
[19:06:48.670954] [230] VFR_HUD
[19:06:49.402137] [231] VFR_HUD
[19:06:49.500143] [251] RADIO
[19:06:49.503099] [251] RADIO_STATUS
[19:06:49.616171] [232] HEARTBEAT
[19:06:50.205304] [233] VFR_HUD
[19:06:50.567343] [252] RADIO
[19:06:50.570320] [252] RADIO_STATUS
[19:06:50.999447] [236] VFR_HUD
[19:06:51.568560] [253] RADIO
[19:06:51.571473] [253] RADIO_STATUS
[19:06:51.684622] [237] HEARTBEAT
[19:06:52.616765] [239] HEARTBEAT
[19:06:52.622714] [240] SYS_STATUS
[19:06:52.717839] [254] RADIO
[19:06:52.720663] [254] RADIO_STATUS
[19:06:52.782806] [241] BATTERY_STATUS
[19:06:52.784655] [242] EXTENDED_SYS_STATE
[19:06:52.791787] [243] ATTITUDE_TARGET
[19:06:52.796738] [244] VFR_HUD
[19:06:52.800834] [245] SYSTEM_TIME
[19:06:53.418839] [246] VFR_HUD
[19:06:53.523785] [247] HEARTBEAT
[19:06:53.555838] [255] RADIO
[19:06:53.558746] [255] RADIO_STATUS
[19:06:54.557088] [0] RADIO
[19:06:54.560021] [0] RADIO_STATUS
[19:06:54.687019] [249] HEARTBEAT
[19:06:54.695051] [250] ATTITUDE_TARGET
[19:06:54.908089] [251] VFR_HUD
[19:06:55.593216] [252] HEARTBEAT
[19:06:55.625125] [1] RADIO
[19:06:55.627102] [1] RADIO_STATUS
[19:06:55.717169] [253] VFR_HUD
[19:06:56.524353] [254] HEARTBEAT
[19:06:56.531353] [255] SYS_STATUS
[19:06:56.544419] [2] RADIO
[19:06:56.547472] [2] RADIO_STATUS
[19:06:56.646386] [0] BATTERY_STATUS
[19:06:56.763585] [1] ATTITUDE_TARGET
[19:06:56.768373] [2] VFR_HUD
[19:06:57.332464] [3] VFR_HUD
[19:06:57.545526] [3] RADIO
[19:06:57.548469] [3] RADIO_STATUS
[19:06:57.661564] [4] HEARTBEAT
[19:06:58.125592] [5] VFR_HUD
[19:06:58.612958] [4] RADIO
[19:06:58.615666] [4] RADIO_STATUS
[19:06:58.940838] [8] VFR_HUD
[19:06:59.500938] [9] HEARTBEAT
[19:06:59.613863] [5] RADIO
[19:06:59.616837] [5] RADIO_STATUS
[19:06:59.734889] [10] VFR_HUD
[19:07:00.557085] [11] HEARTBEAT
[19:07:00.564053] [12] SYS_STATUS
[19:07:00.603041] [13] BATTERY_STATUS
[19:07:00.611056] [14] ATTITUDE_TARGET
[19:07:00.616080] [15] VFR_HUD
[19:07:00.659118] [6] RADIO
[19:07:00.662003] [6] RADIO_STATUS
[19:07:01.579217] [16] VFR_HUD
[19:07:01.582232] [17] HEARTBEAT
[19:07:01.590202] [7] RADIO
[19:07:01.593161] [7] RADIO_STATUS
[19:07:02.602383] [8] RADIO
[19:07:02.605359] [8] RADIO_STATUS
[19:07:02.732635] [19] HEARTBEAT
[19:07:02.740423] [20] ATTITUDE_TARGET
[19:07:02.953419] [21] VFR_HUD
[19:07:03.533586] [22] HEARTBEAT
[19:07:03.642557] [9] RADIO
[19:07:03.645605] [9] RADIO_STATUS
[19:07:03.762583] [23] VFR_HUD
[19:07:04.570719] [24] HEARTBEAT
[19:07:04.576775] [25] SYS_STATUS
[19:07:04.671805] [10] RADIO
[19:07:04.674741] [10] RADIO_STATUS
[19:07:04.712760] [26] BATTERY_STATUS
[19:07:04.739809] [27] ATTITUDE_TARGET
[19:07:04.744722] [28] VFR_HUD
[19:07:05.481903] [29] VFR_HUD
[19:07:05.510864] [30] HEARTBEAT
[19:07:05.591847] [11] RADIO
[19:07:05.594813] [11] RADIO_STATUS
[19:07:06.171997] [31] VFR_HUD
[19:07:06.536186] [32] HEARTBEAT
[19:07:06.543986] [33] ATTITUDE_TARGET
[19:07:06.630979] [12] RADIO
[19:07:06.634015] [12] RADIO_STATUS
[19:07:06.987190] [34] VFR_HUD
[19:07:07.547169] [35] HEARTBEAT
[19:07:07.660166] [13] RADIO
[19:07:07.663195] [13] RADIO_STATUS
[19:07:07.781275] [36] VFR_HUD
[19:07:08.603349] [37] HEARTBEAT
[19:07:08.610352] [38] SYS_STATUS
[19:07:08.650394] [39] BATTERY_STATUS
[19:07:08.657790] [40] ATTITUDE_TARGET
[19:07:08.662723] [41] VFR_HUD
[19:07:08.700353] [14] RADIO
[19:07:08.703254] [14] RADIO_STATUS
[19:07:09.516572] [42] VFR_HUD
[19:07:09.519452] [43] HEARTBEAT
[19:07:09.636443] [15] RADIO
[19:07:09.639470] [15] RADIO_STATUS
[19:07:10.310617] [44] VFR_HUD
[19:07:10.549678] [45] HEARTBEAT
[19:07:10.557570] [46] ATTITUDE_TARGET
[19:07:10.649618] [16] RADIO
[19:07:10.652606] [16] RADIO_STATUS
[19:07:10.999643] [47] VFR_HUD
[19:07:11.580833] [48] HEARTBEAT
[19:07:11.688758] [17] RADIO
[19:07:11.691718] [17] RADIO_STATUS
[19:07:11.809796] [49] VFR_HUD
[19:07:12.608962] [18] RADIO
[19:07:12.611935] [18] RADIO_STATUS
[19:07:13.419097] [57] VFR_HUD
[19:07:13.524126] [58] HEARTBEAT
[19:07:13.638123] [19] RADIO
[19:07:13.641179] [19] RADIO_STATUS
[19:07:14.108249] [59] VFR_HUD
[19:07:14.577362] [60] HEARTBEAT
[19:07:14.585935] [61] ATTITUDE_TARGET
[19:07:14.787357] [20] RADIO
[19:07:14.790306] [20] RADIO_STATUS
[19:07:14.908326] [62] VFR_HUD
[19:07:15.593457] [63] HEARTBEAT
[19:07:15.625453] [21] RADIO
[19:07:15.628445] [21] RADIO_STATUS
[19:07:15.723472] [64] VFR_HUD
[19:07:16.525700] [65] HEARTBEAT
[19:07:16.531644] [66] SYS_STATUS
[19:07:16.646593] [67] BATTERY_STATUS
[19:07:16.764639] [68] ATTITUDE_TARGET
[19:07:16.768686] [69] VFR_HUD
[19:07:16.774639] [22] RADIO
[19:07:16.777637] [22] RADIO_STATUS
[19:07:17.332772] [70] VFR_HUD
[19:07:17.553211] [71] HEARTBEAT
[19:07:17.671857] [23] RADIO
[19:07:17.674843] [23] RADIO_STATUS
[19:07:18.126886] [72] VFR_HUD
[19:07:18.595954] [73] HEARTBEAT
[19:07:18.603916] [74] ATTITUDE_TARGET
[19:07:18.695893] [24] RADIO
[19:07:18.698953] [24] RADIO_STATUS
[19:07:18.937001] [75] VFR_HUD
[19:07:19.502140] [76] HEARTBEAT
[19:07:19.737134] [77] VFR_HUD
[19:07:19.769181] [25] RADIO
[19:07:19.772149] [25] RADIO_STATUS
[19:07:20.679331] [80] BATTERY_STATUS
[19:07:20.687241] [81] ATTITUDE_TARGET
[19:07:20.717290] [82] VFR_HUD
[19:07:20.744267] [26] RADIO
[19:07:20.747273] [26] RADIO_STATUS
[19:07:21.345417] [83] VFR_HUD
[19:07:21.571480] [84] HEARTBEAT
[19:07:21.684418] [27] RADIO
[19:07:21.687429] [27] RADIO_STATUS
[19:07:22.155529] [85] VFR_HUD
[19:07:22.624629] [86] HEARTBEAT
[19:07:22.632640] [87] ATTITUDE_TARGET
[19:07:22.752620] [28] RADIO
[19:07:22.755628] [28] RADIO_STATUS
[19:07:22.954682] [88] VFR_HUD
[19:07:23.535820] [89] HEARTBEAT
[19:07:23.754009] [29] RADIO
[19:07:23.756834] [29] RADIO_STATUS
[19:07:23.874839] [90] VFR_HUD
[19:07:24.572853] [91] HEARTBEAT
[19:07:24.578884] [92] SYS_STATUS
[19:07:24.672887] [30] RADIO
[19:07:24.675874] [30] RADIO_STATUS
[19:07:24.713927] [93] BATTERY_STATUS
[19:07:24.740887] [94] ATTITUDE_TARGET
[19:07:24.745948] [95] VFR_HUD
[19:07:25.379005] [96] VFR_HUD
[19:07:25.599086] [97] HEARTBEAT
[19:07:25.718032] [31] RADIO
[19:07:25.721038] [31] RADIO_STATUS
[19:07:26.173196] [98] VFR_HUD
[19:07:26.537240] [99] HEARTBEAT
[19:07:26.545431] [100] ATTITUDE_TARGET
[19:07:26.742211] [32] RADIO
[19:07:26.745263] [32] RADIO_STATUS
[19:07:26.988288] [101] VFR_HUD
[19:07:27.548599] [102] HEARTBEAT
[19:07:27.782702] [103] VFR_HUD
[19:07:27.814424] [33] RADIO
[19:07:27.817443] [33] RADIO_STATUS
[19:07:28.701632] [34] RADIO
[19:07:28.704571] [34] RADIO_STATUS
[19:07:29.522815] [109] VFR_HUD
[19:07:29.525825] [110] HEARTBEAT
[19:07:29.730803] [35] RADIO
[19:07:29.733760] [35] RADIO_STATUS
[19:07:30.200858] [111] VFR_HUD
[19:07:30.550989] [112] HEARTBEAT
[19:07:30.557983] [113] ATTITUDE_TARGET
[19:07:30.769926] [36] RADIO
[19:07:30.773020] [36] RADIO_STATUS
