[16:10:10.902341] [47] VFR_HUD
[16:10:11.122299] [76] RADIO
[16:10:11.124211] [76] RADIO_STATUS
[16:10:11.251267] [48] HEARTBEAT
[16:10:11.259352] [49] ATTITUDE_TARGET
[16:10:11.702481] [50] VFR_HUD
[16:10:12.166531] [77] RADIO
[16:10:12.169379] [77] RADIO_STATUS
[16:10:12.277531] [51] HEARTBEAT
[16:10:12.511571] [52] VFR_HUD
[16:10:13.086600] [78] RADIO
[16:10:13.090926] [78] RADIO_STATUS
[16:10:13.202694] [53] HEARTBEAT
[16:10:13.331744] [54] SYS_STATUS
[16:10:13.339637] [55] BATTERY_STATUS
[16:10:13.448662] [56] ATTITUDE_TARGET
[16:10:13.453609] [57] VFR_HUD
[16:10:14.110697] [79] RADIO
[16:10:14.113952] [79] RADIO_STATUS
[16:10:14.149724] [58] VFR_HUD
[16:10:14.226863] [59] HEARTBEAT
[16:10:14.921873] [60] VFR_HUD
[16:10:15.155951] [80] RADIO
[16:10:15.158933] [80] RADIO_STATUS
[16:10:15.285933] [61] HEARTBEAT
[16:10:15.292930] [62] ATTITUDE_TARGET
[16:10:15.736095] [63] VFR_HUD
[16:10:16.180007] [81] RADIO
[16:10:16.183141] [81] RADIO_STATUS
[16:10:16.214033] [64] HEARTBEAT
[16:10:16.420143] [65] VFR_HUD
[16:10:17.100137] [82] RADIO
[16:10:17.102112] [82] RADIO_STATUS
[16:10:17.228244] [66] HEARTBEAT
[16:10:17.235154] [67] SYS_STATUS
[16:10:17.349286] [68] BATTERY_STATUS
[16:10:17.467229] [69] ATTITUDE_TARGET
[16:10:17.471163] [70] VFR_HUD
[16:10:18.030375] [71] VFR_HUD
[16:10:18.144339] [83] RADIO
[16:10:18.147307] [83] RADIO_STATUS
[16:10:18.260379] [72] HEARTBEAT
[16:10:18.829391] [73] VFR_HUD
[16:10:19.168436] [84] RADIO
[16:10:19.171393] [84] RADIO_STATUS
[16:10:19.298449] [74] HEARTBEAT
[16:10:19.306467] [75] ATTITUDE_TARGET
[16:10:19.639476] [76] VFR_HUD
[16:10:20.209644] [77] HEARTBEAT
[16:10:20.236558] [85] RADIO
[16:10:20.238540] [85] RADIO_STATUS
[16:10:20.438746] [78] VFR_HUD
[16:10:21.127831] [86] RADIO
[16:10:21.130689] [86] RADIO_STATUS
[16:10:21.261731] [79] HEARTBEAT
[16:10:21.267785] [80] SYS_STATUS
[16:10:21.307748] [81] BATTERY_STATUS
[16:10:21.315713] [82] ATTITUDE_TARGET
[16:10:21.319849] [83] VFR_HUD
[16:10:22.157997] [87] RADIO
[16:10:22.160962] [87] RADIO_STATUS
[16:10:22.283871] [84] VFR_HUD
[16:10:22.286859] [85] HEARTBEAT
[16:10:22.862906] [86] VFR_HUD
[16:10:23.196975] [88] RADIO
[16:10:23.200034] [88] RADIO_STATUS
[16:10:23.332130] [87] HEARTBEAT
[16:10:23.340064] [88] ATTITUDE_TARGET
[16:10:23.658123] [89] VFR_HUD
[16:10:24.226197] [89] RADIO
[16:10:24.229091] [89] RADIO_STATUS
[16:10:24.343293] [90] HEARTBEAT
[16:10:24.472286] [91] VFR_HUD
[16:10:25.146282] [90] RADIO
[16:10:25.149251] [90] RADIO_STATUS
[16:10:25.274321] [92] HEARTBEAT
[16:10:25.281346] [93] SYS_STATUS
[16:10:25.400416] [94] BATTERY_STATUS
[16:10:25.513503] [95] ATTITUDE_TARGET
[16:10:25.518326] [96] VFR_HUD
[16:10:26.076768] [97] VFR_HUD
[16:10:26.185455] [91] RADIO
[16:10:26.188394] [91] RADIO_STATUS
[16:10:26.301484] [98] HEARTBEAT
[16:10:26.876571] [99] VFR_HUD
[16:10:27.215651] [92] RADIO
[16:10:27.218577] [92] RADIO_STATUS
[16:10:27.345615] [100] HEARTBEAT
[16:10:27.352632] [101] ATTITUDE_TARGET
[16:10:27.685747] [102] VFR_HUD
[16:10:28.251795] [103] HEARTBEAT
[16:10:28.364868] [93] RADIO
[16:10:28.367846] [93] RADIO_STATUS
[16:10:28.485811] [104] VFR_HUD
[16:10:29.174906] [94] RADIO
[16:10:29.177855] [94] RADIO_STATUS
[16:10:29.302998] [105] HEARTBEAT
[16:10:29.308892] [106] SYS_STATUS
[16:10:29.431015] [107] BATTERY_STATUS
[16:10:29.432887] [108] EXTENDED_SYS_STATE
[16:10:29.441009] [109] ATTITUDE_TARGET
[16:10:29.445007] [110] VFR_HUD
[16:10:29.449025] [111] SYSTEM_TIME
[16:10:30.095132] [112] VFR_HUD
[16:10:30.204198] [95] RADIO
[16:10:30.207027] [95] RADIO_STATUS
[16:10:30.320166] [113] HEARTBEAT
[16:10:30.904185] [114] VFR_HUD
[16:10:31.253343] [115] HEARTBEAT
[16:10:31.261225] [116] ATTITUDE_TARGET
[16:10:31.353731] [96] RADIO
[16:10:31.356175] [96] RADIO_STATUS
[16:10:31.704358] [117] VFR_HUD
[16:10:32.162455] [97] RADIO
[16:10:32.165287] [97] RADIO_STATUS
[16:10:32.279459] [118] HEARTBEAT
[16:10:32.518407] [119] VFR_HUD
[16:10:33.192537] [98] RADIO
[16:10:33.195433] [98] RADIO_STATUS
[16:10:33.320528] [120] HEARTBEAT
[16:10:33.327530] [121] SYS_STATUS
[16:10:33.441592] [122] BATTERY_STATUS
[16:10:33.559624] [123] ATTITUDE_TARGET
[16:10:33.564482] [124] VFR_HUD
[16:10:34.127763] [125] VFR_HUD
[16:10:34.239676] [126] HEARTBEAT
[16:10:34.264633] [99] RADIO
[16:10:34.267646] [99] RADIO_STATUS
[16:10:34.812744] [127] VFR_HUD
[16:10:35.262000] [100] RADIO
[16:10:35.264848] [100] RADIO_STATUS
[16:10:35.391986] [128] HEARTBEAT
[16:10:35.398833] [129] ATTITUDE_TARGET
[16:10:35.617024] [130] VFR_HUD
[16:10:36.186086] [101] RADIO
[16:10:36.189242] [101] RADIO_STATUS
[16:10:36.215083] [131] HEARTBEAT
[16:10:36.422103] [132] VFR_HUD
[16:10:37.229139] [133] HEARTBEAT
[16:10:37.236095] [134] SYS_STATUS
[16:10:37.248255] [102] RADIO
[16:10:37.251165] [102] RADIO_STATUS
[16:10:37.350190] [135] BATTERY_STATUS
[16:10:37.468162] [136] ATTITUDE_TARGET
[16:10:37.473193] [137] VFR_HUD
[16:10:38.031283] [138] VFR_HUD
[16:10:38.250346] [103] RADIO
[16:10:38.253273] [103] RADIO_STATUS
[16:10:38.284321] [139] HEARTBEAT
[16:10:38.830425] [140] VFR_HUD
[16:10:39.300649] [141] HEARTBEAT
[16:10:39.310527] [142] ATTITUDE_TARGET
[16:10:39.317507] [104] RADIO
[16:10:39.320420] [104] RADIO_STATUS
[16:10:39.645582] [143] VFR_HUD
[16:10:40.211681] [144] HEARTBEAT
[16:10:40.237640] [105] RADIO
[16:10:40.240593] [105] RADIO_STATUS
[16:10:40.440680] [145] VFR_HUD
[16:10:41.238855] [106] RADIO
[16:10:41.241821] [106] RADIO_STATUS
[16:10:41.298901] [146] HEARTBEAT
[16:10:41.306059] [147] SYS_STATUS
[16:10:41.312800] [148] BATTERY_STATUS
[16:10:41.325804] [149] ATTITUDE_TARGET
[16:10:41.330777] [150] VFR_HUD
[16:10:42.049904] [151] VFR_HUD
[16:10:42.275005] [152] HEARTBEAT
[16:10:42.305918] [107] RADIO
[16:10:42.308918] [107] RADIO_STATUS
[16:10:42.864070] [153] VFR_HUD
[16:10:43.200204] [154] HEARTBEAT
[16:10:43.308072] [108] RADIO
[16:10:43.311122] [108] RADIO_STATUS
[16:10:43.355096] [155] ATTITUDE_TARGET
[16:10:43.659258] [156] VFR_HUD
[16:10:44.239270] [157] HEARTBEAT
[16:10:44.353140] [109] RADIO
[16:10:44.356160] [109] RADIO_STATUS
[16:10:44.468217] [158] VFR_HUD
[16:10:45.276454] [159] HEARTBEAT
[16:10:45.282370] [160] SYS_STATUS
[16:10:45.295464] [110] RADIO
[16:10:45.298316] [110] RADIO_STATUS
[16:10:45.402380] [161] BATTERY_STATUS
[16:10:45.515400] [162] ATTITUDE_TARGET
[16:10:45.519295] [163] VFR_HUD
[16:10:46.078442] [164] VFR_HUD
[16:10:46.297422] [111] RADIO
[16:10:46.300430] [111] RADIO_STATUS
[16:10:46.877571] [166] VFR_HUD
[16:10:47.237612] [167] HEARTBEAT
[16:10:47.244585] [168] ATTITUDE_TARGET
[16:10:47.364596] [112] RADIO
[16:10:47.367543] [112] RADIO_STATUS
[16:10:47.698682] [169] VFR_HUD
[16:10:48.253795] [170] HEARTBEAT
[16:10:48.366853] [113] RADIO
[16:10:48.369755] [113] RADIO_STATUS
[16:10:48.487861] [171] VFR_HUD
[16:10:49.286909] [114] RADIO
[16:10:49.289958] [114] RADIO_STATUS
[16:10:49.429953] [176] ATTITUDE_TARGET
[16:10:49.434931] [177] VFR_HUD
[16:10:49.437959] [178] SYSTEM_TIME
[16:10:50.108101] [179] VFR_HUD
[16:10:50.212088] [180] HEARTBEAT
[16:10:50.331196] [115] RADIO
[16:10:50.334106] [115] RADIO_STATUS
[16:10:51.016214] [181] VFR_HUD
[16:10:51.256851] [182] HEARTBEAT
[16:10:51.264295] [183] ATTITUDE_TARGET
[16:10:51.356251] [116] RADIO
[16:10:51.359226] [116] RADIO_STATUS
[16:10:51.706447] [184] VFR_HUD
[16:10:51.899712] JAMMING_START
[16:10:52.274590] [117] RADIO
[16:10:52.277376] [117] RADIO_STATUS
[16:10:52.390465] [185] HEARTBEAT
[16:10:52.414444] [186] VFR_HUD
[16:10:53.424637] [118] RADIO
[16:10:53.427565] [118] RADIO_STATUS
[16:10:54.009836] [192] VFR_HUD
[16:10:54.230730] [193] HEARTBEAT
[16:10:54.343734] [119] RADIO
[16:10:54.346817] [119] RADIO_STATUS
[16:10:54.815206] [194] VFR_HUD
[16:10:55.283921] [195] HEARTBEAT
[16:10:55.291950] [196] ATTITUDE_TARGET
[16:10:55.493932] [120] RADIO
[16:10:55.496916] [120] RADIO_STATUS
[16:10:56.299204] [198] HEARTBEAT
[16:10:56.413158] [121] RADIO
[16:10:56.416061] [121] RADIO_STATUS
[16:10:56.534079] [199] VFR_HUD
[16:10:57.231244] [200] HEARTBEAT
[16:10:57.238266] [201] SYS_STATUS
[16:10:57.332297] [122] RADIO
[16:10:57.335179] [122] RADIO_STATUS
[16:10:58.143387] [205] VFR_HUD
[16:10:58.258523] [206] HEARTBEAT
[16:10:58.372467] [123] RADIO
[16:10:58.375422] [123] RADIO_STATUS
[16:10:58.833584] [207] VFR_HUD
[16:10:59.301614] [208] HEARTBEAT
[16:10:59.309595] [209] ATTITUDE_TARGET
[16:10:59.401562] [124] RADIO
[16:10:59.404736] [124] RADIO_STATUS
[16:10:59.751675] [210] VFR_HUD
[16:11:00.216862] [211] HEARTBEAT
[16:11:00.321870] [125] RADIO
[16:11:00.324748] [125] RADIO_STATUS
[16:11:00.441784] [212] VFR_HUD
[16:11:01.470969] [126] RADIO
[16:11:01.473924] [126] RADIO_STATUS
[16:11:02.287131] [218] VFR_HUD
[16:11:02.290127] [219] HEARTBEAT
[16:11:02.391071] [127] RADIO
[16:11:02.394082] [127] RADIO_STATUS
[16:11:02.860170] [220] VFR_HUD
[16:11:03.201273] [221] HEARTBEAT
[16:11:03.333253] [222] ATTITUDE_TARGET
[16:11:03.445382] [128] RADIO
[16:11:03.448379] [128] RADIO_STATUS
[16:11:04.354441] [129] RADIO
[16:11:04.357980] [129] RADIO_STATUS
[16:11:04.469542] [225] VFR_HUD
[16:11:05.277663] [226] HEARTBEAT
[16:11:05.284631] [227] SYS_STATUS
[16:11:05.378789] [130] RADIO
[16:11:05.381865] [130] RADIO_STATUS
[16:11:06.079757] [231] VFR_HUD
[16:11:06.309777] [232] HEARTBEAT
[16:11:06.418878] [131] RADIO
[16:11:06.421851] [131] RADIO_STATUS
[16:11:06.878908] [233] VFR_HUD
[16:11:07.343945] [132] RADIO
[16:11:07.346914] [132] RADIO_STATUS
[16:11:07.799079] [236] VFR_HUD
[16:11:08.254272] [237] HEARTBEAT
[16:11:08.368154] [133] RADIO
[16:11:08.371113] [133] RADIO_STATUS
[16:11:09.413345] [134] RADIO
[16:11:09.416428] [134] RADIO_STATUS
[16:11:10.098467] [246] VFR_HUD
[16:11:10.213573] [247] HEARTBEAT
[16:11:10.437491] [135] RADIO
[16:11:10.440451] [135] RADIO_STATUS
[16:11:10.913575] [248] VFR_HUD
[16:11:11.257786] [249] HEARTBEAT
[16:11:11.264861] [250] ATTITUDE_TARGET
[16:11:11.357721] [136] RADIO
[16:11:11.359603] [136] RADIO_STATUS
[16:11:11.707706] [251] VFR_HUD
[16:11:12.401029] [137] RADIO
[16:11:12.403870] [137] RADIO_STATUS
[16:11:12.521904] [253] VFR_HUD
[16:11:13.201986] [254] HEARTBEAT
[16:11:13.222012] [255] SYS_STATUS
[16:11:13.265002] [0] BATTERY_STATUS
[16:11:13.273283] [1] ATTITUDE_TARGET
[16:11:13.278111] [2] VFR_HUD
[16:11:13.426109] [138] RADIO
[16:11:13.429003] [138] RADIO_STATUS
[16:11:14.006115] [3] VFR_HUD
[16:11:14.231199] [4] HEARTBEAT
[16:11:14.470174] [139] RADIO
[16:11:14.473279] [139] RADIO_STATUS
[16:11:14.815256] [5] VFR_HUD
[16:11:15.394357] [6] HEARTBEAT
[16:11:15.401388] [7] ATTITUDE_TARGET
[16:11:15.412456] [140] RADIO
[16:11:15.415502] [140] RADIO_STATUS
[16:11:15.615394] [8] VFR_HUD
[16:11:16.309615] [9] HEARTBEAT
[16:11:16.414547] [141] RADIO
[16:11:16.416597] [141] RADIO_STATUS
[16:11:17.509693] [142] RADIO
[16:11:17.512660] [142] RADIO_STATUS
[16:11:18.259143] [17] HEARTBEAT
[16:11:18.482878] [143] RADIO
[16:11:18.486002] [143] RADIO_STATUS
[16:11:18.833854] [18] VFR_HUD
[16:11:19.303069] [19] HEARTBEAT
[16:11:19.309964] [20] ATTITUDE_TARGET
[16:11:19.403052] [144] RADIO
[16:11:19.405987] [144] RADIO_STATUS
[16:11:20.208181] [22] HEARTBEAT
[16:11:20.443115] [23] VFR_HUD
[16:11:20.470118] [145] RADIO
[16:11:20.473119] [145] RADIO_STATUS
[16:11:21.260201] [24] HEARTBEAT
[16:11:21.266224] [25] SYS_STATUS
[16:11:21.423269] [28] VFR_HUD
[16:11:21.445221] [146] RADIO
[16:11:21.448405] [146] RADIO_STATUS
[16:11:22.278433] [30] HEARTBEAT
[16:11:22.511554] [147] RADIO
[16:11:22.514489] [147] RADIO_STATUS
[16:11:22.862482] [31] VFR_HUD
[16:11:23.440570] [32] HEARTBEAT
[16:11:23.448638] [33] ATTITUDE_TARGET
[16:11:23.541649] [148] RADIO
[16:11:23.544675] [148] RADIO_STATUS
[16:11:23.661610] [34] VFR_HUD
[16:11:24.460663] [149] RADIO
[16:11:24.463712] [149] RADIO_STATUS
[16:11:24.581779] [36] VFR_HUD
[16:11:25.528927] [150] RADIO
[16:11:25.531860] [150] RADIO_STATUS
[16:11:25.748011] [40] ATTITUDE_TARGET
[16:11:25.751952] [41] VFR_HUD
[16:11:26.312039] [43] HEARTBEAT
[16:11:26.421006] [151] RADIO
[16:11:26.425410] [151] RADIO_STATUS
[16:11:26.881102] [44] VFR_HUD
[16:11:27.450255] [152] RADIO
[16:11:27.453218] [152] RADIO_STATUS
[16:11:28.256446] [48] HEARTBEAT
[16:11:28.491341] [49] VFR_HUD
[16:11:28.518330] [153] RADIO
[16:11:28.520327] [153] RADIO_STATUS
[16:11:29.313520] [50] HEARTBEAT
[16:11:29.319494] [51] SYS_STATUS
[16:11:29.354800] [52] BATTERY_STATUS
[16:11:29.355449] [53] EXTENDED_SYS_STATE
[16:11:29.363519] [54] ATTITUDE_TARGET
[16:11:29.368521] [55] VFR_HUD
[16:11:29.372650] [56] SYSTEM_TIME
[16:11:29.519531] [154] RADIO
[16:11:29.522461] [154] RADIO_STATUS
[16:11:30.220833] [58] HEARTBEAT
[16:11:30.559976] [155] RADIO
[16:11:30.562907] [155] RADIO_STATUS
[16:11:30.915730] [59] VFR_HUD
[16:11:31.478898] [156] RADIO
[16:11:31.481829] [156] RADIO_STATUS
[16:11:31.709864] [62] VFR_HUD
[16:11:32.508923] [157] RADIO
[16:11:32.511882] [157] RADIO_STATUS
[16:11:32.549044] [64] VFR_HUD
[16:11:33.205087] [65] HEARTBEAT
[16:11:33.225111] [66] SYS_STATUS
[16:11:33.268070] [67] BATTERY_STATUS
[16:11:33.276122] [68] ATTITUDE_TARGET
[16:11:33.281055] [69] VFR_HUD
[16:11:33.658079] [158] RADIO
[16:11:33.661979] [158] RADIO_STATUS
[16:11:34.369259] [70] VFR_HUD
[16:11:34.372208] [71] HEARTBEAT
[16:11:34.578514] [159] RADIO
[16:11:34.581300] [159] RADIO_STATUS
[16:11:34.823369] [72] VFR_HUD
[16:11:35.397530] [73] HEARTBEAT
[16:11:35.405928] [74] ATTITUDE_TARGET
[16:11:35.497424] [160] RADIO
[16:11:35.500413] [160] RADIO_STATUS
[16:11:35.618541] [75] VFR_HUD
[16:11:36.303618] [76] HEARTBEAT
[16:11:36.537740] [77] VFR_HUD
[16:11:36.553560] [161] RADIO
[16:11:36.556610] [161] RADIO_STATUS
[16:11:37.235709] [78] HEARTBEAT
[16:11:37.241757] [79] SYS_STATUS
[16:11:37.361734] [80] BATTERY_STATUS
[16:11:37.513741] [162] RADIO
[16:11:37.515761] [162] RADIO_STATUS
[16:11:38.263050] [84] HEARTBEAT
[16:11:38.611931] [163] RADIO
[16:11:38.614901] [163] RADIO_STATUS
[16:11:38.848987] [85] VFR_HUD
[16:11:39.532136] [164] RADIO
[16:11:39.535049] [164] RADIO_STATUS
[16:11:39.647157] [88] VFR_HUD
[16:11:40.212236] [89] HEARTBEAT
[16:11:40.556260] [165] RADIO
[16:11:40.559426] [165] RADIO_STATUS
[16:11:41.264503] [91] HEARTBEAT
[16:11:41.270454] [92] SYS_STATUS
[16:11:41.438515] [95] VFR_HUD
[16:11:41.601441] [166] RADIO
[16:11:41.603412] [166] RADIO_STATUS
[16:11:42.056614] [96] VFR_HUD
[16:11:42.625604] [167] RADIO
[16:11:42.628621] [167] RADIO_STATUS
[16:11:42.866637] [98] VFR_HUD
[16:11:43.206672] [99] HEARTBEAT
[16:11:43.247704] [100] ATTITUDE_TARGET
[16:11:43.545720] [168] RADIO
[16:11:43.548671] [168] RADIO_STATUS
[16:11:43.665793] [101] VFR_HUD
[16:11:44.241944] [102] HEARTBEAT
[16:11:44.590885] [169] RADIO
[16:11:44.593825] [169] RADIO_STATUS
[16:11:45.283103] [104] HEARTBEAT
[16:11:45.290000] [105] SYS_STATUS
[16:11:45.405413] [106] BATTERY_STATUS
[16:11:45.615046] [170] RADIO
[16:11:45.617995] [170] RADIO_STATUS
[16:11:46.212152] [110] HEARTBEAT
[16:11:46.540213] [171] RADIO
[16:11:46.543167] [171] RADIO_STATUS
[16:11:46.885315] [111] VFR_HUD
[16:11:47.574470] [172] RADIO
[16:11:47.577334] [172] RADIO_STATUS
[16:11:47.700379] [114] VFR_HUD
[16:11:48.260454] [115] HEARTBEAT
[16:11:48.604478] [173] RADIO
[16:11:48.606441] [173] RADIO_STATUS
[16:11:49.317648] [117] HEARTBEAT
[16:11:49.323617] [118] SYS_STATUS
[16:11:49.358637] [119] BATTERY_STATUS
[16:11:49.359571] [120] EXTENDED_SYS_STATE
[16:11:49.367703] [121] ATTITUDE_TARGET
[16:11:49.372616] [122] VFR_HUD
[16:11:49.376556] [123] SYSTEM_TIME
[16:11:49.753665] [174] RADIO
[16:11:49.756624] [174] RADIO_STATUS
[16:11:50.104850] [124] VFR_HUD
[16:11:50.563762] [175] RADIO
[16:11:50.566799] [175] RADIO_STATUS
[16:11:50.913879] [126] VFR_HUD
[16:11:51.262910] [127] HEARTBEAT
[16:11:51.270897] [128] ATTITUDE_TARGET
[16:11:51.592972] [176] RADIO
[16:11:51.595956] [176] RADIO_STATUS
[16:11:51.713992] [129] VFR_HUD
[16:11:52.294150] [130] HEARTBEAT
[16:11:52.409108] [131] VFR_HUD
[16:11:52.633235] [177] RADIO
[16:11:52.635161] [177] RADIO_STATUS
[16:11:53.662383] [178] RADIO
[16:11:53.665304] [178] RADIO_STATUS
[16:11:54.013438] [137] VFR_HUD
[16:11:54.248478] [138] HEARTBEAT
[16:11:54.582503] [179] RADIO
[16:11:54.585415] [179] RADIO_STATUS
[16:11:55.622692] [142] VFR_HUD
[16:11:55.649657] [180] RADIO
[16:11:55.652682] [180] RADIO_STATUS
[16:11:56.197787] [143] HEARTBEAT
[16:11:56.651857] [181] RADIO
[16:11:56.654837] [181] RADIO_STATUS
[16:11:57.240049] [145] HEARTBEAT
[16:11:57.246942] [146] SYS_STATUS
[16:11:57.367035] [147] BATTERY_STATUS
[16:11:57.691247] [182] RADIO
[16:11:57.694046] [182] RADIO_STATUS
[16:11:58.042323] [150] VFR_HUD
[16:11:58.616214] [183] RADIO
[16:11:58.619207] [183] RADIO_STATUS
[16:11:59.641310] [184] RADIO
[16:11:59.644268] [184] RADIO_STATUS
[16:11:59.761351] [155] VFR_HUD
[16:12:00.217419] [156] HEARTBEAT
[16:12:00.451395] [157] VFR_HUD
[16:12:00.680442] [185] RADIO
[16:12:00.683441] [185] RADIO_STATUS
[16:12:01.394557] [160] BATTERY_STATUS
[16:12:01.402628] [161] ATTITUDE_TARGET
[16:12:01.432524] [162] VFR_HUD
[16:12:01.710603] [186] RADIO
[16:12:01.713576] [186] RADIO_STATUS
[16:12:02.061643] [163] VFR_HUD
[16:12:02.295934] [164] HEARTBEAT
[16:12:02.629738] [187] RADIO
[16:12:02.632927] [187] RADIO_STATUS
[16:12:03.206933] [166] HEARTBEAT
[16:12:03.251881] [167] ATTITUDE_TARGET
[16:12:03.669904] [168] VFR_HUD
[16:12:03.701932] [188] RADIO
[16:12:03.704896] [188] RADIO_STATUS
[16:12:04.245210] [169] HEARTBEAT
[16:12:04.698102] [189] RADIO
[16:12:04.701053] [189] RADIO_STATUS
[16:12:05.286261] [171] HEARTBEAT
[16:12:05.293146] [172] SYS_STATUS
[16:12:05.408201] [173] BATTERY_STATUS
[16:12:05.848328] [190] RADIO
[16:12:05.851274] [190] RADIO_STATUS
[16:12:06.094329] [176] VFR_HUD
[16:12:06.205372] [177] HEARTBEAT
[16:12:06.663388] [191] RADIO
[16:12:06.666365] [191] RADIO_STATUS
[16:12:07.247523] [179] HEARTBEAT
[16:12:07.255519] [180] ATTITUDE_TARGET
[16:12:07.687553] [192] RADIO
[16:12:07.690809] [192] RADIO_STATUS
[16:12:07.725554] [181] VFR_HUD
[16:12:08.263622] [182] HEARTBEAT
[16:12:08.497654] [183] VFR_HUD
[16:12:08.731710] [193] RADIO
[16:12:08.734681] [193] RADIO_STATUS
[16:12:09.443839] [186] BATTERY_STATUS
[16:12:09.444733] [187] EXTENDED_SYS_STATE
[16:12:09.452810] [188] ATTITUDE_TARGET
[16:12:09.458005] [189] VFR_HUD
[16:12:09.460783] [190] SYSTEM_TIME
[16:12:09.651870] [194] RADIO
[16:12:09.655188] [194] RADIO_STATUS
[16:12:10.106881] [191] VFR_HUD
[16:12:10.677033] [195] RADIO
[16:12:10.678965] [195] RADIO_STATUS
[16:12:11.612135] [196] VFR_HUD
[16:12:11.733207] [196] RADIO
[16:12:11.736166] [196] RADIO_STATUS
[16:12:12.297309] [197] HEARTBEAT
[16:12:12.407322] [198] VFR_HUD
[16:12:12.746320] [197] RADIO
[16:12:12.749269] [197] RADIO_STATUS
[16:12:13.671525] [198] RADIO
[16:12:13.674620] [198] RADIO_STATUS
[16:12:14.016575] [204] VFR_HUD
[16:12:14.241632] [205] HEARTBEAT
[16:12:14.705681] [199] RADIO
[16:12:14.708707] [199] RADIO_STATUS
[16:12:15.300763] [207] HEARTBEAT
[16:12:15.308716] [208] ATTITUDE_TARGET
[16:12:15.625740] [209] VFR_HUD
[16:12:15.734780] [200] RADIO
[16:12:15.737772] [200] RADIO_STATUS
[16:12:16.206913] [210] HEARTBEAT
[16:12:16.435872] [211] VFR_HUD
[16:12:16.887935] [201] RADIO
[16:12:16.891015] [201] RADIO_STATUS
[16:12:17.482065] [215] ATTITUDE_TARGET
[16:12:17.487038] [216] VFR_HUD
[16:12:17.694031] [202] RADIO
[16:12:17.697042] [202] RADIO_STATUS
[16:12:18.056224] [217] VFR_HUD
[16:12:18.724322] [203] RADIO
[16:12:18.727191] [203] RADIO_STATUS
[16:12:18.845280] [219] VFR_HUD
[16:12:19.655703] [222] VFR_HUD
[16:12:19.764403] [204] RADIO
[16:12:19.767341] [204] RADIO_STATUS
[16:12:20.220461] [223] HEARTBEAT
[16:12:20.454626] [224] VFR_HUD
[16:12:20.793933] [205] RADIO
[16:12:20.796556] [205] RADIO_STATUS
[16:12:21.713695] [206] RADIO
[16:12:21.716688] [206] RADIO_STATUS
[16:12:22.063778] [230] VFR_HUD
[16:12:22.289813] [231] HEARTBEAT
[16:12:22.752952] [207] RADIO
[16:12:22.755968] [207] RADIO_STATUS
[16:12:23.222999] [233] HEARTBEAT
[16:12:23.230912] [234] ATTITUDE_TARGET
[16:12:23.674048] [235] VFR_HUD
[16:12:23.783050] [208] RADIO
[16:12:23.786061] [208] RADIO_STATUS
[16:12:24.488161] [237] VFR_HUD
[16:12:24.822312] [209] RADIO
[16:12:24.825284] [209] RADIO_STATUS
[16:12:25.529404] [241] ATTITUDE_TARGET
[16:12:25.534384] [242] VFR_HUD
[16:12:25.741366] [210] RADIO
[16:12:25.744326] [210] RADIO_STATUS
[16:12:26.097401] [243] VFR_HUD
[16:12:26.771551] [211] RADIO
[16:12:26.774565] [211] RADIO_STATUS
[16:12:26.892651] [245] VFR_HUD
[16:12:27.251660] [246] HEARTBEAT
[16:12:27.258679] [247] ATTITUDE_TARGET
[16:12:27.816744] [212] RADIO
[16:12:27.818720] [212] RADIO_STATUS
[16:12:28.266797] [249] HEARTBEAT
[16:12:28.841091] [213] RADIO
[16:12:28.843834] [213] RADIO_STATUS
[16:12:29.446941] [253] BATTERY_STATUS
[16:12:29.448864] [254] EXTENDED_SYS_STATE
[16:12:29.456931] [255] ATTITUDE_TARGET
[16:12:29.478186] [0] VFR_HUD
[16:12:29.480892] [1] SYSTEM_TIME
[16:12:29.759951] [214] RADIO
[16:12:29.763227] [214] RADIO_STATUS
[16:12:30.006091] [2] VFR_HUD
[16:12:30.226070] [3] HEARTBEAT
[16:12:30.805163] [215] RADIO
[16:12:30.808197] [215] RADIO_STATUS
[16:12:31.270281] [5] HEARTBEAT
[16:12:31.277279] [6] ATTITUDE_TARGET
[16:12:31.720403] [7] VFR_HUD
[16:12:31.829334] [216] RADIO
[16:12:31.832358] [216] RADIO_STATUS
[16:12:32.305532] [8] HEARTBEAT
[16:12:32.410435] [9] VFR_HUD
[16:12:32.874471] [217] RADIO
[16:12:32.877447] [217] RADIO_STATUS
[16:12:33.794578] [218] RADIO
[16:12:33.797566] [218] RADIO_STATUS
[16:12:34.818813] [219] RADIO
[16:12:34.821780] [219] RADIO_STATUS
[16:12:34.939814] [17] VFR_HUD
[16:12:35.303926] [18] HEARTBEAT
[16:12:35.311863] [19] ATTITUDE_TARGET
[16:12:35.863955] [220] RADIO
[16:12:35.866909] [220] RADIO_STATUS
[16:12:36.439130] [22] VFR_HUD
[16:12:36.888100] [221] RADIO
[16:12:36.891108] [221] RADIO_STATUS
[16:12:37.246201] [23] HEARTBEAT
[16:12:37.253168] [24] SYS_STATUS
[16:12:37.541255] [27] VFR_HUD
[16:12:37.808265] [222] RADIO
[16:12:37.811249] [222] RADIO_STATUS
[16:12:38.060375] [28] VFR_HUD
[16:12:38.279415] [29] HEARTBEAT
[16:12:38.859812] [30] VFR_HUD
[16:12:38.880538] [223] RADIO
[16:12:38.883464] [223] RADIO_STATUS
[16:12:39.316615] [32] ATTITUDE_TARGET
[16:12:39.877682] [224] RADIO
[16:12:39.879662] [224] RADIO_STATUS
[16:12:40.458049] [35] VFR_HUD
[16:12:40.921980] [225] RADIO
[16:12:40.924950] [225] RADIO_STATUS
[16:12:41.279936] [36] HEARTBEAT
[16:12:41.287225] [37] SYS_STATUS
[16:12:41.325960] [38] BATTERY_STATUS
[16:12:41.333918] [39] ATTITUDE_TARGET
[16:12:41.338918] [40] VFR_HUD
[16:12:41.836036] [226] RADIO
[16:12:41.839027] [226] RADIO_STATUS
[16:12:42.866150] [227] RADIO
[16:12:42.869215] [227] RADIO_STATUS
[16:12:42.904382] [43] VFR_HUD
[16:12:43.906295] [228] RADIO
[16:12:43.909297] [228] RADIO_STATUS
[16:12:44.491510] [48] VFR_HUD
[16:12:44.935463] [229] RADIO
[16:12:44.938394] [229] RADIO_STATUS
[16:12:45.532539] [52] ATTITUDE_TARGET
[16:12:45.537507] [53] VFR_HUD
[16:12:45.855590] [230] RADIO
[16:12:45.858788] [230] RADIO_STATUS
[16:12:46.095617] [54] VFR_HUD
[16:12:46.201651] [55] HEARTBEAT
[16:12:46.895746] [56] VFR_HUD
[16:12:46.925900] [231] RADIO
[16:12:46.929001] [231] RADIO_STATUS
[16:12:47.363926] [57] HEARTBEAT
[16:12:47.371937] [58] ATTITUDE_TARGET
[16:12:47.923928] [232] RADIO
[16:12:47.926888] [232] RADIO_STATUS
[16:12:48.280001] [60] HEARTBEAT
[16:12:48.505074] [61] VFR_HUD
[16:12:48.964221] [233] RADIO
[16:12:48.967140] [233] RADIO_STATUS
[16:12:49.195168] [62] HEARTBEAT
[16:12:49.215172] [63] SYS_STATUS
[16:12:49.883255] [234] RADIO
[16:12:49.886216] [234] RADIO_STATUS
[16:12:50.229341] [70] HEARTBEAT
[16:12:50.804396] [71] VFR_HUD
[16:12:50.913405] [235] RADIO
[16:12:50.916373] [235] RADIO_STATUS
[16:12:51.953502] [236] RADIO
[16:12:51.956520] [236] RADIO_STATUS
[16:12:52.417110] [76] VFR_HUD
[16:12:52.982712] [237] RADIO
[16:12:52.985660] [237] RADIO_STATUS
[16:12:53.230753] [77] HEARTBEAT
[16:12:53.237756] [78] SYS_STATUS
[16:12:53.355765] [79] BATTERY_STATUS
[16:12:53.363774] [80] ATTITUDE_TARGET
[16:12:53.394734] [81] VFR_HUD
[16:12:53.902831] [238] RADIO
[16:12:53.905878] [238] RADIO_STATUS
[16:12:54.034899] [82] VFR_HUD
[16:12:54.247940] [83] HEARTBEAT
[16:12:54.833784] [84] VFR_HUD
[16:12:54.940971] [239] RADIO
[16:12:54.943955] [239] RADIO_STATUS
[16:12:55.411087] [85] HEARTBEAT
[16:12:55.419057] [86] ATTITUDE_TARGET
[16:12:55.632164] [87] VFR_HUD
[16:12:55.971119] [240] RADIO
[16:12:55.974255] [240] RADIO_STATUS
[16:12:57.010369] [241] RADIO
[16:12:57.013863] [241] RADIO_STATUS
[16:12:57.249412] [90] HEARTBEAT
[16:12:57.255509] [91] SYS_STATUS
[16:12:57.717436] [93] ATTITUDE_TARGET
[16:12:57.722401] [94] VFR_HUD
[16:12:57.935421] [242] RADIO
[16:12:57.938429] [242] RADIO_STATUS
[16:12:58.281506] [96] HEARTBEAT
[16:12:58.850606] [97] VFR_HUD
[16:12:58.959632] [243] RADIO
[16:12:58.962572] [243] RADIO_STATUS
[16:12:59.438772] [99] ATTITUDE_TARGET
[16:12:59.999750] [244] RADIO
[16:13:00.002726] [244] RADIO_STATUS
[16:13:00.225836] [101] HEARTBEAT
[16:13:00.460897] [102] VFR_HUD
[16:13:01.029897] [245] RADIO
[16:13:01.032851] [245] RADIO_STATUS
[16:13:01.282968] [103] HEARTBEAT
[16:13:01.289966] [104] SYS_STATUS
[16:13:01.329912] [105] BATTERY_STATUS
[16:13:01.336950] [106] ATTITUDE_TARGET
[16:13:01.342180] [107] VFR_HUD
[16:13:01.952049] [246] RADIO
[16:13:01.955228] [246] RADIO_STATUS
[16:13:02.023196] [108] VFR_HUD
[16:13:02.295167] [109] HEARTBEAT
[16:13:02.885222] [110] VFR_HUD
[16:13:03.005232] [247] RADIO
[16:13:03.008209] [247] RADIO_STATUS
[16:13:03.679657] [113] VFR_HUD
[16:13:04.018408] [248] RADIO
[16:13:04.021283] [248] RADIO_STATUS
[16:13:04.269410] [114] HEARTBEAT
[16:13:05.062514] [249] RADIO
[16:13:05.065722] [249] RADIO_STATUS
[16:13:05.982691] [250] RADIO
[16:13:05.984625] [250] RADIO_STATUS
[16:13:06.202815] [122] HEARTBEAT
[16:13:06.897800] [123] VFR_HUD
[16:13:07.006813] [251] RADIO
[16:13:07.009746] [251] RADIO_STATUS
[16:13:08.051099] [252] RADIO
[16:13:08.054017] [252] RADIO_STATUS
[16:13:08.272088] [127] HEARTBEAT
[16:13:08.507127] [128] VFR_HUD
[16:13:09.076271] [253] RADIO
[16:13:09.079250] [253] RADIO_STATUS
[16:13:09.329225] [129] HEARTBEAT
[16:13:09.336211] [130] SYS_STATUS
[16:13:09.370207] [131] BATTERY_STATUS
[16:13:09.372238] [132] EXTENDED_SYS_STATE
[16:13:09.380227] [133] ATTITUDE_TARGET
[16:13:09.385181] [134] VFR_HUD
[16:13:09.388136] [135] SYSTEM_TIME
[16:13:09.996304] [254] RADIO
[16:13:09.998258] [254] RADIO_STATUS
[16:13:10.232400] [137] HEARTBEAT
[16:13:10.817416] [138] VFR_HUD
[16:13:11.035469] [255] RADIO
[16:13:11.040635] [255] RADIO_STATUS
[16:13:11.615516] [141] VFR_HUD
[16:13:12.064577] [0] RADIO
[16:13:12.067515] [0] RADIO_STATUS
[16:13:12.989736] [1] RADIO
[16:13:12.992704] [1] RADIO_STATUS
[16:13:13.233013] [144] HEARTBEAT
[16:13:13.239783] [145] SYS_STATUS
[16:13:14.024922] [149] VFR_HUD
[16:13:14.052537] [2] RADIO
[16:13:14.054881] [2] RADIO_STATUS
[16:13:14.249952] [150] HEARTBEAT
[16:13:14.834089] [151] VFR_HUD
[16:13:15.053139] [3] RADIO
[16:13:15.056144] [3] RADIO_STATUS
[16:13:15.413330] [152] HEARTBEAT
[16:13:15.421150] [153] ATTITUDE_TARGET
[16:13:15.633235] [154] VFR_HUD
[16:13:16.092264] [4] RADIO
[16:13:16.095189] [4] RADIO_STATUS
[16:13:16.208379] [155] HEARTBEAT
[16:13:17.121387] [5] RADIO
[16:13:17.124395] [5] RADIO_STATUS
[16:13:17.249451] [157] HEARTBEAT
[16:13:17.256436] [158] SYS_STATUS
[16:13:17.371543] [159] BATTERY_STATUS
[16:13:17.717501] [160] ATTITUDE_TARGET
[16:13:17.722531] [161] VFR_HUD
[16:13:18.040528] [6] RADIO
[16:13:18.043542] [6] RADIO_STATUS
[16:13:18.079566] [162] VFR_HUD
[16:13:18.286647] [163] HEARTBEAT
[16:13:18.851688] [164] VFR_HUD
[16:13:19.079928] [7] RADIO
[16:13:19.082757] [7] RADIO_STATUS
[16:13:19.665872] [167] VFR_HUD
[16:13:20.109946] [8] RADIO
[16:13:20.112849] [8] RADIO_STATUS
[16:13:20.234985] [168] HEARTBEAT
[16:13:21.149051] [9] RADIO
[16:13:21.152041] [9] RADIO_STATUS
[16:13:21.283083] [170] HEARTBEAT
[16:13:21.289324] [171] SYS_STATUS
[16:13:21.329055] [172] BATTERY_STATUS
[16:13:21.337085] [173] ATTITUDE_TARGET
[16:13:21.342054] [174] VFR_HUD
[16:13:22.074135] [10] RADIO
[16:13:22.077171] [10] RADIO_STATUS
[16:13:22.299162] [175] VFR_HUD
[16:13:22.306267] [176] HEARTBEAT
[16:13:22.890277] [177] VFR_HUD
[16:13:23.098314] [11] RADIO
[16:13:23.101262] [11] RADIO_STATUS
[16:13:23.228377] [178] HEARTBEAT
[16:13:23.236348] [179] ATTITUDE_TARGET
[16:13:24.138452] [12] RADIO
[16:13:24.141445] [12] RADIO_STATUS
[16:13:24.259510] [181] HEARTBEAT
[16:13:25.167810] [13] RADIO
[16:13:25.170653] [13] RADIO_STATUS
[16:13:26.087816] [14] RADIO
[16:13:26.090876] [14] RADIO_STATUS
[16:13:27.132971] [15] RADIO
[16:13:27.135957] [15] RADIO_STATUS
[16:13:27.713040] [193] VFR_HUD
[16:13:28.157139] [16] RADIO
[16:13:28.160127] [16] RADIO_STATUS
[16:13:28.273189] [194] HEARTBEAT
[16:13:29.076310] [17] RADIO
[16:13:29.079362] [17] RADIO_STATUS
[16:13:29.198858] [196] HEARTBEAT
[16:13:29.218348] [197] SYS_STATUS
[16:13:29.256317] [198] BATTERY_STATUS
[16:13:29.258284] [199] EXTENDED_SYS_STATE
[16:13:29.266355] [200] ATTITUDE_TARGET
[16:13:29.271303] [201] VFR_HUD
[16:13:29.274479] [202] SYSTEM_TIME
[16:13:30.128424] [203] VFR_HUD
[16:13:30.149505] [18] RADIO
[16:13:30.152399] [18] RADIO_STATUS
[16:13:30.809031] [205] VFR_HUD
[16:13:31.145702] [19] RADIO
[16:13:31.148680] [19] RADIO_STATUS
[16:13:31.275635] [206] HEARTBEAT
[16:13:31.283578] [207] ATTITUDE_TARGET
[16:13:31.616620] [208] VFR_HUD
[16:13:32.082681] [20] RADIO
[16:13:32.085646] [20] RADIO_STATUS
[16:13:32.306831] [209] HEARTBEAT
[16:13:32.416729] [210] VFR_HUD
[16:13:33.215925] [21] RADIO
[16:13:33.225874] [21] RADIO_STATUS
[16:13:33.343945] [211] HEARTBEAT
[16:13:33.350961] [212] SYS_STATUS
[16:13:33.471282] [213] BATTERY_STATUS
[16:13:33.583062] [214] ATTITUDE_TARGET
[16:13:33.588053] [215] VFR_HUD
[16:13:34.026058] [216] VFR_HUD
[16:13:34.135311] [22] RADIO
[16:13:34.138296] [22] RADIO_STATUS
[16:13:34.261061] [217] HEARTBEAT
[16:13:35.180264] [23] RADIO
[16:13:35.183222] [23] RADIO_STATUS
[16:13:35.635315] [221] VFR_HUD
[16:13:36.204349] [24] RADIO
[16:13:36.207301] [24] RADIO_STATUS
[16:13:36.320420] [222] HEARTBEAT
[16:13:37.123628] [25] RADIO
[16:13:37.126453] [25] RADIO_STATUS
[16:13:37.251703] [224] HEARTBEAT
[16:13:37.258539] [225] SYS_STATUS
[16:13:37.373520] [226] BATTERY_STATUS
[16:13:38.059733] [229] VFR_HUD
[16:13:38.174707] [26] RADIO
[16:13:38.177640] [26] RADIO_STATUS
[16:13:38.389724] [230] HEARTBEAT
[16:13:38.864777] [231] VFR_HUD
[16:13:39.192982] [27] RADIO
[16:13:39.195807] [27] RADIO_STATUS
[16:13:39.322903] [232] HEARTBEAT
[16:13:39.331000] [233] ATTITUDE_TARGET
[16:13:39.668923] [234] VFR_HUD
[16:13:40.229008] [235] HEARTBEAT
[16:13:40.260203] [28] RADIO
[16:13:40.262968] [28] RADIO_STATUS
[16:13:40.463037] [236] VFR_HUD
[16:13:41.262228] [29] RADIO
[16:13:41.265456] [29] RADIO_STATUS
[16:13:41.390755] [237] HEARTBEAT
[16:13:41.397245] [238] SYS_STATUS
[16:13:41.517260] [239] BATTERY_STATUS
[16:13:41.629254] [240] ATTITUDE_TARGET
[16:13:41.634397] [241] VFR_HUD
[16:13:42.084343] [242] VFR_HUD
[16:13:42.182345] [30] RADIO
[16:13:42.185320] [30] RADIO_STATUS
[16:13:43.331503] [31] RADIO
[16:13:43.334504] [31] RADIO_STATUS
[16:13:43.681559] [247] VFR_HUD
[16:13:44.250660] [32] RADIO
[16:13:44.253674] [32] RADIO_STATUS
[16:13:44.284630] [248] HEARTBEAT
[16:13:45.170775] [33] RADIO
[16:13:45.173820] [33] RADIO_STATUS
[16:13:46.217044] [255] VFR_HUD
[16:13:46.220024] [0] HEARTBEAT
[16:13:46.227015] [34] RADIO
[16:13:46.230167] [34] RADIO_STATUS
[16:13:46.912156] [1] VFR_HUD
[16:13:47.240198] [35] RADIO
[16:13:47.243144] [35] RADIO_STATUS
[16:13:47.288307] [2] HEARTBEAT
[16:13:47.295220] [3] ATTITUDE_TARGET
[16:13:47.716275] [4] VFR_HUD
[16:13:48.276371] [5] HEARTBEAT
[16:13:48.389412] [36] RADIO
[16:13:48.392442] [36] RADIO_STATUS
[16:13:48.510442] [6] VFR_HUD
[16:13:49.195515] [7] HEARTBEAT
[16:13:49.309740] [37] RADIO
[16:13:49.312608] [37] RADIO_STATUS
[16:13:50.009634] [14] VFR_HUD
[16:13:50.228745] [38] RADIO
[16:13:50.237791] [38] RADIO_STATUS
[16:13:50.808923] [16] VFR_HUD
[16:13:51.378060] [39] RADIO
[16:13:51.381020] [39] RADIO_STATUS
[16:13:51.629960] [19] VFR_HUD
[16:13:52.297951] [40] RADIO
[16:13:52.300889] [40] RADIO_STATUS
[16:13:52.430060] [21] VFR_HUD
[16:13:53.217071] [41] RADIO
[16:13:53.220078] [41] RADIO_STATUS
[16:13:53.353117] [25] ATTITUDE_TARGET
[16:13:53.358123] [26] VFR_HUD
[16:13:54.027272] [27] VFR_HUD
[16:13:54.252277] [28] HEARTBEAT
[16:13:54.284254] [42] RADIO
[16:13:54.287222] [42] RADIO_STATUS
[16:13:55.286424] [43] RADIO
[16:13:55.288403] [43] RADIO_STATUS
[16:13:55.333544] [30] HEARTBEAT
[16:13:55.341443] [31] ATTITUDE_TARGET
[16:13:55.636502] [32] VFR_HUD
[16:13:56.211671] [33] HEARTBEAT
[16:13:56.329588] [44] RADIO
[16:13:56.332553] [44] RADIO_STATUS
[16:13:56.450710] [34] VFR_HUD
[16:13:57.355339] [45] RADIO
[16:13:57.357748] [45] RADIO_STATUS
[16:13:58.273924] [46] RADIO
[16:13:58.276901] [46] RADIO_STATUS
[16:13:58.855156] [42] VFR_HUD
[16:13:59.200055] [43] HEARTBEAT
[16:13:59.223019] [44] ATTITUDE_TARGET
[16:13:59.319084] [47] RADIO
[16:13:59.322083] [47] RADIO_STATUS
[16:13:59.676127] [45] VFR_HUD
[16:14:00.230405] [46] HEARTBEAT
[16:14:00.261202] [48] RADIO
[16:14:00.264184] [48] RADIO_STATUS
[16:14:00.475270] [47] VFR_HUD
[16:14:01.262385] [49] RADIO
[16:14:01.265344] [49] RADIO_STATUS
[16:14:02.072570] [53] VFR_HUD
[16:14:02.298621] [54] HEARTBEAT
[16:14:02.329590] [50] RADIO
[16:14:02.332603] [50] RADIO_STATUS
[16:14:03.231788] [56] HEARTBEAT
[16:14:03.239760] [57] ATTITUDE_TARGET
[16:14:03.331754] [51] RADIO
[16:14:03.334714] [51] RADIO_STATUS
[16:14:03.681991] [58] VFR_HUD
[16:14:04.258102] [59] HEARTBEAT
[16:14:04.381743] [52] RADIO
[16:14:04.381891] [52] RADIO_STATUS
[16:14:04.496914] [60] VFR_HUD
[16:14:05.319042] [53] RADIO
[16:14:05.322014] [53] RADIO_STATUS
[16:14:05.538133] [64] ATTITUDE_TARGET
[16:14:05.543130] [65] VFR_HUD
[16:14:06.106207] [66] VFR_HUD
[16:14:06.218391] [67] HEARTBEAT
[16:14:06.320179] [54] RADIO
[16:14:06.323288] [54] RADIO_STATUS
[16:14:06.901312] [68] VFR_HUD
[16:14:07.265342] [69] HEARTBEAT
[16:14:07.273371] [70] ATTITUDE_TARGET
[16:14:07.365321] [55] RADIO
[16:14:07.368332] [55] RADIO_STATUS
[16:14:07.820441] [71] VFR_HUD
[16:14:08.275519] [72] HEARTBEAT
[16:14:08.389509] [56] RADIO
[16:14:08.392489] [56] RADIO_STATUS
[16:14:08.510520] [73] VFR_HUD
[16:14:09.195619] [74] HEARTBEAT
[16:14:09.309777] [57] RADIO
[16:14:09.312700] [57] RADIO_STATUS
[16:14:10.250778] [81] VFR_HUD
[16:14:10.253709] [82] HEARTBEAT
[16:14:10.365742] [58] RADIO
[16:14:10.367741] [58] RADIO_STATUS
[16:14:10.810084] [83] VFR_HUD
[16:14:11.278953] [84] HEARTBEAT
[16:14:11.286927] [85] ATTITUDE_TARGET
[16:14:11.378271] [59] RADIO
[16:14:11.381023] [59] RADIO_STATUS
[16:14:12.303054] [60] RADIO
[16:14:12.306001] [60] RADIO_STATUS
[16:14:12.332046] [87] HEARTBEAT
[16:14:12.418081] [88] VFR_HUD
[16:14:13.337305] [61] RADIO
[16:14:13.340404] [61] RADIO_STATUS
[16:14:14.367393] [62] RADIO
[16:14:14.370310] [62] RADIO_STATUS
[16:14:14.842439] [96] VFR_HUD
[16:14:15.311512] [97] HEARTBEAT
[16:14:15.319478] [98] ATTITUDE_TARGET
[16:14:15.407000] [63] RADIO
[16:14:15.413837] [63] RADIO_STATUS
[16:14:15.637512] [99] VFR_HUD
[16:14:16.435632] [64] RADIO
[16:14:16.438653] [64] RADIO_STATUS
[16:14:16.476365] [101] VFR_HUD
[16:14:17.253795] [102] HEARTBEAT
[16:14:17.260844] [103] SYS_STATUS
[16:14:17.355790] [65] RADIO
[16:14:17.358758] [65] RADIO_STATUS
[16:14:18.296964] [107] VFR_HUD
[16:14:18.299915] [108] HEARTBEAT
[16:14:18.412060] [66] RADIO
[16:14:18.415047] [66] RADIO_STATUS
[16:14:18.856060] [109] VFR_HUD
[16:14:19.325244] [110] HEARTBEAT
[16:14:19.333351] [111] ATTITUDE_TARGET
[16:14:19.343105] [67] RADIO
[16:14:19.346053] [67] RADIO_STATUS
[16:14:20.241301] [113] HEARTBEAT
[16:14:20.345276] [68] RADIO
[16:14:20.348211] [68] RADIO_STATUS
[16:14:20.465311] [114] VFR_HUD
[16:14:21.456496] [119] VFR_HUD
[16:14:21.493543] [69] RADIO
[16:14:21.496497] [69] RADIO_STATUS
[16:14:22.085618] [120] VFR_HUD
[16:14:22.298629] [121] HEARTBEAT
[16:14:22.411599] [70] RADIO
[16:14:22.414720] [70] RADIO_STATUS
[16:14:22.887986] [122] VFR_HUD
[16:14:23.231743] [123] HEARTBEAT
[16:14:23.239764] [124] ATTITUDE_TARGET
[16:14:23.451716] [71] RADIO
[16:14:23.457144] [71] RADIO_STATUS
[16:14:24.376973] [72] RADIO
[16:14:24.379872] [72] RADIO_STATUS
[16:14:24.496946] [127] VFR_HUD
[16:14:25.401164] [73] RADIO
[16:14:25.404037] [73] RADIO_STATUS
[16:14:26.107149] [133] VFR_HUD
[16:14:26.219134] [134] HEARTBEAT
[16:14:26.446178] [74] RADIO
[16:14:26.449262] [74] RADIO_STATUS
[16:14:27.370430] [136] HEARTBEAT
[16:14:27.378396] [137] ATTITUDE_TARGET
[16:14:27.388447] [75] RADIO
[16:14:27.391367] [75] RADIO_STATUS
[16:14:28.276612] [139] HEARTBEAT
[16:14:28.390513] [76] RADIO
[16:14:28.393545] [76] RADIO_STATUS
[16:14:28.510582] [140] VFR_HUD
[16:14:29.196703] [141] HEARTBEAT
[16:14:29.332853] [143] BATTERY_STATUS
[16:14:29.334703] [144] EXTENDED_SYS_STATE
[16:14:29.496876] [77] RADIO
[16:14:29.499756] [77] RADIO_STATUS
[16:14:30.241874] [149] HEARTBEAT
[16:14:30.459848] [78] RADIO
[16:14:30.462818] [78] RADIO_STATUS
[16:14:30.810950] [150] VFR_HUD
[16:14:31.398994] [151] HEARTBEAT
[16:14:31.406996] [152] ATTITUDE_TARGET
[16:14:31.504972] [79] RADIO
[16:14:31.508034] [79] RADIO_STATUS
[16:14:32.420215] [155] VFR_HUD
[16:14:32.452321] [80] RADIO
[16:14:32.455164] [80] RADIO_STATUS
[16:14:33.242436] [156] HEARTBEAT
[16:14:33.249265] [157] SYS_STATUS
[16:14:33.289271] [158] BATTERY_STATUS
[16:14:33.296288] [159] ATTITUDE_TARGET
[16:14:33.301236] [160] VFR_HUD
[16:14:33.449268] [81] RADIO
[16:14:33.452299] [81] RADIO_STATUS
[16:14:34.265435] [161] VFR_HUD
[16:14:34.268379] [162] HEARTBEAT
[16:14:34.493483] [82] RADIO
[16:14:34.496455] [82] RADIO_STATUS
[16:14:34.844560] [163] VFR_HUD
[16:14:35.517759] [83] RADIO
[16:14:35.520710] [83] RADIO_STATUS
[16:14:35.638700] [166] VFR_HUD
[16:14:36.218794] [167] HEARTBEAT
[16:14:36.459896] [168] VFR_HUD
[16:14:36.562822] [84] RADIO
[16:14:36.565845] [84] RADIO_STATUS
[16:14:37.587016] [85] RADIO
[16:14:37.590003] [85] RADIO_STATUS
[16:14:37.724124] [172] ATTITUDE_TARGET
[16:14:37.729060] [173] VFR_HUD
[16:14:38.288358] [175] HEARTBEAT
[16:14:38.507218] [86] RADIO
[16:14:38.510184] [86] RADIO_STATUS
[16:14:38.857269] [176] VFR_HUD
[16:14:39.326463] [177] HEARTBEAT
[16:14:39.333394] [178] ATTITUDE_TARGET
[16:14:39.546403] [87] RADIO
[16:14:39.549340] [87] RADIO_STATUS
[16:14:40.232566] [180] HEARTBEAT
[16:14:40.466557] [181] VFR_HUD
[16:14:40.493589] [88] RADIO
[16:14:40.497618] [88] RADIO_STATUS
[16:14:41.288690] [182] HEARTBEAT
[16:14:41.295861] [183] SYS_STATUS
[16:14:41.335666] [184] BATTERY_STATUS
[16:14:41.342666] [185] ATTITUDE_TARGET
[16:14:41.347653] [186] VFR_HUD
[16:14:41.495756] [89] RADIO
[16:14:41.498642] [89] RADIO_STATUS
[16:14:42.196885] [187] VFR_HUD
[16:14:42.228836] [188] HEARTBEAT
[16:14:42.535880] [90] RADIO
[16:14:42.538941] [90] RADIO_STATUS
[16:14:42.890983] [189] VFR_HUD
[16:14:43.564108] [91] RADIO
[16:14:43.567213] [91] RADIO_STATUS
[16:14:43.685056] [192] VFR_HUD
[16:14:44.484234] [92] RADIO
[16:14:44.487371] [92] RADIO_STATUS
[16:14:45.551311] [93] RADIO
[16:14:45.554409] [93] RADIO_STATUS
[16:14:46.209514] [201] HEARTBEAT
[16:14:46.553916] [94] RADIO
[16:14:46.555497] [94] RADIO_STATUS
[16:14:46.903571] [202] VFR_HUD
[16:14:47.371618] [203] HEARTBEAT
[16:14:47.379642] [204] ATTITUDE_TARGET
[16:14:47.592694] [95] RADIO
[16:14:47.595641] [95] RADIO_STATUS
[16:14:48.278897] [206] HEARTBEAT
[16:14:48.524866] [207] VFR_HUD
[16:14:48.621906] [96] RADIO
[16:14:48.624869] [96] RADIO_STATUS
[16:14:49.209972] [208] HEARTBEAT
[16:14:49.216164] [209] SYS_STATUS
[16:14:49.333964] [210] BATTERY_STATUS
[16:14:49.335991] [211] EXTENDED_SYS_STATE
[16:14:49.455015] [212] ATTITUDE_TARGET
[16:14:49.460012] [213] VFR_HUD
[16:14:49.463931] [214] SYSTEM_TIME
[16:14:49.497999] [97] RADIO
[16:14:49.500929] [97] RADIO_STATUS
[16:14:50.246127] [216] HEARTBEAT
[16:14:50.580123] [98] RADIO
[16:14:50.583071] [98] RADIO_STATUS
[16:14:50.811436] [217] VFR_HUD
[16:14:51.505351] [99] RADIO
[16:14:51.508299] [99] RADIO_STATUS
[16:14:51.626358] [220] VFR_HUD
[16:14:52.306480] [221] HEARTBEAT
[16:14:52.432462] [222] VFR_HUD
[16:14:52.529465] [100] RADIO
[16:14:52.532554] [100] RADIO_STATUS
[16:14:53.242586] [223] HEARTBEAT
[16:14:53.249573] [224] SYS_STATUS
[16:14:53.289676] [225] BATTERY_STATUS
[16:14:53.296660] [226] ATTITUDE_TARGET
[16:14:53.301599] [227] VFR_HUD
[16:14:53.679736] [101] RADIO
[16:14:53.682630] [101] RADIO_STATUS
[16:14:54.029694] [228] VFR_HUD
[16:14:54.255793] [229] HEARTBEAT
[16:14:54.598790] [102] RADIO
[16:14:54.601807] [102] RADIO_STATUS
[16:14:55.418092] [231] HEARTBEAT
[16:14:55.425947] [232] ATTITUDE_TARGET
[16:14:55.518948] [103] RADIO
[16:14:55.521911] [103] RADIO_STATUS
[16:14:55.650943] [233] VFR_HUD
[16:14:56.220035] [234] HEARTBEAT
[16:14:56.563077] [104] RADIO
[16:14:56.566025] [104] RADIO_STATUS
[16:14:57.256243] [236] HEARTBEAT
[16:14:57.263185] [237] SYS_STATUS
[16:14:57.378242] [238] BATTERY_STATUS
[16:14:57.495244] [239] ATTITUDE_TARGET
[16:14:57.500177] [240] VFR_HUD
[16:14:57.534500] [105] RADIO
[16:14:57.537230] [105] RADIO_STATUS
[16:14:58.289409] [242] HEARTBEAT
[16:14:58.633381] [106] RADIO
[16:14:58.636393] [106] RADIO_STATUS
[16:14:58.858613] [243] VFR_HUD
[16:14:59.552535] [107] RADIO
[16:14:59.555559] [107] RADIO_STATUS
[16:14:59.673603] [246] VFR_HUD
[16:15:00.233710] [247] HEARTBEAT
[16:15:00.576696] [108] RADIO
[16:15:00.579652] [108] RADIO_STATUS
[16:15:01.289899] [249] HEARTBEAT
[16:15:01.296799] [250] SYS_STATUS
[16:15:01.726848] [109] RADIO
[16:15:01.730132] [109] RADIO_STATUS
[16:15:02.078045] [254] VFR_HUD
[16:15:02.647181] [110] RADIO
[16:15:02.650023] [110] RADIO_STATUS
[16:15:02.997159] [0] VFR_HUD
[16:15:03.566192] [111] RADIO
[16:15:03.569217] [111] RADIO_STATUS
[16:15:03.698251] [3] VFR_HUD
[16:15:04.267482] [4] HEARTBEAT
[16:15:04.611382] [112] RADIO
[16:15:04.614455] [112] RADIO_STATUS
[16:15:05.304487] [6] HEARTBEAT
[16:15:05.310540] [7] SYS_STATUS
[16:15:05.430519] [8] BATTERY_STATUS
[16:15:05.635510] [113] RADIO
[16:15:05.638533] [113] RADIO_STATUS
[16:15:05.772568] [9] ATTITUDE_TARGET
[16:15:05.777554] [10] VFR_HUD
[16:15:06.211976] [12] HEARTBEAT
[16:15:06.679669] [114] RADIO
[16:15:06.682646] [114] RADIO_STATUS
[16:15:06.916694] [13] VFR_HUD
[16:15:07.593845] [115] RADIO
[16:15:07.596783] [115] RADIO_STATUS
[16:15:07.714888] [16] VFR_HUD
[16:15:08.279999] [17] HEARTBEAT
[16:15:08.409999] [18] VFR_HUD
[16:15:08.623044] [116] RADIO
[16:15:08.625998] [116] RADIO_STATUS
[16:15:09.212091] [19] HEARTBEAT
[16:15:09.218064] [20] SYS_STATUS
[16:15:09.336108] [21] BATTERY_STATUS
[16:15:09.338091] [22] EXTENDED_SYS_STATE
[16:15:09.773156] [117] RADIO
[16:15:09.776145] [117] RADIO_STATUS
[16:15:10.019186] [26] VFR_HUD
[16:15:10.358284] [27] HEARTBEAT
[16:15:10.692300] [118] RADIO
[16:15:10.695303] [118] RADIO_STATUS
[16:15:11.282430] [29] HEARTBEAT
[16:15:11.290396] [30] ATTITUDE_TARGET
[16:15:11.612529] [119] RADIO
[16:15:11.615573] [119] RADIO_STATUS
[16:15:11.650448] [31] VFR_HUD
[16:15:12.308610] [32] HEARTBEAT
[16:15:12.422556] [33] VFR_HUD
[16:15:12.651565] [120] RADIO
[16:15:12.654594] [120] RADIO_STATUS
[16:15:13.365752] [36] BATTERY_STATUS
[16:15:13.372743] [37] ATTITUDE_TARGET
[16:15:13.404853] [38] VFR_HUD
[16:15:13.681827] [121] RADIO
[16:15:13.684783] [121] RADIO_STATUS
[16:15:14.031811] [39] VFR_HUD
[16:15:14.257963] [40] HEARTBEAT
[16:15:14.720973] [122] RADIO
[16:15:14.723941] [122] RADIO_STATUS
[16:15:15.642113] [44] VFR_HUD
[16:15:15.669068] [123] RADIO
[16:15:15.672059] [123] RADIO_STATUS
[16:15:16.222245] [45] HEARTBEAT
[16:15:16.670268] [124] RADIO
[16:15:16.673289] [124] RADIO_STATUS
[16:15:17.258402] [47] HEARTBEAT
[16:15:17.265378] [48] SYS_STATUS
[16:15:17.380364] [49] BATTERY_STATUS
[16:15:17.820437] [125] RADIO
[16:15:17.823388] [125] RADIO_STATUS
[16:15:18.065523] [52] VFR_HUD
[16:15:18.635543] [126] RADIO
[16:15:18.637585] [126] RADIO_STATUS
[16:15:19.224711] [55] HEARTBEAT
[16:15:19.232629] [56] ATTITUDE_TARGET
[16:15:19.659712] [127] RADIO
[16:15:19.662628] [127] RADIO_STATUS
[16:15:19.697669] [57] VFR_HUD
[16:15:20.236132] [58] HEARTBEAT
[16:15:20.469825] [59] VFR_HUD
[16:15:20.698863] [128] RADIO
[16:15:20.704206] [128] RADIO_STATUS
[16:15:21.729086] [129] RADIO
[16:15:21.732062] [129] RADIO_STATUS
[16:15:22.080184] [65] VFR_HUD
[16:15:22.200146] [66] HEARTBEAT
[16:15:22.654245] [130] RADIO
[16:15:22.657200] [130] RADIO_STATUS
[16:15:23.689408] [70] VFR_HUD
[16:15:23.721376] [131] RADIO
[16:15:23.724395] [131] RADIO_STATUS
[16:15:24.269496] [71] HEARTBEAT
[16:15:24.718602] [132] RADIO
[16:15:24.721589] [132] RADIO_STATUS
[16:15:25.306909] [73] HEARTBEAT
[16:15:25.315008] [74] SYS_STATUS
[16:15:25.434030] [75] BATTERY_STATUS
[16:15:25.868739] [133] RADIO
[16:15:25.871688] [133] RADIO_STATUS
[16:15:26.108862] [78] VFR_HUD
[16:15:26.214871] [79] HEARTBEAT
[16:15:26.683007] [134] RADIO
[16:15:26.685909] [134] RADIO_STATUS
[16:15:27.273069] [81] HEARTBEAT
[16:15:27.281042] [82] ATTITUDE_TARGET
[16:15:27.597987] [83] VFR_HUD
[16:15:27.707022] [135] RADIO
[16:15:27.710013] [135] RADIO_STATUS
[16:15:28.283192] [84] HEARTBEAT
[16:15:28.413220] [85] VFR_HUD
[16:15:28.752263] [136] RADIO
[16:15:28.755230] [136] RADIO_STATUS
[16:15:29.776349] [137] RADIO
[16:15:29.779391] [137] RADIO_STATUS
[16:15:30.017465] [93] VFR_HUD
[16:15:30.817560] [95] VFR_HUD
[16:15:30.849549] [138] RADIO
[16:15:30.852509] [138] RADIO_STATUS
[16:15:31.286657] [96] HEARTBEAT
[16:15:31.293682] [97] ATTITUDE_TARGET
[16:15:31.741706] [139] RADIO
[16:15:31.744657] [139] RADIO_STATUS
[16:15:32.191831] [99] HEARTBEAT
[16:15:32.426809] [100] VFR_HUD
[16:15:32.766024] [140] RADIO
[16:15:32.768826] [140] RADIO_STATUS
[16:15:33.368978] [103] BATTERY_STATUS
[16:15:33.376979] [104] ATTITUDE_TARGET
[16:15:33.409759] [105] VFR_HUD
[16:15:33.916025] [141] RADIO
[16:15:33.919026] [141] RADIO_STATUS
[16:15:34.036035] [106] VFR_HUD
[16:15:34.262140] [107] HEARTBEAT
[16:15:34.725160] [142] RADIO
[16:15:34.728143] [142] RADIO_STATUS
[16:15:35.315296] [109] HEARTBEAT
[16:15:35.323306] [110] ATTITUDE_TARGET
[16:15:35.755482] [143] RADIO
[16:15:35.758529] [143] RADIO_STATUS
[16:15:36.231494] [112] HEARTBEAT
[16:15:36.461465] [113] VFR_HUD
[16:15:36.905528] [144] RADIO
[16:15:36.908514] [144] RADIO_STATUS
[16:15:37.502863] [117] ATTITUDE_TARGET
[16:15:37.508798] [118] VFR_HUD
[16:15:37.824686] [145] RADIO
[16:15:37.827621] [145] RADIO_STATUS
[16:15:38.070835] [119] VFR_HUD
[16:15:38.744796] [146] RADIO
[16:15:38.747788] [146] RADIO_STATUS
[16:15:38.864825] [121] VFR_HUD
[16:15:39.230038] [122] HEARTBEAT
[16:15:39.237989] [123] ATTITUDE_TARGET
[16:15:39.679989] [124] VFR_HUD
[16:15:39.796038] [147] RADIO
[16:15:39.798981] [147] RADIO_STATUS
[16:15:40.240093] [125] HEARTBEAT
[16:15:40.474148] [126] VFR_HUD
[16:15:40.813137] [148] RADIO
[16:15:40.816167] [148] RADIO_STATUS
[16:15:41.853344] [149] RADIO
[16:15:41.856341] [149] RADIO_STATUS
[16:15:42.084401] [132] VFR_HUD
[16:15:42.204390] [133] HEARTBEAT
[16:15:42.772607] [150] RADIO
[16:15:42.775487] [150] RADIO_STATUS
[16:15:43.242650] [135] HEARTBEAT
[16:15:43.250586] [136] ATTITUDE_TARGET
[16:15:43.693656] [137] VFR_HUD
[16:15:43.802694] [151] RADIO
[16:15:43.805622] [151] RADIO_STATUS
[16:15:44.273785] [138] HEARTBEAT
[16:15:44.502822] [139] VFR_HUD
[16:15:44.842825] [152] RADIO
[16:15:44.845778] [152] RADIO_STATUS
[16:15:45.767052] [153] RADIO
[16:15:45.769939] [153] RADIO_STATUS
[16:15:46.113061] [145] VFR_HUD
[16:15:46.228063] [146] HEARTBEAT
[16:15:46.792106] [154] RADIO
[16:15:46.795078] [154] RADIO_STATUS
[16:15:46.830137] [147] VFR_HUD
[16:15:47.276159] [148] HEARTBEAT
[16:15:47.284436] [149] ATTITUDE_TARGET
[16:15:47.614201] [150] VFR_HUD
[16:15:47.830237] [155] RADIO
[16:15:47.833227] [155] RADIO_STATUS
[16:15:48.287320] [151] HEARTBEAT
[16:15:48.416371] [152] VFR_HUD
[16:15:48.860523] [156] RADIO
[16:15:48.863367] [156] RADIO_STATUS
[16:15:49.900556] [157] RADIO
[16:15:49.903548] [157] RADIO_STATUS
[16:15:50.032609] [160] VFR_HUD
[16:15:50.251810] [161] HEARTBEAT
[16:15:50.831756] [162] VFR_HUD
[16:15:50.852809] [158] RADIO
[16:15:50.855724] [158] RADIO_STATUS
[16:15:51.289788] [163] HEARTBEAT
[16:15:51.297788] [164] ATTITUDE_TARGET
[16:15:51.849840] [159] RADIO
[16:15:51.852757] [159] RADIO_STATUS
[16:15:52.430083] [167] VFR_HUD
[16:15:52.895004] [160] RADIO
[16:15:52.897980] [160] RADIO_STATUS
[16:15:53.247056] [168] HEARTBEAT
[16:15:53.254050] [169] SYS_STATUS
[16:15:53.411155] [172] VFR_HUD
[16:15:53.813148] [161] RADIO
[16:15:53.816186] [161] RADIO_STATUS
[16:15:54.039229] [173] VFR_HUD
[16:15:54.263309] [174] HEARTBEAT
[16:15:54.837386] [162] RADIO
[16:15:54.840411] [162] RADIO_STATUS
[16:15:54.875302] [175] VFR_HUD
[16:15:55.317384] [176] HEARTBEAT
[16:15:55.324467] [177] ATTITUDE_TARGET
[16:15:55.882640] [163] RADIO
[16:15:55.884474] [163] RADIO_STATUS
[16:15:56.462643] [180] VFR_HUD
[16:15:56.906661] [164] RADIO
[16:15:56.909669] [164] RADIO_STATUS
[16:15:57.264757] [181] HEARTBEAT
[16:15:57.270722] [182] SYS_STATUS
[16:15:57.503764] [184] ATTITUDE_TARGET
[16:15:57.508737] [185] VFR_HUD
[16:15:57.950901] [165] RADIO
[16:15:57.953854] [165] RADIO_STATUS
[16:15:58.175850] [186] VFR_HUD
[16:15:58.291899] [187] HEARTBEAT
[16:15:58.865974] [188] VFR_HUD
[16:15:58.897967] [166] RADIO
[16:15:58.901041] [166] RADIO_STATUS
[16:15:59.335100] [189] HEARTBEAT
[16:15:59.345582] [190] ATTITUDE_TARGET
[16:15:59.895120] [167] RADIO
[16:15:59.898067] [167] RADIO_STATUS
[16:16:00.241259] [192] HEARTBEAT
[16:16:00.475216] [193] VFR_HUD
[16:16:00.939541] [168] RADIO
[16:16:00.942245] [168] RADIO_STATUS
[16:16:01.854488] [169] RADIO
[16:16:01.857395] [169] RADIO_STATUS
[16:16:02.085433] [199] VFR_HUD
[16:16:02.200480] [200] HEARTBEAT
[16:16:02.883618] [170] RADIO
[16:16:02.886537] [170] RADIO_STATUS
[16:16:03.004774] [201] VFR_HUD
[16:16:03.362599] [202] HEARTBEAT
[16:16:03.370576] [203] ATTITUDE_TARGET
[16:16:03.693636] [204] VFR_HUD
[16:16:03.923730] [171] RADIO
[16:16:03.926707] [171] RADIO_STATUS
[16:16:04.503749] [206] VFR_HUD
[16:16:04.952808] [172] RADIO
[16:16:04.955827] [172] RADIO_STATUS
[16:16:05.194857] [207] HEARTBEAT
[16:16:05.872009] [173] RADIO
[16:16:05.875024] [173] RADIO_STATUS
[16:16:06.222996] [212] VFR_HUD
[16:16:06.230000] [213] HEARTBEAT
[16:16:06.808158] [214] VFR_HUD
[16:16:06.923108] [174] RADIO
[16:16:06.926116] [174] RADIO_STATUS
[16:16:07.602283] [217] VFR_HUD
[16:16:07.941330] [175] RADIO
[16:16:07.944240] [175] RADIO_STATUS
[16:16:08.423573] [219] VFR_HUD
[16:16:08.981453] [176] RADIO
[16:16:08.984377] [176] RADIO_STATUS
[16:16:09.900514] [177] RADIO
[16:16:09.903505] [177] RADIO_STATUS
[16:16:10.251630] [228] HEARTBEAT
[16:16:10.820703] [229] VFR_HUD
[16:16:10.931401] [178] RADIO
[16:16:10.932680] [178] RADIO_STATUS
[16:16:11.414897] [230] HEARTBEAT
[16:16:11.422753] [231] ATTITUDE_TARGET
[16:16:11.630810] [232] VFR_HUD
[16:16:11.969856] [179] RADIO
[16:16:11.972856] [179] RADIO_STATUS
[16:16:12.196123] [233] HEARTBEAT
[16:16:12.999975] [180] RADIO
[16:16:13.002954] [180] RADIO_STATUS
[16:16:13.253326] [235] HEARTBEAT
[16:16:13.260090] [236] SYS_STATUS
[16:16:13.299061] [237] BATTERY_STATUS
[16:16:13.307079] [238] ATTITUDE_TARGET
[16:16:13.312046] [239] VFR_HUD
[16:16:13.919279] [181] RADIO
[16:16:13.922143] [181] RADIO_STATUS
[16:16:14.265298] [241] HEARTBEAT
[16:16:14.855262] [242] VFR_HUD
[16:16:14.970319] [182] RADIO
[16:16:14.973294] [182] RADIO_STATUS
[16:16:15.649603] [245] VFR_HUD
[16:16:15.988459] [183] RADIO
[16:16:15.991436] [183] RADIO_STATUS
[16:16:16.569659] [247] VFR_HUD
[16:16:17.141618] [184] RADIO
[16:16:17.144674] [184] RADIO_STATUS
[16:16:17.266666] [248] HEARTBEAT
[16:16:17.273706] [249] SYS_STATUS
[16:16:17.953755] [185] RADIO
[16:16:17.956769] [185] RADIO_STATUS
[16:16:18.293898] [254] HEARTBEAT
[16:16:18.869009] [255] VFR_HUD
[16:16:18.978068] [186] RADIO
[16:16:18.981172] [186] RADIO_STATUS
[16:16:19.337024] [0] HEARTBEAT
[16:16:19.344963] [1] ATTITUDE_TARGET
[16:16:20.023067] [187] RADIO
[16:16:20.026024] [187] RADIO_STATUS
[16:16:20.244162] [3] HEARTBEAT
[16:16:20.478280] [4] VFR_HUD
[16:16:20.942285] [188] RADIO
[16:16:20.945225] [188] RADIO_STATUS
[16:16:21.295370] [5] HEARTBEAT
[16:16:21.302341] [6] SYS_STATUS
[16:16:21.458504] [9] VFR_HUD
[16:16:21.966420] [189] RADIO
[16:16:21.969388] [189] RADIO_STATUS
[16:16:22.005495] [10] VFR_HUD
[16:16:22.202483] [11] HEARTBEAT
[16:16:22.897753] [12] VFR_HUD
[16:16:23.011716] [190] RADIO
[16:16:23.014578] [190] RADIO_STATUS
[16:16:23.696733] [15] VFR_HUD
[16:16:24.035976] [191] RADIO
[16:16:24.038737] [191] RADIO_STATUS
[16:16:24.271825] [16] HEARTBEAT
[16:16:24.615860] [17] VFR_HUD
[16:16:24.954962] [192] RADIO
[16:16:24.957982] [192] RADIO_STATUS
[16:16:25.190995] [18] HEARTBEAT
[16:16:25.211042] [19] SYS_STATUS
[16:16:25.255039] [20] BATTERY_STATUS
[16:16:25.262995] [21] ATTITUDE_TARGET
[16:16:25.267963] [22] VFR_HUD
[16:16:26.000143] [193] RADIO
[16:16:26.003026] [193] RADIO_STATUS
[16:16:26.806281] [25] VFR_HUD
[16:16:27.025252] [194] RADIO
[16:16:27.028248] [194] RADIO_STATUS
[16:16:27.384333] [26] HEARTBEAT
[16:16:27.392339] [27] ATTITUDE_TARGET
[16:16:27.605333] [28] VFR_HUD
[16:16:28.174462] [195] RADIO
[16:16:28.177437] [195] RADIO_STATUS
[16:16:28.208497] [29] HEARTBEAT
[16:16:28.984542] [196] RADIO
[16:16:28.987499] [196] RADIO_STATUS
[16:16:29.222660] [31] HEARTBEAT
[16:16:29.229755] [32] SYS_STATUS
[16:16:29.346635] [33] BATTERY_STATUS
[16:16:29.348592] [34] EXTENDED_SYS_STATE
[16:16:30.013736] [197] RADIO
[16:16:30.016680] [197] RADIO_STATUS
[16:16:30.145756] [38] VFR_HUD
[16:16:30.254761] [39] HEARTBEAT
[16:16:30.824056] [40] VFR_HUD
[16:16:31.052895] [198] RADIO
[16:16:31.055831] [198] RADIO_STATUS
[16:16:31.639031] [43] VFR_HUD
[16:16:32.082066] [199] RADIO
[16:16:32.085068] [199] RADIO_STATUS
[16:16:32.208045] [44] HEARTBEAT
[16:16:33.002173] [200] RADIO
[16:16:33.005172] [200] RADIO_STATUS
[16:16:33.255542] [46] HEARTBEAT
[16:16:33.262257] [47] SYS_STATUS
[16:16:33.302559] [48] BATTERY_STATUS
[16:16:33.310200] [49] ATTITUDE_TARGET
[16:16:33.314197] [50] VFR_HUD
[16:16:34.041396] [201] RADIO
[16:16:34.044324] [201] RADIO_STATUS
[16:16:34.278426] [51] VFR_HUD
[16:16:34.281401] [52] HEARTBEAT
[16:16:34.962514] [53] VFR_HUD
[16:16:35.071488] [202] RADIO
[16:16:35.074499] [202] RADIO_STATUS
[16:16:35.187535] [54] HEARTBEAT
[16:16:35.210550] [55] ATTITUDE_TARGET
[16:16:35.663635] [56] VFR_HUD
[16:16:36.110721] [203] RADIO
[16:16:36.113729] [203] RADIO_STATUS
[16:16:36.231710] [57] HEARTBEAT
[16:16:37.030071] [204] RADIO
[16:16:37.032988] [204] RADIO_STATUS
[16:16:37.268030] [59] HEARTBEAT
[16:16:37.274880] [60] SYS_STATUS
[16:16:37.394893] [61] BATTERY_STATUS
[16:16:38.059274] [205] RADIO
[16:16:38.062204] [205] RADIO_STATUS
[16:16:38.180090] [64] VFR_HUD
[16:16:38.310089] [65] HEARTBEAT
[16:16:38.869178] [66] VFR_HUD
[16:16:39.098221] [206] RADIO
[16:16:39.101122] [206] RADIO_STATUS
[16:16:39.678436] [69] VFR_HUD
[16:16:40.127429] [207] RADIO
[16:16:40.130261] [207] RADIO_STATUS
[16:16:40.244379] [70] HEARTBEAT
[16:16:41.047508] [208] RADIO
[16:16:41.050452] [208] RADIO_STATUS
[16:16:41.295523] [72] HEARTBEAT
[16:16:41.302498] [73] SYS_STATUS
[16:16:41.458656] [76] VFR_HUD
[16:16:42.087647] [77] VFR_HUD
[16:16:42.114628] [209] RADIO
[16:16:42.117885] [209] RADIO_STATUS
[16:16:43.007906] [79] VFR_HUD
[16:16:43.116951] [210] RADIO
[16:16:43.119923] [210] RADIO_STATUS
[16:16:43.246819] [80] HEARTBEAT
[16:16:43.255273] [81] ATTITUDE_TARGET
[16:16:43.696901] [82] VFR_HUD
[16:16:44.040911] [211] RADIO
[16:16:44.043933] [211] RADIO_STATUS
[16:16:44.272046] [83] HEARTBEAT
[16:16:44.615948] [84] VFR_HUD
[16:16:45.081088] [212] RADIO
[16:16:45.084056] [212] RADIO_STATUS
[16:16:45.329117] [87] BATTERY_STATUS
[16:16:45.337115] [88] ATTITUDE_TARGET
[16:16:45.367133] [89] VFR_HUD
[16:16:45.996156] [90] VFR_HUD
[16:16:46.105191] [213] RADIO
[16:16:46.108140] [213] RADIO_STATUS
[16:16:46.231210] [91] HEARTBEAT
[16:16:47.150467] [214] RADIO
[16:16:47.153320] [214] RADIO_STATUS
[16:16:47.605436] [95] VFR_HUD
[16:16:48.070535] [215] RADIO
[16:16:48.072553] [215] RADIO_STATUS
[16:16:48.290570] [96] HEARTBEAT
[16:16:49.094686] [216] RADIO
[16:16:49.097620] [216] RADIO_STATUS
[16:16:49.347706] [100] BATTERY_STATUS
[16:16:49.349615] [101] EXTENDED_SYS_STATE
[16:16:49.500791] [102] ATTITUDE_TARGET
[16:16:49.505717] [103] VFR_HUD
[16:16:49.509675] [104] SYSTEM_TIME
[16:16:50.030827] [105] VFR_HUD
[16:16:50.150754] [217] RADIO
[16:16:50.153704] [217] RADIO_STATUS
[16:16:51.163880] [218] RADIO
[16:16:51.166824] [218] RADIO_STATUS
[16:16:51.211927] [108] HEARTBEAT
[16:16:51.219944] [109] ATTITUDE_TARGET
[16:16:51.639982] [110] VFR_HUD
[16:16:52.200048] [111] HEARTBEAT
[16:16:52.231009] [219] RADIO
[16:16:52.234011] [219] RADIO_STATUS
[16:16:52.434092] [112] VFR_HUD
[16:16:53.233217] [220] RADIO
[16:16:53.236231] [220] RADIO_STATUS
[16:16:53.369312] [116] ATTITUDE_TARGET
[16:16:53.374302] [117] VFR_HUD
[16:16:54.043441] [118] VFR_HUD
[16:16:54.152386] [221] RADIO
[16:16:54.155376] [221] RADIO_STATUS
[16:16:55.241614] [222] RADIO
[16:16:55.244548] [222] RADIO_STATUS
[16:16:55.652686] [123] VFR_HUD
[16:16:56.221835] [223] RADIO
[16:16:56.224851] [223] RADIO_STATUS
[16:16:56.256789] [124] HEARTBEAT
[16:16:57.141890] [224] RADIO
[16:16:57.144831] [224] RADIO_STATUS
[16:16:57.269956] [126] HEARTBEAT
[16:16:57.277014] [127] SYS_STATUS
[16:16:57.391047] [128] BATTERY_STATUS
[16:16:57.513847] [129] ATTITUDE_TARGET
[16:16:57.514233] [130] VFR_HUD
[16:16:58.072035] [131] VFR_HUD
[16:16:58.181276] [225] RADIO
[16:16:58.184069] [225] RADIO_STATUS
[16:16:59.211245] [226] RADIO
[16:16:59.214226] [226] RADIO_STATUS
[16:16:59.259250] [134] HEARTBEAT
[16:16:59.266190] [135] ATTITUDE_TARGET
[16:16:59.681774] [136] VFR_HUD
[16:17:00.247396] [137] HEARTBEAT
[16:17:00.278344] [227] RADIO
[16:17:00.281308] [227] RADIO_STATUS
[16:17:00.481389] [138] VFR_HUD
[16:17:01.170513] [228] RADIO
[16:17:01.173605] [228] RADIO_STATUS
[16:17:02.199716] [229] RADIO
[16:17:02.209747] [229] RADIO_STATUS
[16:17:03.010856] [146] VFR_HUD
[16:17:03.349963] [230] RADIO
[16:17:03.352885] [230] RADIO_STATUS
[16:17:03.701034] [149] VFR_HUD
[16:17:04.160048] [231] RADIO
[16:17:04.162976] [231] RADIO_STATUS
[16:17:04.276263] [150] HEARTBEAT
[16:17:05.189185] [232] RADIO
[16:17:05.192127] [232] RADIO_STATUS
[16:17:05.444290] [154] BATTERY_STATUS
[16:17:06.000351] [157] VFR_HUD
[16:17:06.225346] [158] HEARTBEAT
[16:17:06.339297] [233] RADIO
[16:17:06.342310] [233] RADIO_STATUS
[16:17:07.259478] [234] RADIO
[16:17:07.262467] [234] RADIO_STATUS
[16:17:07.389609] [160] HEARTBEAT
[16:17:07.397518] [161] ATTITUDE_TARGET
[16:17:07.610554] [162] VFR_HUD
[16:17:08.178726] [235] RADIO
[16:17:08.181700] [235] RADIO_STATUS
[16:17:08.295701] [163] HEARTBEAT
[16:17:08.424926] [164] VFR_HUD
[16:17:09.328929] [236] RADIO
[16:17:09.331798] [236] RADIO_STATUS
[16:17:10.374108] [172] VFR_HUD
[16:17:10.377069] [173] HEARTBEAT
[16:17:10.828166] [174] VFR_HUD
[16:17:11.397257] [238] RADIO
[16:17:11.400211] [238] RADIO_STATUS
[16:17:11.747314] [177] VFR_HUD
[16:17:12.202426] [178] HEARTBEAT
[16:17:12.234418] [239] RADIO
[16:17:12.237357] [239] RADIO_STATUS
[16:17:12.437399] [179] VFR_HUD
[16:17:13.236562] [240] RADIO
[16:17:13.238597] [240] RADIO_STATUS
[16:17:13.364579] [180] HEARTBEAT
[16:17:13.370531] [181] SYS_STATUS
[16:17:13.485576] [182] BATTERY_STATUS
[16:17:14.046697] [185] VFR_HUD
[16:17:14.271746] [186] HEARTBEAT
[16:17:14.385763] [241] RADIO
[16:17:14.388710] [241] RADIO_STATUS
[16:17:15.204898] [188] HEARTBEAT
[16:17:15.212916] [189] ATTITUDE_TARGET
[16:17:15.222939] [242] RADIO
[16:17:15.225881] [242] RADIO_STATUS
[16:17:15.655999] [190] VFR_HUD
[16:17:16.225032] [243] RADIO
[16:17:16.226993] [243] RADIO_STATUS
[16:17:16.268046] [191] HEARTBEAT
[16:17:16.465093] [192] VFR_HUD
[16:17:17.292220] [244] RADIO
[16:17:17.295160] [244] RADIO_STATUS
[16:17:17.511262] [196] ATTITUDE_TARGET
[16:17:17.516196] [197] VFR_HUD
[16:17:18.074355] [198] VFR_HUD
[16:17:18.185519] [199] HEARTBEAT
[16:17:18.293372] [245] RADIO
[16:17:18.296312] [245] RADIO_STATUS
[16:17:18.874468] [200] VFR_HUD
[16:17:19.238538] [201] HEARTBEAT
[16:17:19.246556] [202] ATTITUDE_TARGET
