[09:45:40.682076] [130] HEARTBEAT
[09:45:40.689993] [131] SYS_STATUS
[09:45:40.804058] [132] BATTERY_STATUS
[09:45:40.921163] [133] ATTITUDE_TARGET
[09:45:40.926038] [134] VFR_HUD
[09:45:40.960069] [243] RADIO
[09:45:40.963069] [243] RADIO_STATUS
[09:45:41.484142] [135] VFR_HUD
[09:45:41.715357] [136] HEARTBEAT
[09:45:41.828209] [244] RADIO
[09:45:41.831218] [244] RADIO_STATUS
[09:45:42.284315] [137] VFR_HUD
[09:45:42.753524] [138] HEARTBEAT
[09:45:42.760364] [139] ATTITUDE_TARGET
[09:45:42.853264] [245] RADIO
[09:45:42.856289] [245] RADIO_STATUS
[09:45:43.093326] [140] VFR_HUD
[09:45:43.659375] [141] HEARTBEAT
[09:45:43.893393] [142] VFR_HUD
[09:45:43.925444] [246] RADIO
[09:45:43.928481] [246] RADIO_STATUS
[09:45:44.715452] [143] HEARTBEAT
[09:45:44.722452] [144] SYS_STATUS
[09:45:44.922429] [247] RADIO
[09:45:44.925386] [247] RADIO_STATUS
[09:45:45.738590] [148] VFR_HUD
[09:45:45.741498] [149] HEARTBEAT
[09:45:45.841573] [248] RADIO
[09:45:45.844564] [248] RADIO_STATUS
[09:45:46.317605] [150] VFR_HUD
[09:45:46.661735] [151] HEARTBEAT
[09:45:46.669640] [152] ATTITUDE_TARGET
[09:45:46.886679] [249] RADIO
[09:45:46.889655] [249] RADIO_STATUS
[09:45:47.112632] [153] VFR_HUD
[09:45:47.687824] [154] HEARTBEAT
[09:45:47.910748] [250] RADIO
[09:45:47.913960] [250] RADIO_STATUS
[09:45:47.949682] [155] VFR_HUD
[09:45:48.728855] [156] HEARTBEAT
[09:45:48.735837] [157] SYS_STATUS
[09:45:48.855820] [158] BATTERY_STATUS
[09:45:48.967826] [159] ATTITUDE_TARGET
[09:45:48.972759] [160] VFR_HUD
[09:45:49.006948] [251] RADIO
[09:45:49.009815] [251] RADIO_STATUS
[09:45:49.530844] [161] VFR_HUD
[09:45:49.636925] [162] HEARTBEAT
[09:45:49.870914] [252] RADIO
[09:45:49.872844] [252] RADIO_STATUS
[09:45:50.330940] [163] VFR_HUD
[09:45:50.690005] [164] HEARTBEAT
[09:45:50.698091] [165] ATTITUDE_TARGET
[09:45:50.900039] [253] RADIO
[09:45:50.902943] [253] RADIO_STATUS
[09:45:51.142623] [166] VFR_HUD
[09:45:51.706116] [167] HEARTBEAT
[09:45:51.940112] [168] VFR_HUD
[09:45:51.967195] [254] RADIO
[09:45:51.970181] [254] RADIO_STATUS
[09:45:52.758229] [169] HEARTBEAT
[09:45:52.764174] [170] SYS_STATUS
[09:45:52.883311] [171] BATTERY_STATUS
[09:45:52.891172] [172] ATTITUDE_TARGET
[09:45:52.922402] [173] VFR_HUD
[09:45:52.943160] [255] RADIO
[09:45:52.946153] [255] RADIO_STATUS
[09:45:53.445234] [174] VFR_HUD
[09:45:53.665333] [175] HEARTBEAT
[09:45:53.889332] [0] RADIO
[09:45:53.892370] [0] RADIO_STATUS
[09:45:54.240327] [176] VFR_HUD
[09:45:54.709404] [177] HEARTBEAT
[09:45:54.717354] [178] ATTITUDE_TARGET
[09:45:54.929484] [1] RADIO
[09:45:54.932363] [1] RADIO_STATUS
[09:45:55.055382] [179] VFR_HUD
[09:45:55.735530] [180] HEARTBEAT
[09:45:55.849498] [181] VFR_HUD
[09:45:55.958519] [2] RADIO
[09:45:55.961457] [2] RADIO_STATUS
[09:45:56.666704] [182] HEARTBEAT
[09:45:56.673596] [183] SYS_STATUS
[09:45:56.795627] [184] BATTERY_STATUS
[09:45:56.796552] [185] EXTENDED_SYS_STATE
[09:45:56.804575] [186] ATTITUDE_TARGET
[09:45:56.809563] [187] VFR_HUD
[09:45:56.813521] [188] SYSTEM_TIME
[09:45:56.998635] [3] RADIO
[09:45:57.001550] [3] RADIO_STATUS
[09:45:57.459683] [189] VFR_HUD
[09:45:57.684684] [190] HEARTBEAT
[09:45:57.918721] [4] RADIO
[09:45:57.921700] [4] RADIO_STATUS
[09:45:58.268750] [191] VFR_HUD
[09:45:58.738114] [192] HEARTBEAT
[09:45:58.745901] [193] ATTITUDE_TARGET
[09:45:58.948400] [5] RADIO
[09:45:58.950853] [5] RADIO_STATUS
[09:45:59.068894] [194] VFR_HUD
[09:45:59.649076] [195] HEARTBEAT
[09:45:59.878012] [196] VFR_HUD
[09:45:59.987997] [6] RADIO
[09:45:59.990965] [6] RADIO_STATUS
[09:46:00.686080] [197] HEARTBEAT
[09:46:00.693122] [198] SYS_STATUS
[09:46:00.808266] [199] BATTERY_STATUS
[09:46:00.925057] [200] ATTITUDE_TARGET
[09:46:00.930064] [201] VFR_HUD
[09:46:00.935064] [7] RADIO
[09:46:00.938158] [7] RADIO_STATUS
[09:46:01.488088] [202] VFR_HUD
[09:46:01.719114] [203] HEARTBEAT
[09:46:01.937132] [8] RADIO
[09:46:01.940070] [8] RADIO_STATUS
[09:46:02.288178] [204] VFR_HUD
[09:46:02.638514] [205] HEARTBEAT
[09:46:02.756201] [206] ATTITUDE_TARGET
[09:46:02.977185] [9] RADIO
[09:46:02.980124] [9] RADIO_STATUS
[09:46:03.103281] [207] VFR_HUD
[09:46:03.663371] [208] HEARTBEAT
[09:46:03.897311] [209] VFR_HUD
[09:46:04.006285] [10] RADIO
[09:46:04.009272] [10] RADIO_STATUS
[09:46:04.719405] [210] HEARTBEAT
[09:46:04.726454] [211] SYS_STATUS
[09:46:04.766349] [212] BATTERY_STATUS
[09:46:04.774359] [213] ATTITUDE_TARGET
[09:46:04.778289] [214] VFR_HUD
[09:46:05.046357] [11] RADIO
[09:46:05.049353] [11] RADIO_STATUS
[09:46:05.637727] [215] VFR_HUD
[09:46:05.640472] [216] HEARTBEAT
[09:46:05.971444] [12] RADIO
[09:46:05.974409] [12] RADIO_STATUS
[09:46:06.321509] [217] VFR_HUD
[09:46:06.665589] [218] HEARTBEAT
[09:46:06.673623] [219] ATTITUDE_TARGET
[09:46:06.995619] [13] RADIO
[09:46:06.998698] [13] RADIO_STATUS
[09:46:07.116584] [220] VFR_HUD
[09:46:07.696664] [221] HEARTBEAT
[09:46:07.925642] [222] VFR_HUD
[09:46:08.040670] [14] RADIO
[09:46:08.043627] [14] RADIO_STATUS
[09:46:08.732827] [223] HEARTBEAT
[09:46:08.739806] [224] SYS_STATUS
[09:46:08.859840] [225] BATTERY_STATUS
[09:46:08.971853] [226] ATTITUDE_TARGET
[09:46:08.976879] [227] VFR_HUD
[09:46:09.010935] [15] RADIO
[09:46:09.013733] [15] RADIO_STATUS
[09:46:09.535856] [228] VFR_HUD
[09:46:09.640827] [229] HEARTBEAT
[09:46:09.984849] [16] RADIO
[09:46:09.986827] [16] RADIO_STATUS
[09:46:10.334943] [230] VFR_HUD
[09:46:10.694017] [231] HEARTBEAT
[09:46:10.701942] [232] ATTITUDE_TARGET
[09:46:11.028962] [17] RADIO
[09:46:11.031923] [17] RADIO_STATUS
[09:46:11.144950] [233] VFR_HUD
[09:46:11.710058] [234] HEARTBEAT
[09:46:11.840115] [235] VFR_HUD
[09:46:12.054009] [18] RADIO
[09:46:12.055954] [18] RADIO_STATUS
[09:46:12.635192] [236] HEARTBEAT
[09:46:12.655183] [237] SYS_STATUS
[09:46:12.698242] [238] BATTERY_STATUS
[09:46:12.706187] [239] ATTITUDE_TARGET
[09:46:12.711100] [240] VFR_HUD
[09:46:12.975143] [19] RADIO
[09:46:12.978143] [19] RADIO_STATUS
[09:46:13.681153] [241] VFR_HUD
[09:46:13.684196] [242] HEARTBEAT
[09:46:14.020288] [20] RADIO
[09:46:14.023287] [20] RADIO_STATUS
[09:46:14.245316] [243] VFR_HUD
[09:46:14.714271] [244] HEARTBEAT
[09:46:14.722335] [245] ATTITUDE_TARGET
[09:46:15.044324] [21] RADIO
[09:46:15.047275] [21] RADIO_STATUS
[09:46:15.165395] [246] VFR_HUD
[09:46:15.625441] [247] HEARTBEAT
[09:46:15.854390] [248] VFR_HUD
[09:46:16.089345] [22] RADIO
[09:46:16.092406] [22] RADIO_STATUS
[09:46:16.671472] [249] HEARTBEAT
[09:46:16.678448] [250] SYS_STATUS
[09:46:16.800432] [251] BATTERY_STATUS
[09:46:16.809747] [252] EXTENDED_SYS_STATE
[09:46:16.809920] [253] ATTITUDE_TARGET
[09:46:16.814381] [254] VFR_HUD
[09:46:16.818402] [255] SYSTEM_TIME
[09:46:17.003476] [23] RADIO
[09:46:17.006410] [23] RADIO_STATUS
[09:46:17.464505] [0] VFR_HUD
[09:46:17.690376] [1] HEARTBEAT
[09:46:18.033661] [24] RADIO
[09:46:18.036493] [24] RADIO_STATUS
[09:46:18.273673] [2] VFR_HUD
[09:46:18.742656] [3] HEARTBEAT
[09:46:18.750662] [4] ATTITUDE_TARGET
[09:46:19.073661] [5] VFR_HUD
[09:46:19.105643] [25] RADIO
[09:46:19.108613] [25] RADIO_STATUS
[09:46:19.648728] [6] HEARTBEAT
[09:46:19.883885] [7] VFR_HUD
[09:46:20.104866] [26] RADIO
[09:46:20.105726] [26] RADIO_STATUS
[09:46:20.690847] [8] HEARTBEAT
[09:46:20.697890] [9] SYS_STATUS
[09:46:20.811857] [10] BATTERY_STATUS
[09:46:20.929852] [11] ATTITUDE_TARGET
[09:46:20.934810] [12] VFR_HUD
[09:46:21.022843] [27] RADIO
[09:46:21.025950] [27] RADIO_STATUS
[09:46:21.497881] [13] VFR_HUD
[09:46:21.734874] [14] HEARTBEAT
[09:46:22.061926] [28] RADIO
[09:46:22.064875] [28] RADIO_STATUS
[09:46:22.292917] [15] VFR_HUD
[09:46:22.656984] [16] HEARTBEAT
[09:46:22.664967] [17] ATTITUDE_TARGET
[09:46:23.091994] [29] RADIO
[09:46:23.094932] [29] RADIO_STATUS
[09:46:23.129955] [18] VFR_HUD
[09:46:23.668050] [19] HEARTBEAT
[09:46:23.902070] [20] VFR_HUD
[09:46:24.131079] [30] RADIO
[09:46:24.134031] [30] RADIO_STATUS
[09:46:24.725135] [21] HEARTBEAT
[09:46:24.731214] [22] SYS_STATUS
[09:46:24.771164] [23] BATTERY_STATUS
[09:46:24.779110] [24] ATTITUDE_TARGET
[09:46:24.784082] [25] VFR_HUD
[09:46:25.051120] [31] RADIO
[09:46:25.054093] [31] RADIO_STATUS
[09:46:25.637920] [26] VFR_HUD
[09:46:25.749250] [27] HEARTBEAT
[09:46:26.081238] [32] RADIO
[09:46:26.084242] [32] RADIO_STATUS
[09:46:26.321368] [28] VFR_HUD
[09:46:26.671692] [29] HEARTBEAT
[09:46:26.678377] [30] ATTITUDE_TARGET
[09:46:27.121371] [31] VFR_HUD
[09:46:27.148318] [33] RADIO
[09:46:27.151261] [33] RADIO_STATUS
[09:46:27.702388] [32] HEARTBEAT
[09:46:27.931409] [33] VFR_HUD
[09:46:28.150450] [34] RADIO
[09:46:28.153490] [34] RADIO_STATUS
[09:46:28.738602] [34] HEARTBEAT
[09:46:28.745471] [35] SYS_STATUS
[09:46:28.860459] [36] BATTERY_STATUS
[09:46:28.977569] [37] ATTITUDE_TARGET
[09:46:28.982567] [38] VFR_HUD
[09:46:29.070491] [35] RADIO
[09:46:29.073424] [35] RADIO_STATUS
[09:46:29.540635] [39] VFR_HUD
[09:46:29.646532] [40] HEARTBEAT
[09:46:30.109718] [36] RADIO
[09:46:30.112665] [36] RADIO_STATUS
[09:46:30.340582] [41] VFR_HUD
[09:46:30.704623] [42] HEARTBEAT
[09:46:30.712528] [43] ATTITUDE_TARGET
[09:46:31.139608] [37] RADIO
[09:46:31.142636] [37] RADIO_STATUS
[09:46:31.177610] [44] VFR_HUD
[09:46:31.715736] [45] HEARTBEAT
[09:46:31.844775] [46] VFR_HUD
[09:46:32.178746] [38] RADIO
[09:46:32.181694] [38] RADIO_STATUS
[09:46:32.646835] [47] HEARTBEAT
[09:46:32.653811] [48] SYS_STATUS
[09:46:32.773872] [49] BATTERY_STATUS
[09:46:32.889719] [50] ATTITUDE_TARGET
[09:46:32.890750] [51] VFR_HUD
[09:46:33.103818] [39] RADIO
[09:46:33.106794] [39] RADIO_STATUS
[09:46:33.448981] [52] VFR_HUD
[09:46:33.674948] [53] HEARTBEAT
[09:46:34.128046] [40] RADIO
[09:46:34.130925] [40] RADIO_STATUS
[09:46:34.248950] [54] VFR_HUD
[09:46:34.718099] [55] HEARTBEAT
[09:46:34.726020] [56] ATTITUDE_TARGET
[09:46:35.059018] [57] VFR_HUD
[09:46:35.173003] [41] RADIO
[09:46:35.176065] [41] RADIO_STATUS
[09:46:35.749242] [58] HEARTBEAT
[09:46:35.858130] [59] VFR_HUD
[09:46:36.093199] [42] RADIO
[09:46:36.096115] [42] RADIO_STATUS
[09:46:36.680217] [60] HEARTBEAT
[09:46:36.721325] [61] SYS_STATUS
[09:46:36.727315] [62] BATTERY_STATUS
[09:46:36.729151] [63] EXTENDED_SYS_STATE
[09:46:36.749199] [64] ATTITUDE_TARGET
[09:46:36.754699] [65] VFR_HUD
[09:46:36.757264] [66] SYSTEM_TIME
[09:46:37.117302] [43] RADIO
[09:46:37.120246] [43] RADIO_STATUS
[09:46:37.468394] [67] VFR_HUD
[09:46:37.693496] [68] HEARTBEAT
[09:46:38.162377] [44] RADIO
[09:46:38.165365] [44] RADIO_STATUS
[09:46:38.277393] [69] VFR_HUD
[09:46:38.746470] [70] HEARTBEAT
[09:46:38.755387] [71] ATTITUDE_TARGET
[09:46:39.077438] [72] VFR_HUD
[09:46:39.109448] [45] RADIO
[09:46:39.112418] [45] RADIO_STATUS
[09:46:39.652485] [73] HEARTBEAT
[09:46:39.892621] [74] VFR_HUD
[09:46:40.231669] [46] RADIO
[09:46:40.234572] [46] RADIO_STATUS
[09:46:40.694807] [75] HEARTBEAT
[09:46:40.700658] [76] SYS_STATUS
[09:46:40.815677] [77] BATTERY_STATUS
[09:46:40.933700] [78] ATTITUDE_TARGET
[09:46:40.937759] [79] VFR_HUD
[09:46:41.178831] [47] RADIO
[09:46:41.181688] [47] RADIO_STATUS
[09:46:41.501829] [80] VFR_HUD
[09:46:41.721821] [81] HEARTBEAT
[09:46:42.175768] [48] RADIO
[09:46:42.178754] [48] RADIO_STATUS
[09:46:42.295711] [82] VFR_HUD
[09:46:42.655810] [83] HEARTBEAT
[09:46:42.662831] [84] ATTITUDE_TARGET
[09:46:43.110874] [85] VFR_HUD
[09:46:43.231985] [49] RADIO
[09:46:43.234838] [49] RADIO_STATUS
[09:46:43.671934] [86] HEARTBEAT
[09:46:43.905956] [87] VFR_HUD
[09:46:44.134992] [50] RADIO
[09:46:44.137931] [50] RADIO_STATUS
[09:46:44.723022] [88] HEARTBEAT
[09:46:44.730133] [89] SYS_STATUS
[09:46:44.848022] [90] BATTERY_STATUS
[09:46:44.856070] [91] ATTITUDE_TARGET
[09:46:44.886085] [92] VFR_HUD
[09:46:45.164100] [51] RADIO
[09:46:45.167046] [51] RADIO_STATUS
[09:46:45.515141] [93] VFR_HUD
[09:46:45.636100] [94] HEARTBEAT
[09:46:46.204168] [52] RADIO
[09:46:46.207189] [52] RADIO_STATUS
[09:46:46.325254] [95] VFR_HUD
[09:46:46.674264] [96] HEARTBEAT
[09:46:46.682318] [97] ATTITUDE_TARGET
[09:46:47.124235] [98] VFR_HUD
[09:46:47.151245] [53] RADIO
[09:46:47.154199] [53] RADIO_STATUS
[09:46:47.705365] [99] HEARTBEAT
[09:46:47.934340] [100] VFR_HUD
[09:46:48.153425] [54] RADIO
[09:46:48.156377] [54] RADIO_STATUS
[09:46:48.625421] [101] HEARTBEAT
[09:46:48.754513] [102] SYS_STATUS
[09:46:48.761418] [103] BATTERY_STATUS
[09:46:48.871450] [104] ATTITUDE_TARGET
[09:46:48.875417] [105] VFR_HUD
[09:46:49.193519] [55] RADIO
[09:46:49.196448] [55] RADIO_STATUS
[09:46:49.549538] [106] VFR_HUD
[09:46:49.661519] [107] HEARTBEAT
[09:46:50.223552] [56] RADIO
[09:46:50.226528] [56] RADIO_STATUS
[09:46:50.261551] [108] VFR_HUD
[09:46:50.708601] [109] HEARTBEAT
[09:46:50.715667] [110] ATTITUDE_TARGET
[09:46:51.038756] [111] VFR_HUD
[09:46:51.262693] [57] RADIO
[09:46:51.265686] [57] RADIO_STATUS
[09:46:51.718721] [112] HEARTBEAT
[09:46:51.953763] [113] VFR_HUD
[09:46:52.182754] [58] RADIO
[09:46:52.185739] [58] RADIO_STATUS
[09:46:52.650819] [114] HEARTBEAT
[09:46:52.657811] [115] SYS_STATUS
[09:46:52.776906] [116] BATTERY_STATUS
[09:46:52.889807] [117] ATTITUDE_TARGET
[09:46:52.894812] [118] VFR_HUD
[09:46:53.211845] [59] RADIO
[09:46:53.214826] [59] RADIO_STATUS
[09:46:53.452992] [119] VFR_HUD
[09:46:53.683917] [120] HEARTBEAT
[09:46:54.253030] [121] VFR_HUD
[09:46:54.279989] [60] RADIO
[09:46:54.281921] [60] RADIO_STATUS
[09:46:54.722042] [122] HEARTBEAT
[09:46:54.729000] [123] ATTITUDE_TARGET
[09:46:55.062179] [124] VFR_HUD
[09:46:55.171098] [61] RADIO
[09:46:55.174052] [61] RADIO_STATUS
[09:46:55.633111] [125] HEARTBEAT
[09:46:55.862093] [126] VFR_HUD
[09:46:56.201215] [62] RADIO
[09:46:56.204116] [62] RADIO_STATUS
[09:46:56.679323] [127] HEARTBEAT
[09:46:56.685133] [128] SYS_STATUS
[09:46:56.807181] [129] BATTERY_STATUS
[09:46:56.809131] [130] EXTENDED_SYS_STATE
[09:46:56.817151] [131] ATTITUDE_TARGET
[09:46:56.821147] [132] VFR_HUD
[09:46:56.825135] [133] SYSTEM_TIME
[09:46:57.240172] [63] RADIO
[09:46:57.243175] [63] RADIO_STATUS
[09:46:57.471198] [134] VFR_HUD
[09:46:57.696358] [135] HEARTBEAT
[09:46:58.270342] [64] RADIO
[09:46:58.273277] [64] RADIO_STATUS
[09:46:58.308339] [136] VFR_HUD
[09:46:58.755459] [137] HEARTBEAT
[09:46:58.763305] [138] ATTITUDE_TARGET
[09:46:59.080464] [139] VFR_HUD
[09:46:59.190358] [65] RADIO
[09:46:59.193349] [65] RADIO_STATUS
[09:46:59.656511] [140] HEARTBEAT
[09:46:59.895559] [141] VFR_HUD
[09:47:00.234482] [66] RADIO
[09:47:00.237502] [66] RADIO_STATUS
[09:47:00.697494] [142] HEARTBEAT
[09:47:00.704502] [143] SYS_STATUS
[09:47:00.824552] [144] BATTERY_STATUS
[09:47:00.936637] [145] ATTITUDE_TARGET
[09:47:00.941574] [146] VFR_HUD
[09:47:01.261728] [67] RADIO
[09:47:01.262544] [67] RADIO_STATUS
[09:47:01.499642] [147] VFR_HUD
[09:47:01.725981] [148] HEARTBEAT
[09:47:02.299639] [149] VFR_HUD
[09:47:02.331642] [68] RADIO
[09:47:02.334603] [68] RADIO_STATUS
[09:47:02.658711] [150] HEARTBEAT
[09:47:02.666671] [151] ATTITUDE_TARGET
[09:47:03.109686] [152] VFR_HUD
[09:47:03.223779] [69] RADIO
[09:47:03.226831] [69] RADIO_STATUS
[09:47:03.674777] [153] HEARTBEAT
[09:47:03.909738] [154] VFR_HUD
[09:47:04.247825] [70] RADIO
[09:47:04.250826] [70] RADIO_STATUS
[09:47:04.725942] [155] HEARTBEAT
[09:47:04.732862] [156] SYS_STATUS
[09:47:04.851920] [157] BATTERY_STATUS
[09:47:04.859846] [158] ATTITUDE_TARGET
[09:47:04.889825] [159] VFR_HUD
[09:47:05.292875] [71] RADIO
[09:47:05.295924] [71] RADIO_STATUS
[09:47:05.518958] [160] VFR_HUD
[09:47:05.633964] [161] HEARTBEAT
[09:47:06.317964] [72] RADIO
[09:47:06.320972] [72] RADIO_STATUS
[09:47:06.437984] [162] VFR_HUD
[09:47:06.677026] [163] HEARTBEAT
[09:47:06.685002] [164] ATTITUDE_TARGET
[09:47:07.128027] [165] VFR_HUD
[09:47:07.362027] [73] RADIO
[09:47:07.364984] [73] RADIO_STATUS
[09:47:07.703157] [166] HEARTBEAT
[09:47:07.943106] [167] VFR_HUD
[09:47:08.282156] [74] RADIO
[09:47:08.285150] [74] RADIO_STATUS
[09:47:08.640421] [168] HEARTBEAT
[09:47:08.647209] [169] SYS_STATUS
[09:47:08.686282] [170] BATTERY_STATUS
[09:47:08.694146] [171] ATTITUDE_TARGET
[09:47:08.699173] [172] VFR_HUD
[09:47:09.306227] [75] RADIO
[09:47:09.309205] [75] RADIO_STATUS
[09:47:09.662319] [173] VFR_HUD
[09:47:09.665373] [174] HEARTBEAT
[09:47:10.237947] [175] VFR_HUD
[09:47:10.351376] [76] RADIO
[09:47:10.354345] [76] RADIO_STATUS
[09:47:10.711397] [176] HEARTBEAT
[09:47:10.719445] [177] ATTITUDE_TARGET
[09:47:11.036450] [178] VFR_HUD
[09:47:11.375492] [77] RADIO
[09:47:11.378451] [77] RADIO_STATUS
[09:47:11.721509] [179] HEARTBEAT
[09:47:11.846493] [180] VFR_HUD
[09:47:12.295606] [78] RADIO
[09:47:12.298558] [78] RADIO_STATUS
[09:47:12.653609] [181] HEARTBEAT
[09:47:12.660697] [182] SYS_STATUS
[09:47:12.774758] [183] BATTERY_STATUS
[09:47:12.892791] [184] ATTITUDE_TARGET
[09:47:12.897824] [185] VFR_HUD
[09:47:13.334688] [79] RADIO
[09:47:13.337716] [79] RADIO_STATUS
[09:47:13.455669] [186] VFR_HUD
[09:47:13.686707] [187] HEARTBEAT
[09:47:14.255767] [188] VFR_HUD
[09:47:14.282807] [80] RADIO
[09:47:14.285852] [80] RADIO_STATUS
[09:47:14.724773] [189] HEARTBEAT
[09:47:14.732782] [190] ATTITUDE_TARGET
[09:47:15.065786] [191] VFR_HUD
[09:47:15.284758] [81] RADIO
[09:47:15.287744] [81] RADIO_STATUS
[09:47:15.630845] [192] HEARTBEAT
[09:47:15.864874] [193] VFR_HUD
[09:47:16.323855] [82] RADIO
[09:47:16.326810] [82] RADIO_STATUS
[09:47:16.687941] [194] HEARTBEAT
[09:47:16.693904] [195] SYS_STATUS
[09:47:16.728936] [196] BATTERY_STATUS
[09:47:16.729870] [197] EXTENDED_SYS_STATE
[09:47:16.738102] [198] ATTITUDE_TARGET
[09:47:16.743026] [199] VFR_HUD
[09:47:16.746865] [200] SYSTEM_TIME
[09:47:17.354028] [83] RADIO
[09:47:17.356951] [83] RADIO_STATUS
[09:47:17.474036] [201] VFR_HUD
[09:47:17.700046] [202] HEARTBEAT
[09:47:18.289092] [203] VFR_HUD
[09:47:18.405094] [84] RADIO
[09:47:18.408070] [84] RADIO_STATUS
[09:47:18.625254] [204] HEARTBEAT
[09:47:18.757169] [205] ATTITUDE_TARGET
[09:47:19.084197] [206] VFR_HUD
[09:47:19.313361] [85] RADIO
[09:47:19.317627] [85] RADIO_STATUS
[09:47:19.659255] [207] HEARTBEAT
[09:47:19.899300] [208] VFR_HUD
[09:47:20.342324] [86] RADIO
[09:47:20.345275] [86] RADIO_STATUS
[09:47:20.701852] [209] HEARTBEAT
[09:47:20.707395] [210] SYS_STATUS
[09:47:20.827363] [211] BATTERY_STATUS
[09:47:20.940383] [212] ATTITUDE_TARGET
[09:47:20.944341] [213] VFR_HUD
[09:47:21.382505] [87] RADIO
[09:47:21.385415] [87] RADIO_STATUS
[09:47:21.503447] [214] VFR_HUD
[09:47:21.838691] [215] HEARTBEAT
[09:47:22.302551] [216] VFR_HUD
[09:47:22.329520] [88] RADIO
[09:47:22.332515] [88] RADIO_STATUS
[09:47:22.661561] [217] HEARTBEAT
[09:47:22.669565] [218] ATTITUDE_TARGET
[09:47:23.112623] [219] VFR_HUD
[09:47:23.331640] [89] RADIO
[09:47:23.334623] [89] RADIO_STATUS
[09:47:23.677746] [220] HEARTBEAT
[09:47:23.912728] [221] VFR_HUD
[09:47:24.371726] [90] RADIO
[09:47:24.374773] [90] RADIO_STATUS
[09:47:24.729803] [222] HEARTBEAT
[09:47:24.736844] [223] SYS_STATUS
[09:47:24.854868] [224] BATTERY_STATUS
[09:47:24.862914] [225] ATTITUDE_TARGET
[09:47:24.892771] [226] VFR_HUD
[09:47:25.400887] [91] RADIO
[09:47:25.403858] [91] RADIO_STATUS
[09:47:25.439885] [227] VFR_HUD
[09:47:25.637137] [228] HEARTBEAT
[09:47:26.336908] [229] VFR_HUD
[09:47:26.451951] [92] RADIO
[09:47:26.455017] [92] RADIO_STATUS
[09:47:26.680963] [230] HEARTBEAT
[09:47:26.687976] [231] ATTITUDE_TARGET
[09:47:27.131027] [232] VFR_HUD
[09:47:27.360055] [93] RADIO
[09:47:27.363016] [93] RADIO_STATUS
[09:47:27.706108] [233] HEARTBEAT
[09:47:27.946177] [234] VFR_HUD
[09:47:28.390152] [94] RADIO
[09:47:28.393126] [94] RADIO_STATUS
[09:47:28.748256] [235] HEARTBEAT
[09:47:28.755202] [236] SYS_STATUS
[09:47:28.870268] [237] BATTERY_STATUS
[09:47:28.987266] [238] ATTITUDE_TARGET
[09:47:28.992228] [239] VFR_HUD
[09:47:29.430494] [240] VFR_HUD
[09:47:29.457267] [95] RADIO
[09:47:29.460312] [95] RADIO_STATUS
[09:47:29.656356] [241] HEARTBEAT
[09:47:30.240296] [242] VFR_HUD
[09:47:30.459366] [96] RADIO
[09:47:30.462317] [96] RADIO_STATUS
[09:47:30.709470] [243] HEARTBEAT
[09:47:30.717444] [244] ATTITUDE_TARGET
[09:47:31.039414] [245] VFR_HUD
[09:47:31.378416] [97] RADIO
[09:47:31.381365] [97] RADIO_STATUS
[09:47:31.725454] [246] HEARTBEAT
[09:47:31.849495] [247] VFR_HUD
[09:47:32.423486] [98] RADIO
[09:47:32.426472] [98] RADIO_STATUS
[09:47:32.656526] [248] HEARTBEAT
[09:47:32.663543] [249] SYS_STATUS
[09:47:32.777587] [250] BATTERY_STATUS
[09:47:32.895661] [251] ATTITUDE_TARGET
[09:47:32.900562] [252] VFR_HUD
[09:47:33.447605] [99] RADIO
[09:47:33.450606] [99] RADIO_STATUS
[09:47:33.486609] [253] VFR_HUD
[09:47:33.683670] [254] HEARTBEAT
[09:47:34.257720] [255] VFR_HUD
[09:47:34.367694] [100] RADIO
[09:47:34.370703] [100] RADIO_STATUS
[09:47:34.726804] [0] HEARTBEAT
[09:47:34.734737] [1] ATTITUDE_TARGET
[09:47:35.072906] [2] VFR_HUD
[09:47:35.411864] [101] RADIO
[09:47:35.414896] [101] RADIO_STATUS
[09:47:35.632884] [3] HEARTBEAT
[09:47:35.866843] [4] VFR_HUD
[09:47:36.435955] [102] RADIO
[09:47:36.439121] [102] RADIO_STATUS
[09:47:36.794006] [5] HEARTBEAT
[09:47:36.801107] [6] SYS_STATUS
[09:47:36.921352] [7] BATTERY_STATUS
[09:47:36.921520] [8] EXTENDED_SYS_STATE
[09:47:37.040049] [9] ATTITUDE_TARGET
[09:47:37.044967] [10] VFR_HUD
[09:47:37.047988] [11] SYSTEM_TIME
[09:47:37.477094] [12] VFR_HUD
[09:47:37.509145] [103] RADIO
[09:47:37.511958] [103] RADIO_STATUS
[09:47:37.702167] [13] HEARTBEAT
[09:47:38.292145] [14] VFR_HUD
[09:47:38.412227] [104] RADIO
[09:47:38.415232] [104] RADIO_STATUS
[09:47:38.761233] [15] HEARTBEAT
[09:47:38.769367] [16] ATTITUDE_TARGET
[09:47:39.086182] [17] VFR_HUD
[09:47:39.425191] [105] RADIO
[09:47:39.428135] [105] RADIO_STATUS
[09:47:39.667338] [18] HEARTBEAT
[09:47:39.896227] [19] VFR_HUD
[09:47:40.470316] [106] RADIO
[09:47:40.473304] [106] RADIO_STATUS
[09:47:40.703380] [20] HEARTBEAT
[09:47:40.710378] [21] SYS_STATUS
[09:47:40.830402] [22] BATTERY_STATUS
[09:47:40.942370] [23] ATTITUDE_TARGET
[09:47:40.947291] [24] VFR_HUD
[09:47:41.494362] [107] RADIO
[09:47:41.497398] [107] RADIO_STATUS
[09:47:41.615338] [25] VFR_HUD
[09:47:41.634559] [26] HEARTBEAT
[09:47:42.305432] [27] VFR_HUD
[09:47:42.539514] [108] RADIO
[09:47:42.542419] [108] RADIO_STATUS
[09:47:42.664500] [28] HEARTBEAT
[09:47:42.672474] [29] ATTITUDE_TARGET
[09:47:43.114531] [30] VFR_HUD
[09:47:43.454557] [109] RADIO
[09:47:43.456594] [109] RADIO_STATUS
[09:47:43.680645] [31] HEARTBEAT
[09:47:43.914623] [32] VFR_HUD
[09:47:44.483596] [110] RADIO
[09:47:44.486659] [110] RADIO_STATUS
[09:47:44.737892] [33] HEARTBEAT
[09:47:44.743702] [34] SYS_STATUS
[09:47:44.783782] [35] BATTERY_STATUS
[09:47:44.790712] [36] ATTITUDE_TARGET
[09:47:44.795707] [37] VFR_HUD
[09:47:45.522679] [111] RADIO
[09:47:45.525675] [111] RADIO_STATUS
[09:47:45.649734] [38] VFR_HUD
[09:47:45.652818] [39] HEARTBEAT
[09:47:46.338796] [40] VFR_HUD
[09:47:46.453866] [112] RADIO
[09:47:46.456742] [112] RADIO_STATUS
[09:47:46.682836] [41] HEARTBEAT
[09:47:46.690802] [42] ATTITUDE_TARGET
[09:47:47.132860] [43] VFR_HUD
[09:47:47.472854] [113] RADIO
[09:47:47.474804] [113] RADIO_STATUS
[09:47:47.708890] [44] HEARTBEAT
[09:47:47.947904] [45] VFR_HUD
[09:47:48.512241] [114] RADIO
[09:47:48.514958] [114] RADIO_STATUS
[09:47:48.627989] [46] HEARTBEAT
[09:47:48.647967] [47] SYS_STATUS
[09:47:48.693248] [48] BATTERY_STATUS
[09:47:48.699975] [49] ATTITUDE_TARGET
[09:47:48.704006] [50] VFR_HUD
[09:47:49.542077] [115] RADIO
[09:47:49.549748] [115] RADIO_STATUS
[09:47:49.668065] [51] VFR_HUD
[09:47:49.671180] [52] HEARTBEAT
[09:47:50.242434] [53] VFR_HUD
[09:47:50.467161] [116] RADIO
[09:47:50.469171] [116] RADIO_STATUS
[09:47:50.711244] [54] HEARTBEAT
[09:47:50.719219] [55] ATTITUDE_TARGET
[09:47:51.042182] [56] VFR_HUD
[09:47:51.504317] [117] RADIO
[09:47:51.504482] [117] RADIO_STATUS
[09:47:51.727356] [57] HEARTBEAT
[09:47:51.851277] [58] VFR_HUD
[09:47:52.530361] [118] RADIO
[09:47:52.533382] [118] RADIO_STATUS
[09:47:52.658374] [59] HEARTBEAT
[09:47:52.665356] [60] SYS_STATUS
[09:47:52.780370] [61] BATTERY_STATUS
[09:47:52.898380] [62] ATTITUDE_TARGET
[09:47:52.902375] [63] VFR_HUD
[09:47:53.466389] [64] VFR_HUD
[09:47:53.581373] [119] RADIO
[09:47:53.584312] [119] RADIO_STATUS
[09:47:53.695390] [65] HEARTBEAT
[09:47:54.260463] [66] VFR_HUD
[09:47:54.490477] [120] RADIO
[09:47:54.493524] [120] RADIO_STATUS
[09:47:54.733795] [67] HEARTBEAT
[09:47:54.737963] [68] ATTITUDE_TARGET
[09:47:55.075702] [69] VFR_HUD
[09:47:55.519544] [121] RADIO
[09:47:55.522502] [121] RADIO_STATUS
[09:47:55.635624] [70] HEARTBEAT
[09:47:55.870559] [71] VFR_HUD
[09:47:56.559668] [122] RADIO
[09:47:56.562659] [122] RADIO_STATUS
[09:47:56.692685] [72] HEARTBEAT
[09:47:56.699776] [73] SYS_STATUS
[09:47:56.733662] [74] BATTERY_STATUS
[09:47:56.735592] [75] EXTENDED_SYS_STATE
[09:47:56.743627] [76] ATTITUDE_TARGET
[09:47:56.748611] [77] VFR_HUD
[09:47:56.751754] [78] SYSTEM_TIME
[09:47:57.479720] [79] VFR_HUD
[09:47:57.511716] [123] RADIO
[09:47:57.514769] [123] RADIO_STATUS
[09:47:57.705793] [80] HEARTBEAT
[09:47:58.289777] [81] VFR_HUD
[09:47:58.513959] [124] RADIO
[09:47:58.516768] [124] RADIO_STATUS
[09:47:58.758914] [82] HEARTBEAT
[09:47:58.766856] [83] ATTITUDE_TARGET
[09:47:59.089856] [84] VFR_HUD
[09:47:59.553957] [125] RADIO
[09:47:59.557109] [125] RADIO_STATUS
[09:47:59.669964] [85] HEARTBEAT
[09:47:59.899870] [86] VFR_HUD
[09:48:00.578924] [126] RADIO
[09:48:00.581853] [126] RADIO_STATUS
[09:48:00.706984] [87] HEARTBEAT
[09:48:00.713988] [88] SYS_STATUS
[09:48:00.828114] [89] BATTERY_STATUS
[09:48:00.945923] [90] ATTITUDE_TARGET
[09:48:00.950937] [91] VFR_HUD
[09:48:01.509047] [92] VFR_HUD
[09:48:01.620002] [93] HEARTBEAT
[09:48:01.646056] [127] RADIO
[09:48:01.648974] [127] RADIO_STATUS
[09:48:02.309070] [94] VFR_HUD
[09:48:02.544878] [128] RADIO
[09:48:02.546269] [128] RADIO_STATUS
[09:48:02.674215] [95] HEARTBEAT
[09:48:02.681183] [96] ATTITUDE_TARGET
[09:48:03.124140] [97] VFR_HUD
[09:48:03.568325] [129] RADIO
[09:48:03.570106] [129] RADIO_STATUS
[09:48:03.684248] [98] HEARTBEAT
[09:48:03.918298] [99] VFR_HUD
[09:48:04.612328] [130] RADIO
[09:48:04.615385] [130] RADIO_STATUS
[09:48:04.740360] [100] HEARTBEAT
[09:48:04.747362] [101] SYS_STATUS
[09:48:04.787480] [102] BATTERY_STATUS
[09:48:04.795397] [103] ATTITUDE_TARGET
[09:48:04.799330] [104] VFR_HUD
[09:48:05.637401] [131] RADIO
[09:48:05.639363] [131] RADIO_STATUS
[09:48:05.681432] [105] VFR_HUD
[09:48:05.684402] [106] HEARTBEAT
[09:48:06.342462] [107] VFR_HUD
[09:48:06.556495] [132] RADIO
[09:48:06.559466] [132] RADIO_STATUS
[09:48:06.686549] [108] HEARTBEAT
[09:48:06.694500] [109] ATTITUDE_TARGET
[09:48:07.027524] [110] VFR_HUD
[09:48:07.601550] [133] RADIO
[09:48:07.604577] [133] RADIO_STATUS
[09:48:07.717577] [111] HEARTBEAT
[09:48:07.946608] [112] VFR_HUD
[09:48:08.625851] [134] RADIO
[09:48:08.628663] [134] RADIO_STATUS
[09:48:08.756569] [113] HEARTBEAT
[09:48:08.760724] [114] SYS_STATUS
[09:48:08.880763] [115] BATTERY_STATUS
[09:48:08.992773] [116] ATTITUDE_TARGET
[09:48:08.997815] [117] VFR_HUD
[09:48:09.435766] [118] VFR_HUD
[09:48:09.661936] [119] HEARTBEAT
[09:48:09.692817] [135] RADIO
[09:48:09.695854] [135] RADIO_STATUS
[09:48:10.245864] [120] VFR_HUD
[09:48:10.584974] [136] RADIO
[09:48:10.587915] [136] RADIO_STATUS
[09:48:10.714946] [121] HEARTBEAT
[09:48:10.723039] [122] ATTITUDE_TARGET
[09:48:11.045957] [123] VFR_HUD
[09:48:11.614964] [137] RADIO
[09:48:11.617969] [137] RADIO_STATUS
[09:48:11.731009] [124] HEARTBEAT
[09:48:11.861103] [125] VFR_HUD
[09:48:12.663206] [126] HEARTBEAT
[09:48:12.669108] [127] SYS_STATUS
[09:48:12.682028] [138] RADIO
[09:48:12.685024] [138] RADIO_STATUS
[09:48:12.784099] [128] BATTERY_STATUS
[09:48:12.902056] [129] ATTITUDE_TARGET
[09:48:12.906068] [130] VFR_HUD
[09:48:13.470120] [131] VFR_HUD
[09:48:13.684154] [139] RADIO
[09:48:13.686085] [139] RADIO_STATUS
[09:48:13.800111] [132] HEARTBEAT
[09:48:14.264169] [133] VFR_HUD
[09:48:14.603194] [140] RADIO
[09:48:14.606201] [140] RADIO_STATUS
[09:48:14.733211] [134] HEARTBEAT
[09:48:14.741191] [135] ATTITUDE_TARGET
[09:48:15.079254] [136] VFR_HUD
[09:48:15.752284] [141] RADIO
[09:48:15.755227] [141] RADIO_STATUS
[09:48:15.873580] [138] VFR_HUD
[09:48:16.672364] [142] RADIO
[09:48:16.675351] [142] RADIO_STATUS
[09:48:16.930408] [141] BATTERY_STATUS
[09:48:16.931356] [142] EXTENDED_SYS_STATE
[09:48:16.963685] [143] ATTITUDE_TARGET
[09:48:16.969972] [144] VFR_HUD
[09:48:16.972359] [145] SYSTEM_TIME
[09:48:17.482389] [146] VFR_HUD
[09:48:17.707392] [147] HEARTBEAT
[09:48:17.821381] [143] RADIO
[09:48:17.824327] [143] RADIO_STATUS
[09:48:18.292496] [148] VFR_HUD
[09:48:18.627445] [149] HEARTBEAT
[09:48:18.649448] [150] ATTITUDE_TARGET
[09:48:18.659746] [144] RADIO
[09:48:18.661400] [144] RADIO_STATUS
[09:48:19.660529] [145] RADIO
[09:48:19.663632] [145] RADIO_STATUS
[09:48:19.694622] [152] HEARTBEAT
[09:48:19.901535] [153] VFR_HUD
[09:48:20.708688] [154] HEARTBEAT
[09:48:20.715654] [155] SYS_STATUS
[09:48:20.810756] [146] RADIO
[09:48:20.813688] [146] RADIO_STATUS
[09:48:20.850743] [156] BATTERY_STATUS
[09:48:20.877672] [157] ATTITUDE_TARGET
[09:48:20.882688] [158] VFR_HUD
[09:48:21.515708] [159] VFR_HUD
[09:48:21.627936] [160] HEARTBEAT
[09:48:21.652700] [147] RADIO
[09:48:21.655688] [147] RADIO_STATUS
[09:48:22.310773] [161] VFR_HUD
[09:48:22.654887] [148] RADIO
[09:48:22.657800] [148] RADIO_STATUS
[09:48:22.696848] [162] HEARTBEAT
[09:48:22.704910] [163] ATTITUDE_TARGET
[09:48:23.124830] [164] VFR_HUD
[09:48:23.798869] [149] RADIO
[09:48:23.804653] [149] RADIO_STATUS
[09:48:23.919895] [166] VFR_HUD
[09:48:24.719053] [150] RADIO
[09:48:24.722015] [150] RADIO_STATUS
[09:48:24.778014] [167] HEARTBEAT
[09:48:24.785029] [168] SYS_STATUS
[09:48:24.792989] [169] BATTERY_STATUS
[09:48:24.805959] [170] ATTITUDE_TARGET
[09:48:24.809997] [171] VFR_HUD
[09:48:25.529773] [172] VFR_HUD
[09:48:25.650151] [173] HEARTBEAT
[09:48:25.758096] [151] RADIO
[09:48:25.761075] [151] RADIO_STATUS
[09:48:26.339176] [174] VFR_HUD
[09:48:26.688250] [175] HEARTBEAT
[09:48:26.696223] [176] ATTITUDE_TARGET
[09:48:26.788223] [152] RADIO
[09:48:26.791211] [152] RADIO_STATUS
[09:48:27.707262] [153] RADIO
[09:48:27.710222] [153] RADIO_STATUS
[09:48:27.741351] [178] HEARTBEAT
[09:48:27.828263] [179] VFR_HUD
[09:48:28.645470] [180] HEARTBEAT
[09:48:28.652456] [181] SYS_STATUS
[09:48:28.770358] [182] BATTERY_STATUS
[09:48:28.778408] [183] ATTITUDE_TARGET
[09:48:28.808386] [184] VFR_HUD
[09:48:28.831348] [154] RADIO
[09:48:28.834366] [154] RADIO_STATUS
[09:48:29.662499] [186] HEARTBEAT
[09:48:29.776464] [155] RADIO
[09:48:29.779373] [155] RADIO_STATUS
[09:48:30.252515] [187] VFR_HUD
[09:48:30.721605] [188] HEARTBEAT
[09:48:30.729971] [189] ATTITUDE_TARGET
[09:48:30.815546] [156] RADIO
[09:48:30.818569] [156] RADIO_STATUS
[09:48:31.046605] [190] VFR_HUD
[09:48:31.845658] [157] RADIO
[09:48:31.848635] [157] RADIO_STATUS
[09:48:31.884681] [192] VFR_HUD
[09:48:32.663743] [193] HEARTBEAT
[09:48:32.670798] [194] SYS_STATUS
[09:48:32.765776] [158] RADIO
[09:48:32.768813] [158] RADIO_STATUS
[09:48:32.835854] [195] BATTERY_STATUS
[09:48:32.842842] [196] ATTITUDE_TARGET
[09:48:32.848243] [197] VFR_HUD
[09:48:33.703836] [198] VFR_HUD
[09:48:33.706826] [199] HEARTBEAT
[09:48:33.916891] [159] RADIO
[09:48:33.919846] [159] RADIO_STATUS
[09:48:34.267904] [200] VFR_HUD
[09:48:34.737057] [201] HEARTBEAT
[09:48:34.744966] [202] ATTITUDE_TARGET
[09:48:34.754975] [160] RADIO
[09:48:34.757889] [160] RADIO_STATUS
[09:48:35.077025] [203] VFR_HUD
[09:48:35.643062] [204] HEARTBEAT
[09:48:35.756043] [161] RADIO
[09:48:35.758996] [161] RADIO_STATUS
[09:48:35.877000] [205] VFR_HUD
[09:48:36.699072] [206] HEARTBEAT
[09:48:36.738094] [207] SYS_STATUS
[09:48:36.745098] [208] BATTERY_STATUS
[09:48:36.747057] [209] EXTENDED_SYS_STATE
[09:48:36.767101] [210] ATTITUDE_TARGET
[09:48:36.772067] [211] VFR_HUD
[09:48:36.775098] [212] SYSTEM_TIME
[09:48:36.834100] [162] RADIO
[09:48:36.837081] [162] RADIO_STATUS
[09:48:37.711213] [214] HEARTBEAT
[09:48:37.743113] [163] RADIO
[09:48:37.746118] [163] RADIO_STATUS
[09:48:38.296193] [215] VFR_HUD
[09:48:38.745229] [164] RADIO
[09:48:38.748262] [164] RADIO_STATUS
[09:48:38.874265] [216] HEARTBEAT
[09:48:38.882265] [217] ATTITUDE_TARGET
[09:48:39.095226] [218] VFR_HUD
[09:48:39.670378] [219] HEARTBEAT
[09:48:39.894343] [165] RADIO
[09:48:39.897336] [165] RADIO_STATUS
[09:48:39.933318] [220] VFR_HUD
[09:48:40.712486] [221] HEARTBEAT
[09:48:40.719443] [222] SYS_STATUS
[09:48:40.814519] [166] RADIO
[09:48:40.816430] [166] RADIO_STATUS
[09:48:40.854491] [223] BATTERY_STATUS
[09:48:40.881464] [224] ATTITUDE_TARGET
[09:48:40.886479] [225] VFR_HUD
[09:48:41.519654] [226] VFR_HUD
[09:48:41.631533] [227] HEARTBEAT
[09:48:41.858596] [167] RADIO
[09:48:41.861598] [167] RADIO_STATUS
[09:48:42.314623] [228] VFR_HUD
[09:48:42.678649] [229] HEARTBEAT
[09:48:42.686733] [230] ATTITUDE_TARGET
[09:48:42.773657] [168] RADIO
[09:48:42.776686] [168] RADIO_STATUS
[09:48:43.129722] [231] VFR_HUD
[09:48:43.689705] [232] HEARTBEAT
[09:48:43.802714] [169] RADIO
[09:48:43.805738] [169] RADIO_STATUS
[09:48:43.923881] [233] VFR_HUD
[09:48:44.740818] [234] HEARTBEAT
[09:48:44.747804] [235] SYS_STATUS
[09:48:44.865811] [236] BATTERY_STATUS
[09:48:44.873796] [237] ATTITUDE_TARGET
[09:48:44.903868] [238] VFR_HUD
[09:48:44.931871] [170] RADIO
[09:48:44.934928] [170] RADIO_STATUS
[09:48:45.653988] [240] HEARTBEAT
[09:48:45.871924] [171] RADIO
[09:48:45.874879] [171] RADIO_STATUS
[09:48:46.343035] [241] VFR_HUD
[09:48:46.792014] [172] RADIO
[09:48:46.795019] [172] RADIO_STATUS
[09:48:46.921053] [242] HEARTBEAT
[09:48:46.929025] [243] ATTITUDE_TARGET
[09:48:47.142044] [244] VFR_HUD
[09:48:47.723115] [245] HEARTBEAT
[09:48:47.941123] [173] RADIO
[09:48:47.944109] [173] RADIO_STATUS
[09:48:48.654277] [247] HEARTBEAT
[09:48:48.661177] [248] SYS_STATUS
[09:48:48.700244] [249] BATTERY_STATUS
[09:48:48.708202] [250] ATTITUDE_TARGET
[09:48:48.713223] [251] VFR_HUD
[09:48:48.861186] [174] RADIO
[09:48:48.863148] [174] RADIO_STATUS
[09:48:49.677257] [252] VFR_HUD
[09:48:49.680252] [253] HEARTBEAT
[09:48:49.900340] [175] RADIO
[09:48:49.903218] [175] RADIO_STATUS
[09:48:50.256275] [254] VFR_HUD
[09:48:50.725387] [255] HEARTBEAT
[09:48:50.733359] [0] ATTITUDE_TARGET
[09:48:50.820364] [176] RADIO
[09:48:50.823303] [176] RADIO_STATUS
[09:48:51.050385] [1] VFR_HUD
[09:48:51.625498] [2] HEARTBEAT
[09:48:51.849396] [177] RADIO
[09:48:51.852403] [177] RADIO_STATUS
[09:48:51.888445] [3] VFR_HUD
[09:48:52.667523] [4] HEARTBEAT
[09:48:52.674616] [5] SYS_STATUS
[09:48:52.794535] [6] BATTERY_STATUS
[09:48:52.906560] [7] ATTITUDE_TARGET
[09:48:52.911495] [8] VFR_HUD
[09:48:52.916531] [178] RADIO
[09:48:52.919554] [178] RADIO_STATUS
[09:48:53.469632] [9] VFR_HUD
[09:48:53.699655] [10] HEARTBEAT
[09:48:53.808625] [179] RADIO
[09:48:53.811526] [179] RADIO_STATUS
[09:48:54.269656] [11] VFR_HUD
[09:48:54.838622] [180] RADIO
[09:48:54.841571] [180] RADIO_STATUS
[09:48:54.885666] [12] HEARTBEAT
[09:48:54.893642] [13] ATTITUDE_TARGET
[09:48:55.078724] [14] VFR_HUD
[09:48:55.644693] [15] HEARTBEAT
[09:48:55.987743] [181] RADIO
[09:48:55.990773] [181] RADIO_STATUS
[09:48:56.695852] [17] HEARTBEAT
[09:48:56.702859] [18] SYS_STATUS
[09:48:56.824950] [19] BATTERY_STATUS
[09:48:56.825837] [20] EXTENDED_SYS_STATE
[09:48:56.833890] [21] ATTITUDE_TARGET
[09:48:56.839013] [22] VFR_HUD
[09:48:56.842833] [23] SYSTEM_TIME
[09:48:56.869855] [182] RADIO
[09:48:56.872779] [182] RADIO_STATUS
[09:48:57.488380] [24] VFR_HUD
[09:48:57.713937] [25] HEARTBEAT
[09:48:57.832888] [183] RADIO
[09:48:57.835926] [183] RADIO_STATUS
[09:48:58.302940] [26] VFR_HUD
[09:48:58.647004] [27] HEARTBEAT
[09:48:58.654964] [28] ATTITUDE_TARGET
[09:48:58.872009] [184] RADIO
[09:48:58.874968] [184] RADIO_STATUS
[09:48:59.098133] [29] VFR_HUD
[09:48:59.673068] [30] HEARTBEAT
[09:48:59.897055] [185] RADIO
[09:48:59.899040] [185] RADIO_STATUS
[09:48:59.935080] [31] VFR_HUD
[09:49:00.714193] [32] HEARTBEAT
[09:49:00.721222] [33] SYS_STATUS
[09:49:00.836341] [34] BATTERY_STATUS
[09:49:00.953190] [35] ATTITUDE_TARGET
[09:49:00.958172] [36] VFR_HUD
[09:49:00.992203] [186] RADIO
[09:49:00.995152] [186] RADIO_STATUS
[09:49:01.521249] [37] VFR_HUD
[09:49:01.860362] [187] RADIO
[09:49:01.864369] [187] RADIO_STATUS
[09:49:02.316368] [39] VFR_HUD
[09:49:02.675463] [40] HEARTBEAT
[09:49:02.683408] [41] ATTITUDE_TARGET
[09:49:02.885448] [188] RADIO
[09:49:02.888372] [188] RADIO_STATUS
[09:49:03.126451] [42] VFR_HUD
[09:49:03.691504] [43] HEARTBEAT
[09:49:04.034443] [189] RADIO
[09:49:04.037489] [189] RADIO_STATUS
[09:49:04.742669] [45] HEARTBEAT
[09:49:04.749546] [46] SYS_STATUS
[09:49:04.868553] [47] BATTERY_STATUS
[09:49:04.875979] [48] ATTITUDE_TARGET
[09:49:04.906532] [49] VFR_HUD
[09:49:04.933541] [190] RADIO
[09:49:04.936557] [190] RADIO_STATUS
[09:49:05.534679] [50] VFR_HUD
[09:49:05.655652] [51] HEARTBEAT
[09:49:05.999727] [191] RADIO
[09:49:06.002651] [191] RADIO_STATUS
[09:49:06.344859] [52] VFR_HUD
[09:49:06.693788] [53] HEARTBEAT
[09:49:06.701775] [54] ATTITUDE_TARGET
[09:49:06.941736] [192] RADIO
[09:49:06.944729] [192] RADIO_STATUS
[09:49:07.039847] [55] VFR_HUD
[09:49:07.719945] [56] HEARTBEAT
[09:49:07.833837] [57] VFR_HUD
[09:49:07.942998] [193] RADIO
[09:49:07.945993] [193] RADIO_STATUS
[09:49:08.656059] [58] HEARTBEAT
[09:49:08.662954] [59] SYS_STATUS
[09:49:08.701986] [60] BATTERY_STATUS
[09:49:08.709955] [61] ATTITUDE_TARGET
[09:49:08.714924] [62] VFR_HUD
[09:49:08.987954] [194] RADIO
[09:49:08.990987] [194] RADIO_STATUS
[09:49:09.798072] [63] VFR_HUD
[09:49:09.801245] [64] HEARTBEAT
[09:49:09.902057] [195] RADIO
[09:49:09.909745] [195] RADIO_STATUS
[09:49:10.258267] [65] VFR_HUD
[09:49:10.727345] [66] HEARTBEAT
[09:49:10.735342] [67] ATTITUDE_TARGET
[09:49:10.932348] [196] RADIO
[09:49:10.934355] [196] RADIO_STATUS
[09:49:11.052177] [68] VFR_HUD
[09:49:11.633225] [69] HEARTBEAT
[09:49:11.862382] [70] VFR_HUD
[09:49:12.081214] [197] RADIO
[09:49:12.084204] [197] RADIO_STATUS
[09:49:12.669273] [71] HEARTBEAT
[09:49:12.676312] [72] SYS_STATUS
[09:49:12.796364] [73] BATTERY_STATUS
[09:49:12.908348] [74] ATTITUDE_TARGET
[09:49:12.913414] [75] VFR_HUD
[09:49:12.918357] [198] RADIO
[09:49:12.921345] [198] RADIO_STATUS
[09:49:13.471376] [76] VFR_HUD
[09:49:13.702387] [77] HEARTBEAT
[09:49:14.040413] [199] RADIO
[09:49:14.043450] [199] RADIO_STATUS
[09:49:14.616545] [79] HEARTBEAT
[09:49:14.739589] [80] ATTITUDE_TARGET
[09:49:14.960555] [200] RADIO
[09:49:14.963445] [200] RADIO_STATUS
[09:49:15.080550] [81] VFR_HUD
[09:49:15.646624] [82] HEARTBEAT
[09:49:15.880599] [83] VFR_HUD
[09:49:15.989554] [201] RADIO
[09:49:15.992575] [201] RADIO_STATUS
[09:49:16.702673] [84] HEARTBEAT
[09:49:16.709640] [85] SYS_STATUS
[09:49:16.744870] [86] BATTERY_STATUS
[09:49:16.745569] [87] EXTENDED_SYS_STATE
[09:49:16.753627] [88] ATTITUDE_TARGET
[09:49:16.758679] [89] VFR_HUD
[09:49:16.761852] [90] SYSTEM_TIME
[09:49:17.029725] [202] RADIO
[09:49:17.032617] [202] RADIO_STATUS
[09:49:17.489770] [91] VFR_HUD
[09:49:17.948731] [203] RADIO
[09:49:17.951691] [203] RADIO_STATUS
[09:49:18.304956] [93] VFR_HUD
[09:49:18.648832] [94] HEARTBEAT
[09:49:18.656767] [95] ATTITUDE_TARGET
[09:49:18.978796] [204] RADIO
[09:49:18.980763] [204] RADIO_STATUS
[09:49:19.098817] [96] VFR_HUD
[09:49:19.674893] [97] HEARTBEAT
[09:49:19.913890] [98] VFR_HUD
[09:49:20.127904] [205] RADIO
[09:49:20.130967] [205] RADIO_STATUS
[09:49:20.716019] [99] HEARTBEAT
[09:49:20.723025] [100] SYS_STATUS
[09:49:20.842984] [101] BATTERY_STATUS
[09:49:20.955069] [102] ATTITUDE_TARGET
[09:49:20.960060] [103] VFR_HUD
[09:49:20.964987] [206] RADIO
[09:49:20.967960] [206] RADIO_STATUS
[09:49:21.518092] [104] VFR_HUD
[09:49:21.623085] [105] HEARTBEAT
[09:49:21.967097] [207] RADIO
[09:49:21.970055] [207] RADIO_STATUS
[09:49:22.676249] [107] HEARTBEAT
[09:49:22.684266] [108] ATTITUDE_TARGET
[09:49:23.006185] [208] RADIO
[09:49:23.009183] [208] RADIO_STATUS
[09:49:23.127214] [109] VFR_HUD
[09:49:23.692299] [110] HEARTBEAT
[09:49:23.927293] [111] VFR_HUD
[09:49:24.036282] [209] RADIO
[09:49:24.039416] [209] RADIO_STATUS
[09:49:24.744383] [112] HEARTBEAT
[09:49:24.750436] [113] SYS_STATUS
[09:49:24.869412] [114] BATTERY_STATUS
[09:49:24.877507] [115] ATTITUDE_TARGET
[09:49:24.907365] [116] VFR_HUD
[09:49:25.075416] [210] RADIO
[09:49:25.078586] [210] RADIO_STATUS
[09:49:25.431408] [117] VFR_HUD
[09:49:25.651432] [118] HEARTBEAT
[09:49:26.000476] [211] RADIO
[09:49:26.003499] [211] RADIO_STATUS
[09:49:26.346549] [119] VFR_HUD
[09:49:26.695606] [120] HEARTBEAT
[09:49:26.702588] [121] ATTITUDE_TARGET
[09:49:27.024572] [212] RADIO
[09:49:27.027554] [212] RADIO_STATUS
[09:49:27.063816] [122] VFR_HUD
[09:49:27.720639] [123] HEARTBEAT
[09:49:27.835671] [124] VFR_HUD
[09:49:28.174681] [213] RADIO
[09:49:28.177771] [213] RADIO_STATUS
[09:49:28.657785] [125] HEARTBEAT
[09:49:28.664782] [126] SYS_STATUS
[09:49:28.703752] [127] BATTERY_STATUS
[09:49:28.711727] [128] ATTITUDE_TARGET
[09:49:28.716745] [129] VFR_HUD
[09:49:28.989789] [214] RADIO
[09:49:28.992746] [214] RADIO_STATUS
[09:49:29.679898] [130] VFR_HUD
[09:49:29.682895] [131] HEARTBEAT
[09:49:30.013994] [215] RADIO
[09:49:30.016888] [215] RADIO_STATUS
[09:49:30.253912] [132] VFR_HUD
[09:49:30.722979] [133] HEARTBEAT
[09:49:30.730961] [134] ATTITUDE_TARGET
[09:49:31.054024] [135] VFR_HUD
[09:49:31.086034] [216] RADIO
[09:49:31.088950] [216] RADIO_STATUS
[09:49:31.635067] [136] HEARTBEAT
[09:49:31.864066] [137] VFR_HUD
[09:49:32.083067] [217] RADIO
[09:49:32.086055] [217] RADIO_STATUS
[09:49:32.793134] [140] BATTERY_STATUS
[09:49:32.910100] [141] ATTITUDE_TARGET
[09:49:32.915241] [142] VFR_HUD
[09:49:33.003099] [218] RADIO
[09:49:33.006214] [218] RADIO_STATUS
[09:49:33.473294] [143] VFR_HUD
[09:49:33.705081] [144] HEARTBEAT
[09:49:34.047177] [219] RADIO
[09:49:34.050175] [219] RADIO_STATUS
[09:49:34.273374] [145] VFR_HUD
[09:49:34.742282] [146] HEARTBEAT
[09:49:34.750314] [147] ATTITUDE_TARGET
[09:49:35.072283] [220] RADIO
[09:49:35.075237] [220] RADIO_STATUS
[09:49:35.110349] [148] VFR_HUD
[09:49:35.648364] [149] HEARTBEAT
[09:49:35.882373] [150] VFR_HUD
[09:49:36.221487] [221] RADIO
[09:49:36.224374] [221] RADIO_STATUS
[09:49:36.809588] [151] HEARTBEAT
[09:49:36.816542] [152] SYS_STATUS
[09:49:36.934484] [153] BATTERY_STATUS
[09:49:36.936471] [154] EXTENDED_SYS_STATE
[09:49:37.055599] [155] ATTITUDE_TARGET
[09:49:37.061083] [156] VFR_HUD
[09:49:37.063548] [157] SYSTEM_TIME
[09:49:37.098502] [222] RADIO
[09:49:37.101480] [222] RADIO_STATUS
[09:49:37.491564] [158] VFR_HUD
[09:49:37.717657] [159] HEARTBEAT
[09:49:38.060667] [223] RADIO
[09:49:38.063618] [223] RADIO_STATUS
[09:49:38.306707] [160] VFR_HUD
[09:49:38.650759] [161] HEARTBEAT
[09:49:38.659008] [162] ATTITUDE_TARGET
[09:49:39.100792] [163] VFR_HUD
[09:49:39.128876] [224] RADIO
[09:49:39.131681] [224] RADIO_STATUS
[09:49:39.681830] [164] HEARTBEAT
[09:49:39.910871] [165] VFR_HUD
[09:49:40.129867] [225] RADIO
[09:49:40.132844] [225] RADIO_STATUS
[09:49:40.844968] [168] BATTERY_STATUS
[09:49:40.956939] [169] ATTITUDE_TARGET
[09:49:40.961976] [170] VFR_HUD
[09:49:41.050040] [226] RADIO
[09:49:41.051966] [226] RADIO_STATUS
[09:49:41.520159] [171] VFR_HUD
[09:49:41.625021] [172] HEARTBEAT
[09:49:42.088967] [227] RADIO
[09:49:42.091994] [227] RADIO_STATUS
[09:49:42.322041] [173] VFR_HUD
[09:49:42.679086] [174] HEARTBEAT
[09:49:42.687047] [175] ATTITUDE_TARGET
[09:49:43.119188] [228] RADIO
[09:49:43.122082] [228] RADIO_STATUS
[09:49:43.239230] [176] VFR_HUD
[09:49:43.695154] [177] HEARTBEAT
[09:49:43.929202] [178] VFR_HUD
[09:49:44.268191] [229] RADIO
[09:49:44.271246] [229] RADIO_STATUS
[09:49:44.749806] [179] HEARTBEAT
[09:49:44.753284] [180] SYS_STATUS
[09:49:44.871328] [181] BATTERY_STATUS
[09:49:44.879295] [182] ATTITUDE_TARGET
[09:49:44.909245] [183] VFR_HUD
[09:49:45.078276] [230] RADIO
[09:49:45.080337] [230] RADIO_STATUS
[09:49:45.433376] [184] VFR_HUD
[09:49:45.654469] [185] HEARTBEAT
[09:49:46.107425] [231] RADIO
[09:49:46.110425] [231] RADIO_STATUS
[09:49:46.228339] [186] VFR_HUD
[09:49:46.697427] [187] HEARTBEAT
[09:49:46.705408] [188] ATTITUDE_TARGET
[09:49:47.043428] [189] VFR_HUD
[09:49:47.161756] [232] RADIO
[09:49:47.161901] [232] RADIO_STATUS
[09:49:47.722560] [190] HEARTBEAT
[09:49:47.837757] [191] VFR_HUD
[09:49:48.176566] [233] RADIO
[09:49:48.179517] [233] RADIO_STATUS
[09:49:48.654627] [192] HEARTBEAT
[09:49:48.661595] [193] SYS_STATUS
[09:49:49.095657] [234] RADIO
[09:49:49.098631] [234] RADIO_STATUS
[09:49:49.446711] [197] VFR_HUD
[09:49:49.671755] [198] HEARTBEAT
[09:49:50.140808] [235] RADIO
[09:49:50.143773] [235] RADIO_STATUS
[09:49:50.256935] [199] VFR_HUD
[09:49:50.724980] [200] HEARTBEAT
[09:49:50.732845] [201] ATTITUDE_TARGET
[09:49:51.164903] [236] RADIO
[09:49:51.168002] [236] RADIO_STATUS
[09:49:51.636196] [203] HEARTBEAT
[09:49:51.866051] [204] VFR_HUD
[09:49:52.314981] [237] RADIO
[09:49:52.317012] [237] RADIO_STATUS
[09:49:52.673147] [205] HEARTBEAT
[09:49:52.679027] [206] SYS_STATUS
[09:49:52.794138] [207] BATTERY_STATUS
[09:49:52.912210] [208] ATTITUDE_TARGET
[09:49:52.917147] [209] VFR_HUD
[09:49:53.157114] [238] RADIO
[09:49:53.160060] [238] RADIO_STATUS
[09:49:53.480164] [210] VFR_HUD
[09:49:53.700195] [211] HEARTBEAT
[09:49:54.154208] [239] RADIO
[09:49:54.157120] [239] RADIO_STATUS
[09:49:54.274311] [212] VFR_HUD
[09:49:54.625241] [213] HEARTBEAT
[09:49:54.742243] [214] ATTITUDE_TARGET
[09:49:55.089279] [215] VFR_HUD
[09:49:55.210217] [240] RADIO
[09:49:55.213190] [240] RADIO_STATUS
[09:49:55.883418] [217] VFR_HUD
[09:49:56.223391] [241] RADIO
[09:49:56.225375] [241] RADIO_STATUS
[09:49:56.706592] [218] HEARTBEAT
[09:49:56.712405] [219] SYS_STATUS
[09:49:56.747482] [220] BATTERY_STATUS
[09:49:56.748398] [221] EXTENDED_SYS_STATE
[09:49:56.756493] [222] ATTITUDE_TARGET
[09:49:56.761943] [223] VFR_HUD
[09:49:56.765422] [224] SYSTEM_TIME
[09:49:57.142461] [242] RADIO
[09:49:57.145438] [242] RADIO_STATUS
[09:49:57.494141] [225] VFR_HUD
[09:49:57.718646] [226] HEARTBEAT
[09:49:58.187586] [243] RADIO
[09:49:58.190584] [243] RADIO_STATUS
[09:49:58.302596] [227] VFR_HUD
[09:49:58.651644] [228] HEARTBEAT
[09:49:58.659741] [229] ATTITUDE_TARGET
[09:49:59.217762] [244] RADIO
[09:49:59.217956] [244] RADIO_STATUS
[09:49:59.682704] [231] HEARTBEAT
[09:49:59.912657] [232] VFR_HUD
[09:50:00.361733] [245] RADIO
[09:50:00.364648] [245] RADIO_STATUS
[09:50:00.719773] [233] HEARTBEAT
[09:50:00.726735] [234] SYS_STATUS
[09:50:00.845728] [235] BATTERY_STATUS
[09:50:00.958798] [236] ATTITUDE_TARGET
[09:50:00.963767] [237] VFR_HUD
[09:50:01.176878] [246] RADIO
[09:50:01.178837] [246] RADIO_STATUS
[09:50:01.521798] [238] VFR_HUD
[09:50:01.626862] [239] HEARTBEAT
[09:50:02.200902] [247] RADIO
[09:50:02.203895] [247] RADIO_STATUS
[09:50:02.238997] [240] VFR_HUD
[09:50:02.685063] [241] HEARTBEAT
[09:50:02.693181] [242] ATTITUDE_TARGET
[09:50:03.130967] [243] VFR_HUD
[09:50:03.244970] [248] RADIO
[09:50:03.247910] [248] RADIO_STATUS
[09:50:03.826070] [245] VFR_HUD
[09:50:04.160097] [249] RADIO
[09:50:04.161979] [249] RADIO_STATUS
[09:50:04.753258] [246] HEARTBEAT
[09:50:04.759199] [247] SYS_STATUS
[09:50:04.799158] [248] BATTERY_STATUS
[09:50:04.809853] [249] ATTITUDE_TARGET
[09:50:04.812055] [250] VFR_HUD
[09:50:05.191297] [250] RADIO
[09:50:05.194281] [250] RADIO_STATUS
[09:50:05.431175] [251] VFR_HUD
[09:50:05.657273] [252] HEARTBEAT
[09:50:06.231522] [253] VFR_HUD
[09:50:06.258277] [251] RADIO
[09:50:06.261263] [251] RADIO_STATUS
[09:50:06.700427] [254] HEARTBEAT
[09:50:06.708386] [255] ATTITUDE_TARGET
[09:50:07.041397] [0] VFR_HUD
[09:50:07.260388] [252] RADIO
[09:50:07.263349] [252] RADIO_STATUS
[09:50:07.726435] [1] HEARTBEAT
[09:50:07.840483] [2] VFR_HUD
[09:50:08.179558] [253] RADIO
[09:50:08.182466] [253] RADIO_STATUS
[09:50:08.284191] JAMMING_START
[09:50:08.657600] [3] HEARTBEAT
[09:50:08.664560] [4] SYS_STATUS
[09:50:08.783503] [5] BATTERY_STATUS
[09:50:08.790585] [6] ATTITUDE_TARGET
[09:50:08.821455] [7] VFR_HUD
[09:50:09.219543] [254] RADIO
[09:50:09.222473] [254] RADIO_STATUS
[09:50:09.675627] [9] HEARTBEAT
[09:50:10.248553] [255] RADIO
[09:50:10.251524] [255] RADIO_STATUS
[09:50:10.369590] [10] VFR_HUD
[09:50:10.728635] [11] HEARTBEAT
[09:50:10.736671] [12] ATTITUDE_TARGET
[09:50:11.061780] [13] VFR_HUD
[09:50:11.288690] [0] RADIO
[09:50:11.291626] [0] RADIO_STATUS
[09:50:11.634704] [14] HEARTBEAT
[09:50:11.873694] [15] VFR_HUD
[09:50:12.207729] [1] RADIO
[09:50:12.210723] [1] RADIO_STATUS
[09:50:12.675835] [16] HEARTBEAT
[09:50:12.682772] [17] SYS_STATUS
[09:50:12.797798] [18] BATTERY_STATUS
[09:50:13.144822] [19] ATTITUDE_TARGET
[09:50:13.149806] [20] VFR_HUD
[09:50:13.238287] [2] RADIO
[09:50:13.240866] [2] RADIO_STATUS
[09:50:13.483874] [21] VFR_HUD
[09:50:13.703914] [22] HEARTBEAT
[09:50:14.277930] [23] VFR_HUD
[09:50:14.304911] [3] RADIO
[09:50:14.307903] [3] RADIO_STATUS
[09:50:14.641958] [24] HEARTBEAT
[09:50:14.649948] [25] ATTITUDE_TARGET
[09:50:15.092954] [26] VFR_HUD
[09:50:15.306996] [4] RADIO
[09:50:15.309992] [4] RADIO_STATUS
[09:50:15.653129] [27] HEARTBEAT
[09:50:15.887092] [28] VFR_HUD
[09:50:16.226128] [5] RADIO
[09:50:16.229031] [5] RADIO_STATUS
[09:50:16.704206] [29] HEARTBEAT
[09:50:16.711142] [30] SYS_STATUS
[09:50:16.832210] [31] BATTERY_STATUS
[09:50:16.835001] [32] EXTENDED_SYS_STATE
[09:50:16.842208] [33] ATTITUDE_TARGET
[09:50:16.847140] [34] VFR_HUD
[09:50:16.850123] [35] SYSTEM_TIME
[09:50:17.271256] [6] RADIO
[09:50:17.274342] [6] RADIO_STATUS
[09:50:17.617305] [37] HEARTBEAT
[09:50:18.295312] [7] RADIO
[09:50:18.298328] [7] RADIO_STATUS
[09:50:18.415361] [38] VFR_HUD
[09:50:18.774422] [39] HEARTBEAT
[09:50:18.782416] [40] ATTITUDE_TARGET
[09:50:19.105375] [41] VFR_HUD
[09:50:19.334444] [8] RADIO
[09:50:19.337391] [8] RADIO_STATUS
[09:50:19.686518] [42] HEARTBEAT
[09:50:19.915494] [43] VFR_HUD
[09:50:20.259718] [9] RADIO
[09:50:20.262583] [9] RADIO_STATUS
[09:50:20.722775] [44] HEARTBEAT
[09:50:20.729555] [45] SYS_STATUS
[09:50:20.843586] [46] BATTERY_STATUS
[09:50:21.190836] [47] ATTITUDE_TARGET
[09:50:21.195617] [48] VFR_HUD
[09:50:21.283606] [10] RADIO
[09:50:21.286577] [10] RADIO_STATUS
[09:50:21.524665] [49] VFR_HUD
[09:50:21.630628] [50] HEARTBEAT
[09:50:22.325210] [51] VFR_HUD
[09:50:22.356656] [11] RADIO
[09:50:22.359761] [11] RADIO_STATUS
[09:50:22.688888] [52] HEARTBEAT
[09:50:22.696866] [53] ATTITUDE_TARGET
[09:50:23.139806] [54] VFR_HUD
[09:50:23.353907] [12] RADIO
[09:50:23.356796] [12] RADIO_STATUS
[09:50:23.699836] [55] HEARTBEAT
[09:50:23.828845] [56] VFR_HUD
[09:50:24.272869] [13] RADIO
[09:50:24.275950] [13] RADIO_STATUS
[09:50:24.620018] [57] HEARTBEAT
[09:50:24.640478] [58] SYS_STATUS
[09:50:24.757901] [59] BATTERY_STATUS
[09:50:24.870940] [60] ATTITUDE_TARGET
[09:50:24.874935] [61] VFR_HUD
[09:50:25.318134] [14] RADIO
[09:50:25.321086] [14] RADIO_STATUS
[09:50:25.433951] [62] VFR_HUD
[09:50:25.664102] [63] HEARTBEAT
[09:50:26.233082] [64] VFR_HUD
[09:50:26.266081] [15] RADIO
[09:50:26.269077] [15] RADIO_STATUS
[09:50:26.827129] [65] HEARTBEAT
[09:50:26.835167] [66] ATTITUDE_TARGET
[09:50:27.043169] [67] VFR_HUD
[09:50:27.268190] [16] RADIO
[09:50:27.270152] [16] RADIO_STATUS
[09:50:27.734223] [68] HEARTBEAT
[09:50:28.307335] [17] RADIO
[09:50:28.310323] [17] RADIO_STATUS
[09:50:28.660420] [70] HEARTBEAT
[09:50:28.667297] [71] SYS_STATUS
[09:50:28.785308] [72] BATTERY_STATUS
[09:50:28.793287] [73] ATTITUDE_TARGET
[09:50:28.823385] [74] VFR_HUD
[09:50:29.331413] [18] RADIO
[09:50:29.334504] [18] RADIO_STATUS
[09:50:29.452561] [75] VFR_HUD
[09:50:29.677397] [76] HEARTBEAT
[09:50:30.267429] [77] VFR_HUD
[09:50:30.387495] [19] RADIO
[09:50:30.390444] [19] RADIO_STATUS
[09:50:30.731644] [78] HEARTBEAT
[09:50:30.738690] [79] ATTITUDE_TARGET
[09:50:31.061573] [80] VFR_HUD
[09:50:31.400526] [20] RADIO
[09:50:31.403542] [20] RADIO_STATUS
[09:50:31.636658] [81] HEARTBEAT
[09:50:31.876586] [82] VFR_HUD
[09:50:32.320670] [21] RADIO
[09:50:32.323640] [21] RADIO_STATUS
[09:50:32.678819] [83] HEARTBEAT
[09:50:32.686040] [84] SYS_STATUS
[09:50:32.799715] [85] BATTERY_STATUS
[09:50:32.917727] [86] ATTITUDE_TARGET
[09:50:32.922698] [87] VFR_HUD
[09:50:33.359744] [22] RADIO
[09:50:33.362735] [22] RADIO_STATUS
[09:50:33.485818] [88] VFR_HUD
[09:50:33.706132] [89] HEARTBEAT
[09:50:34.280855] [90] VFR_HUD
[09:50:34.307849] [23] RADIO
[09:50:34.310831] [23] RADIO_STATUS
[09:50:34.639957] [91] HEARTBEAT
[09:50:34.648019] [92] ATTITUDE_TARGET
[09:50:35.089986] [93] VFR_HUD
[09:50:35.430048] [24] RADIO
[09:50:35.432230] [24] RADIO_STATUS
[09:50:35.656065] [94] HEARTBEAT
[09:50:36.349073] [25] RADIO
[09:50:36.352177] [25] RADIO_STATUS
[09:50:36.707186] [96] HEARTBEAT
[09:50:36.714163] [97] SYS_STATUS
[09:50:36.836128] [98] BATTERY_STATUS
[09:50:36.837150] [99] EXTENDED_SYS_STATE
[09:50:36.845219] [100] ATTITUDE_TARGET
[09:50:36.850206] [101] VFR_HUD
[09:50:36.854223] [102] SYSTEM_TIME
[09:50:37.379188] [26] RADIO
[09:50:37.382142] [26] RADIO_STATUS
[09:50:37.499173] [103] VFR_HUD
[09:50:37.725261] [104] HEARTBEAT
[09:50:38.309261] [105] VFR_HUD
[09:50:38.418272] [27] RADIO
[09:50:38.421293] [27] RADIO_STATUS
[09:50:38.658454] [106] HEARTBEAT
[09:50:38.666343] [107] ATTITUDE_TARGET
[09:50:39.109399] [108] VFR_HUD
[09:50:39.448408] [28] RADIO
[09:50:39.451358] [28] RADIO_STATUS
[09:50:39.684437] [109] HEARTBEAT
[09:50:39.918450] [110] VFR_HUD
[09:50:40.367475] [29] RADIO
[09:50:40.370428] [29] RADIO_STATUS
[09:50:40.725513] [111] HEARTBEAT
[09:50:40.732523] [112] SYS_STATUS
[09:50:40.846554] [113] BATTERY_STATUS
[09:50:40.964536] [114] ATTITUDE_TARGET
[09:50:40.969583] [115] VFR_HUD
[09:50:41.406572] [30] RADIO
[09:50:41.409549] [30] RADIO_STATUS
[09:50:41.532500] [116] VFR_HUD
[09:50:42.327663] [118] VFR_HUD
[09:50:42.359791] [31] RADIO
[09:50:42.362629] [31] RADIO_STATUS
[09:50:42.691806] [119] HEARTBEAT
[09:50:42.699676] [120] ATTITUDE_TARGET
[09:50:43.142690] [121] VFR_HUD
[09:50:43.355724] [32] RADIO
[09:50:43.358728] [32] RADIO_STATUS
[09:50:43.702805] [122] HEARTBEAT
[09:50:43.826775] [123] VFR_HUD
[09:50:44.400795] [33] RADIO
[09:50:44.403798] [33] RADIO_STATUS
[09:50:44.621872] [124] HEARTBEAT
[09:50:44.641825] [125] SYS_STATUS
[09:50:44.760849] [126] BATTERY_STATUS
[09:50:44.872898] [127] ATTITUDE_TARGET
[09:50:44.877846] [128] VFR_HUD
[09:50:45.424998] [34] RADIO
[09:50:45.427874] [34] RADIO_STATUS
[09:50:45.545891] [129] VFR_HUD
[09:50:45.666888] [130] HEARTBEAT
[09:50:46.464342] [35] RADIO
[09:50:46.467085] [35] RADIO_STATUS
[09:50:46.704137] [132] HEARTBEAT
[09:50:46.712063] [133] ATTITUDE_TARGET
[09:50:47.045039] [134] VFR_HUD
[09:50:47.494180] [36] RADIO
[09:50:47.497255] [36] RADIO_STATUS
[09:50:47.735172] [135] HEARTBEAT
[09:50:47.844061] [136] VFR_HUD
[09:50:48.414315] [37] RADIO
[09:50:48.416195] [37] RADIO_STATUS
[09:50:48.662207] [137] HEARTBEAT
[09:50:48.668219] [138] SYS_STATUS
[09:50:48.787238] [139] BATTERY_STATUS
[09:50:48.795247] [140] ATTITUDE_TARGET
[09:50:48.825186] [141] VFR_HUD
[09:50:49.454288] [142] VFR_HUD
[09:50:49.486233] [38] RADIO
[09:50:49.489247] [38] RADIO_STATUS
[09:50:50.268319] [144] VFR_HUD
[09:50:50.389334] [39] RADIO
[09:50:50.392308] [39] RADIO_STATUS
[09:50:50.737424] [145] HEARTBEAT
[09:50:50.745333] [146] ATTITUDE_TARGET
[09:50:51.062445] [147] VFR_HUD
[09:50:51.402374] [40] RADIO
[09:50:51.405901] [40] RADIO_STATUS
[09:50:51.638590] [148] HEARTBEAT
[09:50:51.877586] [149] VFR_HUD
[09:50:52.446474] [41] RADIO
[09:50:52.449439] [41] RADIO_STATUS
[09:50:52.679467] [150] HEARTBEAT
[09:50:52.686478] [151] SYS_STATUS
[09:50:52.806558] [152] BATTERY_STATUS
[09:50:52.918508] [153] ATTITUDE_TARGET
[09:50:52.923497] [154] VFR_HUD
[09:50:53.471555] [42] RADIO
[09:50:53.474528] [42] RADIO_STATUS
[09:50:53.509559] [155] VFR_HUD
[09:50:53.707582] [156] HEARTBEAT
[09:50:54.515681] [43] RADIO
[09:50:54.518637] [43] RADIO_STATUS
[09:50:54.640728] [158] HEARTBEAT
[09:50:54.648745] [159] ATTITUDE_TARGET
[09:50:55.090737] [160] VFR_HUD
[09:50:55.539785] [44] RADIO
[09:50:55.542742] [44] RADIO_STATUS
[09:50:55.656844] [161] HEARTBEAT
[09:50:55.890798] [162] VFR_HUD
[09:50:56.459827] [45] RADIO
[09:50:56.462887] [45] RADIO_STATUS
[09:50:56.707853] [163] HEARTBEAT
[09:50:56.714847] [164] SYS_STATUS
[09:50:56.836216] [165] BATTERY_STATUS
[09:50:56.837899] [166] EXTENDED_SYS_STATE
[09:50:56.845945] [167] ATTITUDE_TARGET
[09:50:56.850892] [168] VFR_HUD
[09:50:56.853899] [169] SYSTEM_TIME
[09:50:57.499965] [170] VFR_HUD
[09:50:57.532978] [46] RADIO
[09:50:57.535211] [46] RADIO_STATUS
[09:50:58.309966] [172] VFR_HUD
[09:50:58.528979] [47] RADIO
[09:50:58.531987] [47] RADIO_STATUS
[09:50:58.659095] [173] HEARTBEAT
[09:50:58.667281] [174] ATTITUDE_TARGET
[09:50:59.109073] [175] VFR_HUD
[09:50:59.448126] [48] RADIO
[09:50:59.451041] [48] RADIO_STATUS
[09:50:59.685233] [176] HEARTBEAT
[09:50:59.924181] [177] VFR_HUD
[09:51:00.488166] [49] RADIO
[09:51:00.491157] [49] RADIO_STATUS
[09:51:00.726234] [178] HEARTBEAT
[09:51:00.733168] [179] SYS_STATUS
[09:51:00.848196] [180] BATTERY_STATUS
[09:51:00.965213] [181] ATTITUDE_TARGET
[09:51:00.970245] [182] VFR_HUD
[09:51:01.518290] [50] RADIO
[09:51:01.521247] [50] RADIO_STATUS
[09:51:01.556253] [183] VFR_HUD
[09:51:01.634253] [184] HEARTBEAT
[09:51:02.557334] [51] RADIO
[09:51:02.560400] [51] RADIO_STATUS
[09:51:02.692475] [186] HEARTBEAT
[09:51:02.700419] [187] ATTITUDE_TARGET
[09:51:03.143503] [188] VFR_HUD
[09:51:03.587451] [52] RADIO
[09:51:03.590485] [52] RADIO_STATUS
[09:51:03.621492] [189] HEARTBEAT
[09:51:03.827503] [190] VFR_HUD
[09:51:04.506542] [53] RADIO
[09:51:04.509445] [53] RADIO_STATUS
[09:51:04.756563] [193] BATTERY_STATUS
[09:51:04.873552] [194] ATTITUDE_TARGET
[09:51:04.878539] [195] VFR_HUD
[09:51:05.436728] [196] VFR_HUD
[09:51:05.546559] [54] RADIO
[09:51:05.549558] [54] RADIO_STATUS
[09:51:05.667577] [197] HEARTBEAT
[09:51:06.236611] [198] VFR_HUD
[09:51:06.575697] [55] RADIO
[09:51:06.578672] [55] RADIO_STATUS
[09:51:06.705725] [199] HEARTBEAT
[09:51:06.713720] [200] ATTITUDE_TARGET
[09:51:07.046704] [201] VFR_HUD
[09:51:07.495697] [56] RADIO
[09:51:07.498673] [56] RADIO_STATUS
[09:51:07.736756] [202] HEARTBEAT
[09:51:07.845733] [203] VFR_HUD
[09:51:08.534833] [57] RADIO
[09:51:08.537999] [57] RADIO_STATUS
[09:51:08.668875] [204] HEARTBEAT
[09:51:08.674862] [205] SYS_STATUS
[09:51:08.714951] [206] BATTERY_STATUS
[09:51:08.722951] [207] ATTITUDE_TARGET
[09:51:08.727962] [208] VFR_HUD
[09:51:09.564971] [58] RADIO
[09:51:09.566919] [58] RADIO_STATUS
[09:51:09.690970] [209] VFR_HUD
[09:51:09.694009] [210] HEARTBEAT
[09:51:10.270056] [211] VFR_HUD
[09:51:10.604167] [59] RADIO
[09:51:10.607053] [59] RADIO_STATUS
[09:51:10.739096] [212] HEARTBEAT
[09:51:10.747058] [213] ATTITUDE_TARGET
[09:51:11.064113] [214] VFR_HUD
[09:51:11.633242] [60] RADIO
[09:51:11.636146] [60] RADIO_STATUS
[09:51:11.667184] [215] HEARTBEAT
[09:51:11.874190] [216] VFR_HUD
[09:51:12.553241] [61] RADIO
[09:51:12.556200] [61] RADIO_STATUS
[09:51:12.807278] [219] BATTERY_STATUS
[09:51:12.920363] [220] ATTITUDE_TARGET
[09:51:12.924279] [221] VFR_HUD
[09:51:13.483320] [222] VFR_HUD
[09:51:13.593035] [62] RADIO
[09:51:13.595313] [62] RADIO_STATUS
[09:51:13.714333] [223] HEARTBEAT
[09:51:14.283490] [224] VFR_HUD
[09:51:14.517434] [63] RADIO
[09:51:14.520367] [63] RADIO_STATUS
[09:51:14.642595] [225] HEARTBEAT
[09:51:14.649462] [226] ATTITUDE_TARGET
[09:51:15.092427] [227] VFR_HUD
[09:51:15.541483] [64] RADIO
[09:51:15.544604] [64] RADIO_STATUS
[09:51:15.657523] [228] HEARTBEAT
[09:51:15.892512] [229] VFR_HUD
[09:51:16.586600] [65] RADIO
[09:51:16.589564] [65] RADIO_STATUS
[09:51:16.709642] [230] HEARTBEAT
[09:51:16.716612] [231] SYS_STATUS
[09:51:16.838078] [232] BATTERY_STATUS
[09:51:16.839711] [233] EXTENDED_SYS_STATE
[09:51:16.847652] [234] ATTITUDE_TARGET
[09:51:16.852603] [235] VFR_HUD
[09:51:16.855772] [236] SYSTEM_TIME
[09:51:17.501670] [237] VFR_HUD
[09:51:17.533666] [66] RADIO
[09:51:17.536680] [66] RADIO_STATUS
[09:51:17.726913] [238] HEARTBEAT
[09:51:18.316721] [239] VFR_HUD
[09:51:18.660739] [240] HEARTBEAT
[09:51:18.667763] [241] ATTITUDE_TARGET
[09:51:18.677754] [67] RADIO
[09:51:18.680724] [67] RADIO_STATUS
[09:51:19.110820] [242] VFR_HUD
[09:51:19.679832] [68] RADIO
[09:51:19.682804] [68] RADIO_STATUS
[09:51:19.795831] [243] HEARTBEAT
[09:51:19.925915] [244] VFR_HUD
[09:51:20.601785] [69] RADIO
