[19:34:34.118058] [177] VFR_HUD
[19:34:34.481742] [178] HEARTBEAT
[19:34:34.489754] [179] ATTITUDE_TARGET
[19:34:34.576888] [115] RADIO
[19:34:34.579817] [115] RADIO_STATUS
[19:34:34.931843] [180] VFR_HUD
[19:34:35.491974] [181] HEARTBEAT
[19:34:35.605958] [116] RADIO
[19:34:35.611774] [116] RADIO_STATUS
[19:34:35.726987] [182] VFR_HUD
[19:34:36.528857] [117] RADIO
[19:34:36.529020] [117] RADIO_STATUS
[19:34:36.654147] [183] HEARTBEAT
[19:34:36.660306] [184] SYS_STATUS
[19:34:36.775262] [185] BATTERY_STATUS
[19:34:36.893198] [186] ATTITUDE_TARGET
[19:34:36.897223] [187] VFR_HUD
[19:34:37.336267] [188] VFR_HUD
[19:34:37.456280] [189] HEARTBEAT
[19:34:37.565317] [118] RADIO
[19:34:37.568329] [118] RADIO_STATUS
[19:34:38.145520] [190] VFR_HUD
[19:34:38.494528] [191] HEARTBEAT
[19:34:38.502488] [192] ATTITUDE_TARGET
[19:34:38.594589] [119] RADIO
[19:34:38.597521] [119] RADIO_STATUS
[19:34:38.835635] [193] VFR_HUD
[19:34:39.519670] [120] RADIO
[19:34:39.522609] [120] RADIO_STATUS
[19:34:39.548632] [194] HEARTBEAT
[19:34:39.634651] [195] VFR_HUD
[19:34:40.457890] [196] HEARTBEAT
[19:34:40.463821] [197] SYS_STATUS
[19:34:40.503972] [198] BATTERY_STATUS
[19:34:40.511834] [199] ATTITUDE_TARGET
[19:34:40.515785] [200] VFR_HUD
[19:34:40.553924] [121] RADIO
[19:34:40.556815] [121] RADIO_STATUS
[19:34:41.479939] [201] VFR_HUD
[19:34:41.482961] [202] HEARTBEAT
[19:34:41.582957] [122] RADIO
[19:34:41.585939] [122] RADIO_STATUS
[19:34:42.059102] [203] VFR_HUD
[19:34:42.528134] [204] HEARTBEAT
[19:34:42.537944] [205] ATTITUDE_TARGET
[19:34:42.623248] [123] RADIO
[19:34:42.626135] [123] RADIO_STATUS
[19:34:42.853195] [206] VFR_HUD
[19:34:43.428249] [207] HEARTBEAT
[19:34:43.542279] [124] RADIO
[19:34:43.545216] [124] RADIO_STATUS
[19:34:43.668404] [208] VFR_HUD
[19:34:44.470578] [209] HEARTBEAT
[19:34:44.476475] [210] SYS_STATUS
[19:34:44.571473] [125] RADIO
[19:34:44.577044] [125] RADIO_STATUS
[19:34:44.641502] [211] BATTERY_STATUS
[19:34:44.648482] [212] ATTITUDE_TARGET
[19:34:44.653486] [213] VFR_HUD
[19:34:45.512615] [214] VFR_HUD
[19:34:45.515619] [215] HEARTBEAT
[19:34:45.627606] [126] RADIO
[19:34:45.630592] [126] RADIO_STATUS
[19:34:46.071611] [216] VFR_HUD
[19:34:46.640703] [127] RADIO
[19:34:46.643721] [127] RADIO_STATUS
[19:34:46.687897] [217] HEARTBEAT
[19:34:46.695705] [218] ATTITUDE_TARGET
[19:34:46.880733] [219] VFR_HUD
[19:34:47.446838] [220] HEARTBEAT
[19:34:47.559843] [128] RADIO
[19:34:47.562815] [128] RADIO_STATUS
[19:34:48.498077] [222] HEARTBEAT
[19:34:48.505131] [223] SYS_STATUS
[19:34:48.623029] [224] BATTERY_STATUS
[19:34:48.631016] [225] ATTITUDE_TARGET
[19:34:48.661026] [226] VFR_HUD
[19:34:48.689037] [129] RADIO
[19:34:48.692029] [129] RADIO_STATUS
[19:34:49.301112] [227] VFR_HUD
[19:34:49.515158] [228] HEARTBEAT
[19:34:49.629155] [130] RADIO
[19:34:49.633398] [130] RADIO_STATUS
[19:34:50.104224] [229] VFR_HUD
[19:34:50.448370] [230] HEARTBEAT
[19:34:50.456408] [231] ATTITUDE_TARGET
[19:34:50.669641] [131] RADIO
[19:34:50.677764] [131] RADIO_STATUS
[19:34:50.899439] [232] VFR_HUD
[19:34:51.474472] [233] HEARTBEAT
[19:34:51.556017] JAMMING_START
[19:34:51.593467] [132] RADIO
[19:34:51.596536] [132] RADIO_STATUS
[19:34:51.714614] [234] VFR_HUD
[19:34:52.515631] [235] HEARTBEAT
[19:34:52.522647] [236] SYS_STATUS
[19:34:52.617666] [133] RADIO
[19:34:52.620625] [133] RADIO_STATUS
[19:34:52.681680] [237] BATTERY_STATUS
[19:34:52.683580] [238] EXTENDED_SYS_STATE
[19:34:52.691671] [239] ATTITUDE_TARGET
[19:34:52.696674] [240] VFR_HUD
[19:34:52.699622] [241] SYSTEM_TIME
[19:34:53.323704] [242] VFR_HUD
[19:34:53.662788] [134] RADIO
[19:34:53.665744] [134] RADIO_STATUS
[19:34:54.118260] [244] VFR_HUD
[19:34:54.476931] [245] HEARTBEAT
[19:34:54.484951] [246] ATTITUDE_TARGET
[19:34:54.686992] [135] RADIO
[19:34:54.690009] [135] RADIO_STATUS
[19:34:54.927003] [247] VFR_HUD
[19:34:55.493079] [248] HEARTBEAT
[19:34:55.836128] [136] RADIO
[19:34:55.839053] [136] RADIO_STATUS
[19:34:56.544230] [250] HEARTBEAT
[19:34:56.550333] [251] SYS_STATUS
[19:34:56.669290] [252] BATTERY_STATUS
[19:34:56.677241] [253] ATTITUDE_TARGET
[19:34:56.707248] [254] VFR_HUD
[19:34:56.735247] [137] RADIO
[19:34:56.738388] [137] RADIO_STATUS
[19:34:57.336629] [255] VFR_HUD
[19:34:57.456474] [0] HEARTBEAT
[19:34:57.675485] [138] RADIO
[19:34:57.678405] [138] RADIO_STATUS
[19:34:58.145556] [1] VFR_HUD
[19:34:58.494557] [2] HEARTBEAT
[19:34:58.502536] [3] ATTITUDE_TARGET
[19:34:58.720194] [139] RADIO
[19:34:58.722614] [139] RADIO_STATUS
[19:34:58.840582] [4] VFR_HUD
[19:34:59.519735] [5] HEARTBEAT
[19:34:59.634750] [6] VFR_HUD
[19:34:59.666888] [140] RADIO
[19:34:59.669734] [140] RADIO_STATUS
[19:35:00.456968] [7] HEARTBEAT
[19:35:00.463936] [8] SYS_STATUS
[19:35:00.503075] [9] BATTERY_STATUS
[19:35:00.510952] [10] ATTITUDE_TARGET
[19:35:00.515908] [11] VFR_HUD
[19:35:00.662944] [141] RADIO
[19:35:00.665992] [141] RADIO_STATUS
[19:35:01.598146] [12] VFR_HUD
[19:35:01.601040] [13] HEARTBEAT
[19:35:01.708126] [142] RADIO
[19:35:01.711179] [142] RADIO_STATUS
[19:35:02.058158] [14] VFR_HUD
[19:35:02.527458] [15] HEARTBEAT
[19:35:02.535277] [16] ATTITUDE_TARGET
[19:35:02.732281] [143] RADIO
[19:35:02.735222] [143] RADIO_STATUS
[19:35:02.852277] [17] VFR_HUD
[19:35:03.433482] [18] HEARTBEAT
[19:35:03.662410] [19] VFR_HUD
[19:35:03.881427] [144] RADIO
[19:35:03.884399] [144] RADIO_STATUS
[19:35:04.469566] [20] HEARTBEAT
[19:35:04.476608] [21] SYS_STATUS
[19:35:04.596583] [22] BATTERY_STATUS
[19:35:04.708641] [23] ATTITUDE_TARGET
[19:35:04.713569] [24] VFR_HUD
[19:35:04.718545] [145] RADIO
[19:35:04.721561] [145] RADIO_STATUS
[19:35:05.271721] [25] VFR_HUD
[19:35:05.502728] [26] HEARTBEAT
[19:35:05.720762] [146] RADIO
[19:35:05.723865] [146] RADIO_STATUS
[19:35:06.539968] [28] HEARTBEAT
[19:35:06.547883] [29] ATTITUDE_TARGET
[19:35:06.759967] [147] RADIO
[19:35:06.763157] [147] RADIO_STATUS
[19:35:06.880984] [30] VFR_HUD
[19:35:07.446074] [31] HEARTBEAT
[19:35:07.680062] [32] VFR_HUD
[19:35:07.707299] [148] RADIO
[19:35:07.710114] [148] RADIO_STATUS
[19:35:08.502277] [33] HEARTBEAT
[19:35:08.509210] [34] SYS_STATUS
[19:35:08.549210] [35] BATTERY_STATUS
[19:35:08.556219] [36] ATTITUDE_TARGET
[19:35:08.561217] [37] VFR_HUD
[19:35:08.711001] [149] RADIO
[19:35:08.712237] [149] RADIO_STATUS
[19:35:09.649638] [38] VFR_HUD
[19:35:09.652443] [39] HEARTBEAT
[19:35:09.748573] [150] RADIO
[19:35:09.751404] [150] RADIO_STATUS
[19:35:10.104531] [40] VFR_HUD
[19:35:10.450047] [41] HEARTBEAT
[19:35:10.455556] [42] ATTITUDE_TARGET
[19:35:10.781974] [151] RADIO
[19:35:10.782208] [151] RADIO_STATUS
[19:35:10.898918] [43] VFR_HUD
[19:35:11.473759] [44] HEARTBEAT
[19:35:11.714460] [45] VFR_HUD
[19:35:11.927813] [152] RADIO
[19:35:11.930718] [152] RADIO_STATUS
[19:35:12.514982] [46] HEARTBEAT
[19:35:12.521889] [47] SYS_STATUS
[19:35:12.644948] [48] BATTERY_STATUS
[19:35:12.647121] [49] EXTENDED_SYS_STATE
[19:35:12.678995] [50] ATTITUDE_TARGET
[19:35:12.683944] [51] VFR_HUD
[19:35:12.687001] [52] SYSTEM_TIME
[19:35:12.737259] [153] RADIO
[19:35:12.739986] [153] RADIO_STATUS
[19:35:13.317067] [53] VFR_HUD
[19:35:13.543119] [54] HEARTBEAT
[19:35:13.766208] [154] RADIO
[19:35:13.769271] [154] RADIO_STATUS
[19:35:14.476309] [56] HEARTBEAT
[19:35:14.483299] [57] ATTITUDE_TARGET
[19:35:14.806392] [155] RADIO
[19:35:14.808440] [155] RADIO_STATUS
[19:35:14.926394] [58] VFR_HUD
[19:35:15.491472] [59] HEARTBEAT
[19:35:15.726487] [60] VFR_HUD
[19:35:15.753688] [156] RADIO
[19:35:15.756504] [156] RADIO_STATUS
[19:35:16.543718] [61] HEARTBEAT
[19:35:16.549741] [62] SYS_STATUS
[19:35:16.668670] [63] BATTERY_STATUS
[19:35:16.676744] [64] ATTITUDE_TARGET
[19:35:16.706821] [65] VFR_HUD
[19:35:16.734685] [157] RADIO
[19:35:16.736648] [157] RADIO_STATUS
[19:35:17.230777] [66] VFR_HUD
[19:35:17.450801] [67] HEARTBEAT
[19:35:17.799995] [158] RADIO
[19:35:17.802842] [158] RADIO_STATUS
[19:35:18.145004] [68] VFR_HUD
[19:35:18.494001] [69] HEARTBEAT
[19:35:18.502089] [70] ATTITUDE_TARGET
[19:35:18.824004] [159] RADIO
[19:35:18.826989] [159] RADIO_STATUS
[19:35:18.862413] [71] VFR_HUD
[19:35:19.520176] [72] HEARTBEAT
[19:35:19.634785] [73] VFR_HUD
[19:35:19.743258] [160] RADIO
[19:35:19.746163] [160] RADIO_STATUS
[19:35:20.456487] [74] HEARTBEAT
[19:35:20.463413] [75] SYS_STATUS
[19:35:20.502409] [76] BATTERY_STATUS
[19:35:20.510297] [77] ATTITUDE_TARGET
[19:35:20.515518] [78] VFR_HUD
[19:35:20.788384] [161] RADIO
[19:35:20.791435] [161] RADIO_STATUS
[19:35:21.478581] [79] VFR_HUD
[19:35:21.481603] [80] HEARTBEAT
[19:35:21.811569] [162] RADIO
[19:35:21.814556] [162] RADIO_STATUS
[19:35:22.052714] [81] VFR_HUD
[19:35:22.521696] [82] HEARTBEAT
[19:35:22.529666] [83] ATTITUDE_TARGET
[19:35:22.851711] [84] VFR_HUD
[19:35:22.884819] [163] RADIO
[19:35:22.887807] [163] RADIO_STATUS
[19:35:23.433181] [85] HEARTBEAT
[19:35:23.661932] [86] VFR_HUD
[19:35:23.776066] [164] RADIO
[19:35:23.778923] [164] RADIO_STATUS
[19:35:24.590077] [89] BATTERY_STATUS
[19:35:24.708086] [90] ATTITUDE_TARGET
[19:35:24.713043] [91] VFR_HUD
[19:35:24.800059] [165] RADIO
[19:35:24.803028] [165] RADIO_STATUS
[19:35:25.271128] [92] VFR_HUD
[19:35:25.501190] [93] HEARTBEAT
[19:35:25.845253] [166] RADIO
[19:35:25.848134] [166] RADIO_STATUS
[19:35:26.070253] [94] VFR_HUD
[19:35:26.421322] [95] HEARTBEAT
[19:35:26.538307] [96] ATTITUDE_TARGET
[19:35:26.869417] [167] RADIO
[19:35:26.872385] [167] RADIO_STATUS
[19:35:26.907491] [97] VFR_HUD
[19:35:27.445459] [98] HEARTBEAT
[19:35:27.679486] [99] VFR_HUD
[19:35:27.788491] [168] RADIO
[19:35:27.791504] [168] RADIO_STATUS
[19:35:28.501687] [100] HEARTBEAT
[19:35:28.508675] [101] SYS_STATUS
[19:35:28.548716] [102] BATTERY_STATUS
[19:35:28.555665] [103] ATTITUDE_TARGET
[19:35:28.560721] [104] VFR_HUD
[19:35:28.833754] [169] RADIO
[19:35:28.836798] [169] RADIO_STATUS
[19:35:29.523790] [105] VFR_HUD
[19:35:29.526825] [106] HEARTBEAT
[19:35:29.857836] [170] RADIO
[19:35:29.860826] [170] RADIO_STATUS
[19:35:30.103994] [107] VFR_HUD
[19:35:30.447121] [108] HEARTBEAT
[19:35:30.454957] [109] ATTITUDE_TARGET
[19:35:30.898216] [110] VFR_HUD
[19:35:30.930072] [171] RADIO
[19:35:30.933120] [171] RADIO_STATUS
[19:35:31.478165] [111] HEARTBEAT
[19:35:31.707193] [112] VFR_HUD
[19:35:31.817228] [172] RADIO
[19:35:31.819216] [172] RADIO_STATUS
[19:35:32.644385] [115] BATTERY_STATUS
[19:35:32.646321] [116] EXTENDED_SYS_STATE
[19:35:32.678415] [117] ATTITUDE_TARGET
[19:35:32.683566] [118] VFR_HUD
[19:35:32.686349] [119] SYSTEM_TIME
[19:35:32.846397] [173] RADIO
[19:35:32.849386] [173] RADIO_STATUS
[19:35:33.320054] [120] VFR_HUD
[19:35:33.427505] [121] HEARTBEAT
[19:35:33.885541] [174] RADIO
[19:35:33.888470] [174] RADIO_STATUS
[19:35:34.116551] [122] VFR_HUD
[19:35:34.475631] [123] HEARTBEAT
[19:35:34.483919] [124] ATTITUDE_TARGET
[19:35:34.915741] [175] RADIO
[19:35:34.917656] [175] RADIO_STATUS
[19:35:35.035683] [125] VFR_HUD
[19:35:35.490859] [126] HEARTBEAT
[19:35:35.724840] [127] VFR_HUD
[19:35:35.834909] [176] RADIO
[19:35:35.837842] [176] RADIO_STATUS
[19:35:36.542019] [128] HEARTBEAT
[19:35:36.548995] [129] SYS_STATUS
[19:35:36.668028] [130] BATTERY_STATUS
[19:35:36.674981] [131] ATTITUDE_TARGET
[19:35:36.705012] [132] VFR_HUD
[19:35:36.874062] [177] RADIO
[19:35:36.877043] [177] RADIO_STATUS
[19:35:37.229277] [133] VFR_HUD
[19:35:37.450196] [134] HEARTBEAT
[19:35:37.903241] [178] RADIO
[19:35:37.906168] [178] RADIO_STATUS
[19:35:38.029235] [135] VFR_HUD
[19:35:38.493455] [136] HEARTBEAT
[19:35:38.500318] [137] ATTITUDE_TARGET
[19:35:38.838362] [138] VFR_HUD
[19:35:38.954384] [179] RADIO
[19:35:38.957412] [179] RADIO_STATUS
[19:35:39.518469] [139] HEARTBEAT
[19:35:39.632465] [140] VFR_HUD
[19:35:39.862487] [180] RADIO
[19:35:39.864479] [180] RADIO_STATUS
[19:35:40.450630] [141] HEARTBEAT
[19:35:40.456594] [142] SYS_STATUS
[19:35:40.892433] [181] RADIO
[19:35:40.894641] [181] RADIO_STATUS
[19:35:41.242813] [146] VFR_HUD
[19:35:41.467894] [147] HEARTBEAT
[19:35:41.930879] [182] RADIO
[19:35:41.934436] [182] RADIO_STATUS
[19:35:42.051893] [148] VFR_HUD
[19:35:42.520958] [149] HEARTBEAT
[19:35:42.529025] [150] ATTITUDE_TARGET
[19:35:42.961080] [183] RADIO
[19:35:42.963035] [183] RADIO_STATUS
[19:35:43.431211] [152] HEARTBEAT
[19:35:43.661216] [153] VFR_HUD
[19:35:43.880172] [184] RADIO
[19:35:43.883141] [184] RADIO_STATUS
[19:35:44.467525] [154] HEARTBEAT
[19:35:44.474426] [155] SYS_STATUS
[19:35:44.589357] [156] BATTERY_STATUS
[19:35:44.706308] [157] ATTITUDE_TARGET
[19:35:44.711275] [158] VFR_HUD
[19:35:44.919381] [185] RADIO
[19:35:44.922388] [185] RADIO_STATUS
[19:35:45.275441] [159] VFR_HUD
[19:35:45.495497] [160] HEARTBEAT
[19:35:45.948539] [186] RADIO
[19:35:45.951454] [186] RADIO_STATUS
[19:35:46.069576] [161] VFR_HUD
[19:35:46.419621] [162] HEARTBEAT
[19:35:46.537654] [163] ATTITUDE_TARGET
[19:35:46.883676] [164] VFR_HUD
[19:35:46.999636] [187] RADIO
[19:35:47.002648] [187] RADIO_STATUS
[19:35:47.678796] [166] VFR_HUD
[19:35:47.912811] [188] RADIO
[19:35:47.915783] [188] RADIO_STATUS
[19:35:48.500968] [167] HEARTBEAT
[19:35:48.506963] [168] SYS_STATUS
[19:35:48.546908] [169] BATTERY_STATUS
[19:35:48.554954] [170] ATTITUDE_TARGET
[19:35:48.560068] [171] VFR_HUD
[19:35:48.939003] [189] RADIO
[19:35:48.941957] [189] RADIO_STATUS
[19:35:49.289078] [172] VFR_HUD
[19:35:49.515117] [173] HEARTBEAT
[19:35:49.983191] [190] RADIO
[19:35:49.986142] [190] RADIO_STATUS
[19:35:50.098129] [174] VFR_HUD
[19:35:50.448271] [175] HEARTBEAT
[19:35:50.456433] [176] ATTITUDE_TARGET
[19:35:51.011256] [191] RADIO
[19:35:51.014241] [191] RADIO_STATUS
[19:35:51.478474] [178] HEARTBEAT
[19:35:51.708437] [179] VFR_HUD
[19:35:51.927456] [192] RADIO
[19:35:51.930470] [192] RADIO_STATUS
[19:35:52.515563] [180] HEARTBEAT
[19:35:52.522605] [181] SYS_STATUS
[19:35:52.645615] [182] BATTERY_STATUS
[19:35:52.646501] [183] EXTENDED_SYS_STATE
[19:35:52.678564] [184] ATTITUDE_TARGET
[19:35:52.683562] [185] VFR_HUD
[19:35:52.687513] [186] SYSTEM_TIME
[19:35:52.972559] [193] RADIO
[19:35:52.975585] [193] RADIO_STATUS
[19:35:53.317665] [187] VFR_HUD
[19:35:53.422648] [188] HEARTBEAT
[19:35:53.996726] [194] RADIO
[19:35:53.999819] [194] RADIO_STATUS
[19:35:54.034803] [189] VFR_HUD
[19:35:54.480863] [190] HEARTBEAT
[19:35:54.488826] [191] ATTITUDE_TARGET
[19:35:54.926969] [192] VFR_HUD
[19:35:55.040942] [195] RADIO
[19:35:55.044308] [195] RADIO_STATUS
[19:35:55.726049] [194] VFR_HUD
[19:35:55.955131] [196] RADIO
[19:35:55.958117] [196] RADIO_STATUS
[19:35:56.549154] [195] HEARTBEAT
[19:35:56.555131] [196] SYS_STATUS
[19:35:56.595171] [197] BATTERY_STATUS
[19:35:56.603180] [198] ATTITUDE_TARGET
[19:35:56.608176] [199] VFR_HUD
[19:35:56.987233] [197] RADIO
[19:35:56.989245] [197] RADIO_STATUS
[19:35:57.227368] [200] VFR_HUD
[19:35:57.452466] [201] HEARTBEAT
[19:35:58.026432] [202] VFR_HUD
[19:35:58.059464] [198] RADIO
[19:35:58.062423] [198] RADIO_STATUS
[19:35:58.495454] [203] HEARTBEAT
[19:35:58.503509] [204] ATTITUDE_TARGET
[19:35:58.841822] [205] VFR_HUD
[19:35:59.055542] [199] RADIO
[19:35:59.058495] [199] RADIO_STATUS
[19:35:59.521656] [206] HEARTBEAT
[19:35:59.635683] [207] VFR_HUD
[19:35:59.974678] [200] RADIO
[19:35:59.978812] [200] RADIO_STATUS
[19:36:00.452857] [208] HEARTBEAT
[19:36:00.459829] [209] SYS_STATUS
[19:36:00.578846] [210] BATTERY_STATUS
[19:36:00.585874] [211] ATTITUDE_TARGET
[19:36:00.616830] [212] VFR_HUD
[19:36:01.014906] [201] RADIO
[19:36:01.017899] [201] RADIO_STATUS
[19:36:01.470969] [214] HEARTBEAT
[19:36:02.044161] [202] RADIO
[19:36:02.047102] [202] RADIO_STATUS
[19:36:02.165151] [215] VFR_HUD
[19:36:02.524205] [216] HEARTBEAT
[19:36:02.531168] [217] ATTITUDE_TARGET
[19:36:02.854218] [218] VFR_HUD
[19:36:02.963297] [203] RADIO
[19:36:02.966194] [203] RADIO_STATUS
[19:36:03.429334] [219] HEARTBEAT
[19:36:03.669295] [220] VFR_HUD
[19:36:04.002400] [204] RADIO
[19:36:04.005344] [204] RADIO_STATUS
[19:36:04.471436] [221] HEARTBEAT
[19:36:04.477429] [222] SYS_STATUS
[19:36:04.592627] [223] BATTERY_STATUS
[19:36:05.032502] [205] RADIO
[19:36:05.036731] [205] RADIO_STATUS
[19:36:05.277613] [226] VFR_HUD
[19:36:05.500839] [227] HEARTBEAT
[19:36:06.072672] [228] VFR_HUD
[19:36:06.099714] [206] RADIO
[19:36:06.102628] [206] RADIO_STATUS
[19:36:06.422764] [229] HEARTBEAT
[19:36:06.540792] [230] ATTITUDE_TARGET
[19:36:06.886828] [231] VFR_HUD
[19:36:07.100911] [207] RADIO
[19:36:07.103812] [207] RADIO_STATUS
[19:36:07.446966] [232] HEARTBEAT
[19:36:07.681029] [233] VFR_HUD
[19:36:08.020075] [208] RADIO
[19:36:08.023029] [208] RADIO_STATUS
[19:36:08.498162] [234] HEARTBEAT
[19:36:08.505184] [235] SYS_STATUS
[19:36:08.624096] [236] BATTERY_STATUS
[19:36:08.631142] [237] ATTITUDE_TARGET
[19:36:08.662500] [238] VFR_HUD
[19:36:09.060211] [209] RADIO
[19:36:09.063142] [209] RADIO_STATUS
[19:36:09.516370] [240] HEARTBEAT
[19:36:10.089384] [210] RADIO
[19:36:10.093174] [210] RADIO_STATUS
[19:36:10.209358] [241] VFR_HUD
[19:36:10.568463] [242] HEARTBEAT
[19:36:10.576464] [243] ATTITUDE_TARGET
[19:36:10.899427] [244] VFR_HUD
[19:36:11.008446] [211] RADIO
[19:36:11.011392] [211] RADIO_STATUS
[19:36:11.479625] [245] HEARTBEAT
[19:36:11.709230] [246] VFR_HUD
[19:36:12.053753] [212] RADIO
[19:36:12.055600] [212] RADIO_STATUS
[19:36:12.515855] [247] HEARTBEAT
[19:36:12.522712] [248] SYS_STATUS
[19:36:12.640830] [249] BATTERY_STATUS
[19:36:12.642767] [250] EXTENDED_SYS_STATE
[19:36:13.077855] [213] RADIO
[19:36:13.080808] [213] RADIO_STATUS
[19:36:13.317916] [254] VFR_HUD
[19:36:13.423867] [255] HEARTBEAT
[19:36:14.117127] [0] VFR_HUD
[19:36:14.149995] [214] RADIO
[19:36:14.153173] [214] RADIO_STATUS
[19:36:14.482077] [1] HEARTBEAT
[19:36:14.490115] [2] ATTITUDE_TARGET
[19:36:14.932194] [3] VFR_HUD
[19:36:15.146201] [215] RADIO
[19:36:15.149197] [215] RADIO_STATUS
[19:36:15.492219] [4] HEARTBEAT
[19:36:15.726349] [5] VFR_HUD
[19:36:16.065618] [216] RADIO
[19:36:16.068388] [216] RADIO_STATUS
[19:36:16.548484] [6] HEARTBEAT
[19:36:16.555468] [7] SYS_STATUS
[19:36:16.595567] [8] BATTERY_STATUS
[19:36:16.602479] [9] ATTITUDE_TARGET
[19:36:16.607479] [10] VFR_HUD
[19:36:17.110625] [217] RADIO
[19:36:17.113545] [217] RADIO_STATUS
[19:36:17.466615] [11] VFR_HUD
[19:36:17.469553] [12] HEARTBEAT
[19:36:18.025737] [13] VFR_HUD
[19:36:18.057659] [218] RADIO
[19:36:18.060679] [218] RADIO_STATUS
[19:36:18.618775] [14] HEARTBEAT
[19:36:18.626780] [15] ATTITUDE_TARGET
[19:36:18.834777] [16] VFR_HUD
[19:36:19.053794] [219] RADIO
[19:36:19.056766] [219] RADIO_STATUS
[19:36:19.525945] [17] HEARTBEAT
[19:36:20.098988] [220] RADIO
[19:36:20.101955] [220] RADIO_STATUS
[19:36:20.452106] [19] HEARTBEAT
[19:36:20.459111] [20] SYS_STATUS
[19:36:20.577122] [21] BATTERY_STATUS
[19:36:20.585100] [22] ATTITUDE_TARGET
[19:36:20.615115] [23] VFR_HUD
[19:36:21.123190] [221] RADIO
[19:36:21.126167] [221] RADIO_STATUS
[19:36:21.244223] [24] VFR_HUD
[19:36:21.468323] [25] HEARTBEAT
[19:36:22.057442] [26] VFR_HUD
[19:36:22.178458] [222] RADIO
[19:36:22.181408] [222] RADIO_STATUS
[19:36:22.521416] [27] HEARTBEAT
[19:36:22.529449] [28] ATTITUDE_TARGET
[19:36:22.852490] [29] VFR_HUD
[19:36:23.191519] [223] RADIO
[19:36:23.194474] [223] RADIO_STATUS
[19:36:23.427570] [30] HEARTBEAT
[19:36:23.666635] [31] VFR_HUD
[19:36:24.110752] [224] RADIO
[19:36:24.113738] [224] RADIO_STATUS
[19:36:24.470224] [32] HEARTBEAT
[19:36:24.475831] [33] SYS_STATUS
[19:36:24.589762] [34] BATTERY_STATUS
[19:36:24.739798] [35] ATTITUDE_TARGET
[19:36:24.744788] [36] VFR_HUD
[19:36:25.154928] [225] RADIO
[19:36:25.158156] [225] RADIO_STATUS
[19:36:25.275956] [37] VFR_HUD
[19:36:25.496033] [38] HEARTBEAT
[19:36:26.070057] [39] VFR_HUD
[19:36:26.097051] [226] RADIO
[19:36:26.100084] [226] RADIO_STATUS
[19:36:26.664212] [40] HEARTBEAT
[19:36:26.671194] [41] ATTITUDE_TARGET
[19:36:26.879228] [42] VFR_HUD
[19:36:27.099229] [227] RADIO
[19:36:27.102245] [227] RADIO_STATUS
[19:36:27.445340] [43] HEARTBEAT
[19:36:28.138444] [228] RADIO
[19:36:28.141406] [228] RADIO_STATUS
[19:36:28.496494] [45] HEARTBEAT
[19:36:28.503538] [46] SYS_STATUS
[19:36:28.621434] [47] BATTERY_STATUS
[19:36:28.629483] [48] ATTITUDE_TARGET
[19:36:28.659470] [49] VFR_HUD
[19:36:29.167508] [229] RADIO
[19:36:29.170480] [229] RADIO_STATUS
[19:36:29.288536] [50] VFR_HUD
[19:36:29.513718] [51] HEARTBEAT
[19:36:30.097830] [52] VFR_HUD
[19:36:30.206876] [230] RADIO
[19:36:30.211706] [230] RADIO_STATUS
[19:36:30.446823] [53] HEARTBEAT
[19:36:30.454850] [54] ATTITUDE_TARGET
[19:36:30.897850] [55] VFR_HUD
[19:36:31.236912] [231] RADIO
[19:36:31.239917] [231] RADIO_STATUS
[19:36:31.472991] [56] HEARTBEAT
[19:36:31.706925] [57] VFR_HUD
[19:36:32.156050] [232] RADIO
[19:36:32.159009] [232] RADIO_STATUS
[19:36:32.514147] [58] HEARTBEAT
[19:36:32.521899] [59] SYS_STATUS
[19:36:32.639196] [60] BATTERY_STATUS
[19:36:32.640101] [61] EXTENDED_SYS_STATE
[19:36:32.792218] [62] ATTITUDE_TARGET
[19:36:32.797151] [63] VFR_HUD
[19:36:32.800129] [64] SYSTEM_TIME
[19:36:33.195232] [233] RADIO
[19:36:33.198191] [233] RADIO_STATUS
[19:36:33.321411] [65] VFR_HUD
[19:36:34.115502] [67] VFR_HUD
[19:36:34.142464] [234] RADIO
[19:36:34.145432] [234] RADIO_STATUS
[19:36:34.480460] [68] HEARTBEAT
[19:36:34.487444] [69] ATTITUDE_TARGET
[19:36:34.930564] [70] VFR_HUD
[19:36:35.144704] [235] RADIO
[19:36:35.147553] [235] RADIO_STATUS
[19:36:35.490638] [71] HEARTBEAT
[19:36:36.183781] [236] RADIO
[19:36:36.186775] [236] RADIO_STATUS
[19:36:36.547818] [73] HEARTBEAT
[19:36:36.553758] [74] SYS_STATUS
[19:36:36.593765] [75] BATTERY_STATUS
[19:36:36.601781] [76] ATTITUDE_TARGET
[19:36:36.606750] [77] VFR_HUD
[19:36:37.214085] [237] RADIO
[19:36:37.216905] [237] RADIO_STATUS
[19:36:37.464905] [78] VFR_HUD
[19:36:37.467873] [79] HEARTBEAT
[19:36:38.253050] [238] RADIO
[19:36:38.256421] [238] RADIO_STATUS
[19:36:38.493161] [81] HEARTBEAT
[19:36:38.501103] [82] ATTITUDE_TARGET
[19:36:38.834120] [83] VFR_HUD
[19:36:39.283155] [239] RADIO
[19:36:39.285157] [239] RADIO_STATUS
[19:36:39.524225] [84] HEARTBEAT
[19:36:39.644436] [85] VFR_HUD
[19:36:40.202473] [240] RADIO
[19:36:40.205249] [240] RADIO_STATUS
[19:36:40.450378] [86] HEARTBEAT
[19:36:40.457366] [87] SYS_STATUS
[19:36:40.575452] [88] BATTERY_STATUS
[19:36:40.583427] [89] ATTITUDE_TARGET
[19:36:40.613428] [90] VFR_HUD
[19:36:41.242677] [91] VFR_HUD
[19:36:41.269804] [241] RADIO
[19:36:41.272473] [241] RADIO_STATUS
[19:36:42.057732] [93] VFR_HUD
[19:36:42.177689] [242] RADIO
[19:36:42.181789] [242] RADIO_STATUS
[19:36:42.526772] [94] HEARTBEAT
[19:36:42.534756] [95] ATTITUDE_TARGET
[19:36:42.851774] [96] VFR_HUD
[19:36:43.190840] [243] RADIO
[19:36:43.193761] [243] RADIO_STATUS
[19:36:43.426849] [97] HEARTBEAT
[19:36:43.666918] [98] VFR_HUD
[19:36:44.237878] [244] RADIO
[19:36:44.238891] [244] RADIO_STATUS
[19:36:44.469113] [99] HEARTBEAT
[19:36:44.475048] [100] SYS_STATUS
[19:36:44.595009] [101] BATTERY_STATUS
[19:36:44.708075] [102] ATTITUDE_TARGET
[19:36:44.712044] [103] VFR_HUD
[19:36:45.260152] [245] RADIO
[19:36:45.263115] [245] RADIO_STATUS
[19:36:45.298126] [104] VFR_HUD
[19:36:45.496205] [105] HEARTBEAT
[19:36:46.304392] [246] RADIO
[19:36:46.307350] [246] RADIO_STATUS
[19:36:46.539355] [107] HEARTBEAT
[19:36:46.547329] [108] ATTITUDE_TARGET
[19:36:46.879462] [109] VFR_HUD
[19:36:47.328470] [247] RADIO
[19:36:47.331476] [247] RADIO_STATUS
[19:36:47.444554] [110] HEARTBEAT
[19:36:47.679558] [111] VFR_HUD
[19:36:48.248661] [248] RADIO
[19:36:48.251629] [248] RADIO_STATUS
[19:36:48.496768] [112] HEARTBEAT
[19:36:48.503732] [113] SYS_STATUS
[19:36:48.621717] [114] BATTERY_STATUS
[19:36:48.629780] [115] ATTITUDE_TARGET
[19:36:48.659802] [116] VFR_HUD
[19:36:49.288817] [117] VFR_HUD
[19:36:49.320862] [249] RADIO
[19:36:49.323829] [249] RADIO_STATUS
[19:36:50.098964] [119] VFR_HUD
[19:36:50.317990] [250] RADIO
[19:36:50.320968] [250] RADIO_STATUS
[19:36:50.448064] [120] HEARTBEAT
[19:36:50.455061] [121] ATTITUDE_TARGET
[19:36:50.898595] [122] VFR_HUD
[19:36:51.237259] [251] RADIO
[19:36:51.240137] [251] RADIO_STATUS
[19:36:51.473283] [123] HEARTBEAT
[19:36:51.712281] [124] VFR_HUD
[19:36:52.282320] [252] RADIO
[19:36:52.284308] [252] RADIO_STATUS
[19:36:52.514441] [125] HEARTBEAT
[19:36:52.521319] [126] SYS_STATUS
[19:36:52.639410] [127] BATTERY_STATUS
[19:36:52.641457] [128] EXTENDED_SYS_STATE
[19:36:52.760448] [129] ATTITUDE_TARGET
[19:36:52.765591] [130] VFR_HUD
[19:36:52.768511] [131] SYSTEM_TIME
[19:36:53.306475] [253] RADIO
[19:36:53.309528] [253] RADIO_STATUS
[19:36:53.344438] [132] VFR_HUD
[19:36:53.422536] [133] HEARTBEAT
[19:36:54.350660] [254] RADIO
[19:36:54.353710] [254] RADIO_STATUS
[19:36:54.481012] [135] HEARTBEAT
[19:36:54.488971] [136] ATTITUDE_TARGET
[19:36:54.931914] [137] VFR_HUD
[19:36:55.374849] [255] RADIO
[19:36:55.377803] [255] RADIO_STATUS
[19:36:55.491854] [138] HEARTBEAT
[19:36:55.736969] [139] VFR_HUD
[19:36:56.294973] [0] RADIO
[19:36:56.297926] [0] RADIO_STATUS
[19:36:56.543091] [140] HEARTBEAT
[19:36:56.550054] [141] SYS_STATUS
[19:36:56.668162] [142] BATTERY_STATUS
[19:36:56.676115] [143] ATTITUDE_TARGET
[19:36:56.707216] [144] VFR_HUD
[19:36:57.335148] [145] VFR_HUD
[19:36:57.362104] [1] RADIO
[19:36:57.365104] [1] RADIO_STATUS
[19:36:57.456342] [146] HEARTBEAT
[19:36:58.024647] [147] VFR_HUD
[19:36:58.363589] [2] RADIO
[19:36:58.366351] [2] RADIO_STATUS
[19:36:58.493799] [148] HEARTBEAT
[19:36:58.501401] [149] ATTITUDE_TARGET
[19:36:58.834938] [150] VFR_HUD
[19:36:59.283550] [3] RADIO
[19:36:59.286514] [3] RADIO_STATUS
[19:36:59.524579] [151] HEARTBEAT
[19:36:59.633639] [152] VFR_HUD
[19:37:00.322623] [4] RADIO
[19:37:00.325601] [4] RADIO_STATUS
[19:37:00.455636] [153] HEARTBEAT
[19:37:00.462661] [154] SYS_STATUS
[19:37:00.502677] [155] BATTERY_STATUS
[19:37:00.510653] [156] ATTITUDE_TARGET
[19:37:00.514908] [157] VFR_HUD
[19:37:01.351851] [5] RADIO
[19:37:01.354843] [5] RADIO_STATUS
[19:37:01.478872] [158] VFR_HUD
[19:37:01.481933] [159] HEARTBEAT
[19:37:02.057943] [160] VFR_HUD
[19:37:02.392340] [6] RADIO
[19:37:02.395063] [6] RADIO_STATUS
[19:37:02.527116] [161] HEARTBEAT
[19:37:02.535049] [162] ATTITUDE_TARGET
[19:37:02.852122] [163] VFR_HUD
[19:37:03.421233] [7] RADIO
[19:37:03.424161] [7] RADIO_STATUS
[19:37:03.455238] [164] HEARTBEAT
[19:37:03.661247] [165] VFR_HUD
[19:37:04.340278] [8] RADIO
[19:37:04.345796] [8] RADIO_STATUS
[19:37:04.597150] [168] BATTERY_STATUS
[19:37:04.707376] [169] ATTITUDE_TARGET
[19:37:04.712352] [170] VFR_HUD
[19:37:05.270463] [171] VFR_HUD
[19:37:05.380454] [9] RADIO
[19:37:05.382435] [9] RADIO_STATUS
[19:37:05.501523] [172] HEARTBEAT
[19:37:06.081556] [173] VFR_HUD
[19:37:06.409638] [10] RADIO
[19:37:06.412827] [10] RADIO_STATUS
[19:37:06.539654] [174] HEARTBEAT
[19:37:06.546674] [175] ATTITUDE_TARGET
[19:37:06.879748] [176] VFR_HUD
[19:37:07.328937] [11] RADIO
[19:37:07.331770] [11] RADIO_STATUS
[19:37:07.444973] [177] HEARTBEAT
[19:37:07.678864] [178] VFR_HUD
[19:37:08.367957] [12] RADIO
[19:37:08.371080] [12] RADIO_STATUS
[19:37:08.496084] [179] HEARTBEAT
[19:37:08.502974] [180] SYS_STATUS
[19:37:08.621985] [181] BATTERY_STATUS
[19:37:08.629012] [182] ATTITUDE_TARGET
[19:37:08.660109] [183] VFR_HUD
[19:37:09.288219] [184] VFR_HUD
[19:37:09.398431] [13] RADIO
[19:37:09.400198] [13] RADIO_STATUS
[19:37:09.514204] [185] HEARTBEAT
[19:37:10.103261] [186] VFR_HUD
[19:37:10.447372] [187] HEARTBEAT
[19:37:10.455360] [188] ATTITUDE_TARGET
[19:37:10.547273] [14] RADIO
[19:37:10.550257] [14] RADIO_STATUS
[19:37:10.897352] [189] VFR_HUD
[19:37:11.465513] [15] RADIO
[19:37:11.468443] [15] RADIO_STATUS
[19:37:11.582634] [190] HEARTBEAT
[19:37:11.711661] [191] VFR_HUD
[19:37:12.385865] [16] RADIO
[19:37:12.388729] [16] RADIO_STATUS
[19:37:12.637686] [194] BATTERY_STATUS
[19:37:12.639565] [195] EXTENDED_SYS_STATE
[19:37:12.758755] [196] ATTITUDE_TARGET
[19:37:12.763636] [197] VFR_HUD
[19:37:12.767703] [198] SYSTEM_TIME
[19:37:13.320866] [199] VFR_HUD
[19:37:13.433131] [200] HEARTBEAT
[19:37:13.462803] [17] RADIO
[19:37:13.465772] [17] RADIO_STATUS
[19:37:14.114926] [201] VFR_HUD
[19:37:14.454209] [18] RADIO
[19:37:14.457029] [18] RADIO_STATUS
[19:37:14.584110] [202] HEARTBEAT
[19:37:14.592042] [203] ATTITUDE_TARGET
[19:37:14.925044] [204] VFR_HUD
[19:37:15.374147] [19] RADIO
[19:37:15.377116] [19] RADIO_STATUS
[19:37:15.490201] [205] HEARTBEAT
[19:37:15.724349] [206] VFR_HUD
[19:37:16.414449] [207] HEARTBEAT
[19:37:16.434415] [208] SYS_STATUS
[19:37:16.478573] [209] BATTERY_STATUS
[19:37:16.486423] [210] ATTITUDE_TARGET
[19:37:16.490402] [211] VFR_HUD
[19:37:16.493341] [20] RADIO
[19:37:16.496505] [20] RADIO_STATUS
[19:37:17.444548] [21] RADIO
[19:37:17.447550] [21] RADIO_STATUS
[19:37:17.488575] [212] VFR_HUD
[19:37:17.491800] [213] HEARTBEAT
[19:37:18.030694] [214] VFR_HUD
[19:37:18.493797] [215] HEARTBEAT
[19:37:18.501756] [216] ATTITUDE_TARGET
[19:37:18.511824] [22] RADIO
[19:37:18.514806] [22] RADIO_STATUS
[19:37:18.840802] [217] VFR_HUD
[19:37:19.515861] [23] RADIO
[19:37:19.516198] [23] RADIO_STATUS
[19:37:19.641014] [218] HEARTBEAT
[19:37:19.642877] [219] VFR_HUD
[19:37:20.433038] [24] RADIO
[19:37:20.435966] [24] RADIO_STATUS
[19:37:20.492030] [220] HEARTBEAT
[19:37:20.501755] [221] SYS_STATUS
[19:37:20.507921] [222] BATTERY_STATUS
[19:37:20.519026] [223] ATTITUDE_TARGET
[19:37:20.525877] [224] VFR_HUD
[19:37:21.243161] [225] VFR_HUD
[19:37:21.468185] [226] HEARTBEAT
[19:37:21.500221] [25] RADIO
[19:37:21.503138] [25] RADIO_STATUS
[19:37:22.058279] [227] VFR_HUD
[19:37:22.392372] [26] RADIO
[19:37:22.395315] [26] RADIO_STATUS
[19:37:22.527380] [228] HEARTBEAT
[19:37:22.535399] [229] ATTITUDE_TARGET
[19:37:23.421469] [27] RADIO
[19:37:23.424491] [27] RADIO_STATUS
[19:37:23.455541] [231] HEARTBEAT
[19:37:23.661559] [232] VFR_HUD
[19:37:24.469820] [233] HEARTBEAT
[19:37:24.475734] [234] SYS_STATUS
[19:37:24.570723] [28] RADIO
[19:37:24.573859] [28] RADIO_STATUS
[19:37:24.640727] [235] BATTERY_STATUS
[19:37:24.648719] [236] ATTITUDE_TARGET
[19:37:24.653653] [237] VFR_HUD
[19:37:25.490872] [29] RADIO
[19:37:25.494330] [29] RADIO_STATUS
[19:37:25.534887] [238] VFR_HUD
[19:37:25.539109] [239] HEARTBEAT
[19:37:26.070951] [240] VFR_HUD
[19:37:26.409991] [30] RADIO
[19:37:26.413135] [30] RADIO_STATUS
[19:37:26.458049] [241] HEARTBEAT
[19:37:26.466068] [242] ATTITUDE_TARGET
[19:37:26.881080] [243] VFR_HUD
[19:37:27.559306] [31] RADIO
[19:37:27.562328] [31] RADIO_STATUS
[19:37:27.680262] [245] VFR_HUD
[19:37:28.479512] [32] RADIO
[19:37:28.482425] [32] RADIO_STATUS
[19:37:28.539469] [246] HEARTBEAT
[19:37:28.545484] [247] SYS_STATUS
[19:37:28.553505] [248] BATTERY_STATUS
[19:37:28.565501] [249] ATTITUDE_TARGET
[19:37:28.570476] [250] VFR_HUD
[19:37:29.289512] [251] VFR_HUD
[19:37:29.515595] [252] HEARTBEAT
[19:37:29.628591] [33] RADIO
[19:37:29.631590] [33] RADIO_STATUS
[19:37:30.104638] [253] VFR_HUD
[19:37:30.448734] [254] HEARTBEAT
[19:37:30.456695] [255] ATTITUDE_TARGET
[19:37:30.548701] [34] RADIO
[19:37:30.551690] [34] RADIO_STATUS
[19:37:31.467838] [35] RADIO
[19:37:31.470801] [35] RADIO_STATUS
[19:37:31.583943] [1] HEARTBEAT
[19:37:31.713955] [2] VFR_HUD
[19:37:32.515042] [3] HEARTBEAT
[19:37:32.521997] [4] SYS_STATUS
[19:37:32.617035] [36] RADIO
[19:37:32.620202] [36] RADIO_STATUS
[19:37:32.681029] [5] BATTERY_STATUS
[19:37:32.683062] [6] EXTENDED_SYS_STATE
[19:37:32.691259] [7] ATTITUDE_TARGET
[19:37:32.696077] [8] VFR_HUD
[19:37:32.699053] [9] SYSTEM_TIME
[19:37:33.317182] [10] VFR_HUD
[19:37:33.423314] [11] HEARTBEAT
[19:37:33.536203] [37] RADIO
[19:37:33.539152] [37] RADIO_STATUS
[19:37:34.117370] [12] VFR_HUD
[19:37:34.476371] [13] HEARTBEAT
[19:37:34.484511] [14] ATTITUDE_TARGET
[19:37:34.686339] [38] RADIO
[19:37:34.689333] [38] RADIO_STATUS
[19:37:34.926412] [15] VFR_HUD
[19:37:35.605520] [39] RADIO
[19:37:35.608507] [39] RADIO_STATUS
[19:37:35.644545] [17] VFR_HUD
[19:37:36.411685] [18] HEARTBEAT
[19:37:36.431771] [19] SYS_STATUS
[19:37:36.480742] [20] BATTERY_STATUS
[19:37:36.487637] [21] ATTITUDE_TARGET
[19:37:36.492590] [22] VFR_HUD
[19:37:36.495592] [40] RADIO
[19:37:36.498559] [40] RADIO_STATUS
[19:37:37.462820] [23] VFR_HUD
[19:37:37.465778] [24] HEARTBEAT
[19:37:37.582795] [41] RADIO
[19:37:37.585809] [41] RADIO_STATUS
[19:37:38.026906] [25] VFR_HUD
[19:37:38.496002] [26] HEARTBEAT
[19:37:38.503925] [27] ATTITUDE_TARGET
[19:37:38.513919] [42] RADIO
[19:37:38.516965] [42] RADIO_STATUS
[19:37:38.842032] [28] VFR_HUD
[19:37:39.515112] [43] RADIO
[19:37:39.518201] [43] RADIO_STATUS
[19:37:39.640201] [29] HEARTBEAT
[19:37:39.645268] [30] VFR_HUD
[19:37:40.458629] [31] HEARTBEAT
[19:37:40.465339] [32] SYS_STATUS
[19:37:40.504305] [33] BATTERY_STATUS
[19:37:40.512334] [34] ATTITUDE_TARGET
[19:37:40.517259] [35] VFR_HUD
[19:37:40.560353] [44] RADIO
[19:37:40.563223] [44] RADIO_STATUS
[19:37:41.480430] [36] VFR_HUD
[19:37:41.483489] [37] HEARTBEAT
[19:37:41.584450] [45] RADIO
[19:37:41.587541] [45] RADIO_STATUS
[19:37:42.054584] [38] VFR_HUD
[19:37:42.503587] [46] RADIO
[19:37:42.506573] [46] RADIO_STATUS
[19:37:42.633614] [39] HEARTBEAT
[19:37:42.641659] [40] ATTITUDE_TARGET
[19:37:42.865659] [41] VFR_HUD
[19:37:43.434757] [42] HEARTBEAT
[19:37:43.653904] [47] RADIO
[19:37:43.655737] [47] RADIO_STATUS
[19:37:43.773783] [43] VFR_HUD
[19:37:44.470942] [44] HEARTBEAT
[19:37:44.477885] [45] SYS_STATUS
[19:37:44.572917] [48] RADIO
[19:37:44.575906] [48] RADIO_STATUS
[19:37:44.612926] [46] BATTERY_STATUS
[19:37:44.640977] [47] ATTITUDE_TARGET
[19:37:44.644869] [48] VFR_HUD
[19:37:45.273105] [49] VFR_HUD
[19:37:45.504052] [50] HEARTBEAT
[19:37:45.617084] [49] RADIO
[19:37:45.620115] [49] RADIO_STATUS
[19:37:46.073432] [51] VFR_HUD
[19:37:46.437270] [52] HEARTBEAT
[19:37:46.445264] [53] ATTITUDE_TARGET
[19:37:46.537253] [50] RADIO
[19:37:46.540180] [50] RADIO_STATUS
[19:37:46.887290] [54] VFR_HUD
[19:37:47.447453] [55] HEARTBEAT
[19:37:47.561505] [51] RADIO
[19:37:47.564510] [51] RADIO_STATUS
[19:37:47.681871] [56] VFR_HUD
[19:37:48.503604] [57] HEARTBEAT
[19:37:48.510619] [58] SYS_STATUS
[19:37:48.550653] [59] BATTERY_STATUS
[19:37:48.558627] [60] ATTITUDE_TARGET
[19:37:48.562639] [61] VFR_HUD
[19:37:48.605645] [52] RADIO
[19:37:48.608701] [52] RADIO_STATUS
[19:37:49.526971] [62] VFR_HUD
[19:37:49.529819] [63] HEARTBEAT
[19:37:49.536735] [53] RADIO
[19:37:49.539752] [53] RADIO_STATUS
[19:37:50.105921] [64] VFR_HUD
[19:37:50.549988] [54] RADIO
[19:37:50.552942] [54] RADIO_STATUS
[19:37:50.597049] [65] HEARTBEAT
[19:37:50.604982] [66] ATTITUDE_TARGET
[19:37:50.900000] [67] VFR_HUD
[19:37:51.481192] [68] HEARTBEAT
[19:37:51.699187] [55] RADIO
[19:37:51.702183] [55] RADIO_STATUS
[19:37:51.819223] [69] VFR_HUD
[19:37:52.516322] [70] HEARTBEAT
[19:37:52.523375] [71] SYS_STATUS
[19:37:52.618524] [56] RADIO
[19:37:52.621322] [56] RADIO_STATUS
[19:37:52.683578] [72] BATTERY_STATUS
[19:37:52.684446] [73] EXTENDED_SYS_STATE
[19:37:52.692397] [74] ATTITUDE_TARGET
[19:37:52.697306] [75] VFR_HUD
[19:37:52.701261] [76] SYSTEM_TIME
[19:37:53.319480] [77] VFR_HUD
[19:37:53.424508] [78] HEARTBEAT
[19:37:53.658608] [57] RADIO
[19:37:53.660522] [57] RADIO_STATUS
[19:37:54.121796] [79] VFR_HUD
[19:37:54.477650] [80] HEARTBEAT
[19:37:54.485641] [81] ATTITUDE_TARGET
[19:37:54.687641] [58] RADIO
[19:37:54.690747] [58] RADIO_STATUS
[19:37:54.928662] [82] VFR_HUD
[19:37:55.493845] [83] HEARTBEAT
[19:37:55.606788] [59] RADIO
[19:37:55.609774] [59] RADIO_STATUS
[19:37:55.645803] [84] VFR_HUD
[19:37:56.412983] [85] HEARTBEAT
[19:37:56.433129] [86] SYS_STATUS
[19:37:56.481924] [87] BATTERY_STATUS
[19:37:56.489918] [88] ATTITUDE_TARGET
[19:37:56.493938] [89] VFR_HUD
[19:37:56.649900] [60] RADIO
[19:37:56.650961] [60] RADIO_STATUS
[19:37:57.465073] [90] VFR_HUD
[19:37:57.468201] [91] HEARTBEAT
[19:37:57.584068] [61] RADIO
[19:37:57.587155] [61] RADIO_STATUS
[19:37:58.028167] [92] VFR_HUD
[19:37:58.597330] [62] RADIO
[19:37:58.600223] [62] RADIO_STATUS
[19:37:58.646021] [93] HEARTBEAT
[19:37:58.652248] [94] ATTITUDE_TARGET
[19:37:58.838305] [95] VFR_HUD
[19:37:59.523473] [96] HEARTBEAT
[19:37:59.747464] [63] RADIO
[19:37:59.750435] [63] RADIO_STATUS
[19:38:00.454636] [98] HEARTBEAT
[19:38:00.461619] [99] SYS_STATUS
[19:38:00.580609] [100] BATTERY_STATUS
[19:38:00.588593] [101] ATTITUDE_TARGET
[19:38:00.618847] [102] VFR_HUD
[19:38:00.640697] [64] RADIO
[19:38:00.643715] [64] RADIO_STATUS
[19:38:01.247745] [103] VFR_HUD
[19:38:01.471863] [104] HEARTBEAT
[19:38:01.705841] [65] RADIO
[19:38:01.708992] [65] RADIO_STATUS
[19:38:02.055952] [105] VFR_HUD
[19:38:02.525198] [106] HEARTBEAT
[19:38:02.533024] [107] ATTITUDE_TARGET
[19:38:02.735016] [66] RADIO
[19:38:02.738024] [66] RADIO_STATUS
[19:38:02.856009] [108] VFR_HUD
[19:38:03.436165] [109] HEARTBEAT
[19:38:03.654197] [67] RADIO
[19:38:03.657167] [67] RADIO_STATUS
[19:38:03.775231] [110] VFR_HUD
[19:38:04.472329] [111] HEARTBEAT
[19:38:04.479381] [112] SYS_STATUS
[19:38:04.594330] [113] BATTERY_STATUS
[19:38:04.711432] [114] ATTITUDE_TARGET
[19:38:04.716397] [115] VFR_HUD
[19:38:04.721404] [68] RADIO
[19:38:04.724392] [68] RADIO_STATUS
[19:38:05.279445] [116] VFR_HUD
[19:38:05.499556] [117] HEARTBEAT
[19:38:05.618507] [69] RADIO
[19:38:05.621622] [69] RADIO_STATUS
[19:38:06.074701] [118] VFR_HUD
[19:38:06.438719] [119] HEARTBEAT
[19:38:06.446710] [120] ATTITUDE_TARGET
[19:38:06.642962] [70] RADIO
[19:38:06.648027] [70] RADIO_STATUS
[19:38:06.888753] [121] VFR_HUD
[19:38:07.448852] [122] HEARTBEAT
[19:38:07.792025] [71] RADIO
[19:38:07.794947] [71] RADIO_STATUS
[19:38:08.506135] [124] HEARTBEAT
[19:38:08.512055] [125] SYS_STATUS
[19:38:08.552319] [126] BATTERY_STATUS
[19:38:08.560106] [127] ATTITUDE_TARGET
[19:38:08.565074] [128] VFR_HUD
[19:38:08.712075] [72] RADIO
[19:38:08.715073] [72] RADIO_STATUS
[19:38:09.423157] [129] VFR_HUD
[19:38:09.426500] [130] HEARTBEAT
[19:38:09.631171] [73] RADIO
[19:38:09.634165] [73] RADIO_STATUS
[19:38:10.101496] [131] VFR_HUD
[19:38:10.575394] [132] HEARTBEAT
[19:38:10.583340] [133] ATTITUDE_TARGET
[19:38:10.675368] [74] RADIO
[19:38:10.678333] [74] RADIO_STATUS
[19:38:10.901372] [134] VFR_HUD
[19:38:11.481506] [135] HEARTBEAT
[19:38:11.699528] [75] RADIO
[19:38:11.702523] [75] RADIO_STATUS
[19:38:11.820563] [136] VFR_HUD
[19:38:12.517881] [137] HEARTBEAT
[19:38:12.524762] [138] SYS_STATUS
[19:38:12.647629] [139] BATTERY_STATUS
[19:38:12.648565] [140] EXTENDED_SYS_STATE
[19:38:12.680667] [141] ATTITUDE_TARGET
[19:38:12.685604] [142] VFR_HUD
[19:38:12.689794] [143] SYSTEM_TIME
[19:38:12.744612] [76] RADIO
[19:38:12.747636] [76] RADIO_STATUS
[19:38:13.319758] [144] VFR_HUD
[19:38:13.658979] [77] RADIO
[19:38:13.661782] [77] RADIO_STATUS
[19:38:14.118916] [146] VFR_HUD
[19:38:14.483983] [147] HEARTBEAT
[19:38:14.491929] [148] ATTITUDE_TARGET
[19:38:14.688040] [78] RADIO
[19:38:14.690926] [78] RADIO_STATUS
[19:38:14.929016] [149] VFR_HUD
[19:38:15.494119] [150] HEARTBEAT
[19:38:15.624098] [151] VFR_HUD
[19:38:15.838183] [79] RADIO
[19:38:15.840117] [79] RADIO_STATUS
[19:38:16.414404] [152] HEARTBEAT
[19:38:16.433438] [153] SYS_STATUS
[19:38:16.482307] [154] BATTERY_STATUS
[19:38:16.490326] [155] ATTITUDE_TARGET
[19:38:16.494360] [156] VFR_HUD
[19:38:16.759346] [80] RADIO
[19:38:16.762346] [80] RADIO_STATUS
[19:38:17.464477] [157] VFR_HUD
[19:38:17.467488] [158] HEARTBEAT
[19:38:17.678529] [81] RADIO
[19:38:17.681533] [81] RADIO_STATUS
[19:38:18.622706] [160] HEARTBEAT
[19:38:18.630836] [161] ATTITUDE_TARGET
[19:38:18.717788] [82] RADIO
[19:38:18.720789] [82] RADIO_STATUS
[19:38:18.838711] [162] VFR_HUD
[19:38:19.523843] [163] HEARTBEAT
[19:38:19.637838] [164] VFR_HUD
[19:38:19.747959] [83] RADIO
[19:38:19.749863] [83] RADIO_STATUS
[19:38:20.455021] [165] HEARTBEAT
[19:38:20.461973] [166] SYS_STATUS
[19:38:20.581050] [167] BATTERY_STATUS
[19:38:20.589003] [168] ATTITUDE_TARGET
[19:38:20.619056] [169] VFR_HUD
[19:38:20.787080] [84] RADIO
[19:38:20.790059] [84] RADIO_STATUS
[19:38:21.247123] [170] VFR_HUD
[19:38:21.706443] [85] RADIO
[19:38:21.709357] [85] RADIO_STATUS
[19:38:22.057392] [172] VFR_HUD
[19:38:22.526360] [173] HEARTBEAT
[19:38:22.533337] [174] ATTITUDE_TARGET
[19:38:22.735409] [86] RADIO
[19:38:22.738454] [86] RADIO_STATUS
[19:38:22.856375] [175] VFR_HUD
[19:38:23.431514] [176] HEARTBEAT
[19:38:23.671740] [177] VFR_HUD
[19:38:23.884563] [87] RADIO
[19:38:23.887660] [87] RADIO_STATUS
[19:38:24.472726] [178] HEARTBEAT
[19:38:24.479666] [179] SYS_STATUS
[19:38:24.594784] [180] BATTERY_STATUS
[19:38:24.711712] [181] ATTITUDE_TARGET
[19:38:24.716696] [182] VFR_HUD
[19:38:24.722681] [88] RADIO
[19:38:24.725710] [88] RADIO_STATUS
[19:38:25.279804] [183] VFR_HUD
[19:38:25.499926] [184] HEARTBEAT
[19:38:25.723855] [89] RADIO
[19:38:25.726801] [89] RADIO_STATUS
[19:38:26.438990] [186] HEARTBEAT
[19:38:26.446924] [187] ATTITUDE_TARGET
[19:38:26.763000] [90] RADIO
[19:38:26.765986] [90] RADIO_STATUS
[19:38:26.889018] [188] VFR_HUD
[19:38:27.449116] [189] HEARTBEAT
[19:38:27.684132] [190] VFR_HUD
[19:38:27.716169] [91] RADIO
[19:38:27.719322] [91] RADIO_STATUS
[19:38:28.500330] [191] HEARTBEAT
[19:38:28.507291] [192] SYS_STATUS
[19:38:28.626329] [193] BATTERY_STATUS
[19:38:28.634321] [194] ATTITUDE_TARGET
[19:38:28.664470] [195] VFR_HUD
[19:38:28.712304] [92] RADIO
[19:38:28.715362] [92] RADIO_STATUS
[19:38:29.292471] [196] VFR_HUD
[19:38:29.413510] [197] HEARTBEAT
[19:38:29.757493] [93] RADIO
[19:38:29.760537] [93] RADIO_STATUS
[19:38:30.102562] [198] VFR_HUD
[19:38:30.451736] [199] HEARTBEAT
[19:38:30.459643] [200] ATTITUDE_TARGET
[19:38:30.781787] [94] RADIO
[19:38:30.784722] [94] RADIO_STATUS
[19:38:30.821852] [201] VFR_HUD
[19:38:31.482772] [202] HEARTBEAT
[19:38:31.711814] [203] VFR_HUD
[19:38:31.930915] [95] RADIO
[19:38:31.933928] [95] RADIO_STATUS
[19:38:32.518947] [204] HEARTBEAT
[19:38:32.525960] [205] SYS_STATUS
[19:38:32.643962] [206] BATTERY_STATUS
[19:38:32.644885] [207] EXTENDED_SYS_STATE
[19:38:32.764948] [208] ATTITUDE_TARGET
[19:38:32.770008] [209] VFR_HUD
[19:38:32.772959] [210] SYSTEM_TIME
[19:38:32.806951] [96] RADIO
[19:38:32.809980] [96] RADIO_STATUS
[19:38:33.321054] [211] VFR_HUD
[19:38:33.427086] [212] HEARTBEAT
[19:38:33.770109] [97] RADIO
[19:38:33.773063] [97] RADIO_STATUS
[19:38:34.016142] [213] VFR_HUD
[19:38:34.485416] [214] HEARTBEAT
[19:38:34.492209] [215] ATTITUDE_TARGET
[19:38:34.815281] [98] RADIO
[19:38:34.818544] [98] RADIO_STATUS
[19:38:34.935386] [216] VFR_HUD
[19:38:35.495465] [217] HEARTBEAT
[19:38:35.625391] [218] VFR_HUD
[19:38:35.745564] [99] RADIO
[19:38:35.748516] [99] RADIO_STATUS
[19:38:36.553618] [221] BATTERY_STATUS
[19:38:36.665655] [222] ATTITUDE_TARGET
[19:38:36.670584] [223] VFR_HUD
[19:38:36.758679] [100] RADIO
[19:38:36.761632] [100] RADIO_STATUS
[19:38:37.228683] [224] VFR_HUD
[19:38:37.459818] [225] HEARTBEAT
[19:38:37.802738] [101] RADIO
[19:38:37.805710] [101] RADIO_STATUS
[19:38:38.028831] [226] VFR_HUD
[19:38:38.497941] [227] HEARTBEAT
[19:38:38.505929] [228] ATTITUDE_TARGET
[19:38:38.827953] [102] RADIO
[19:38:38.830923] [102] RADIO_STATUS
[19:38:38.947974] [229] VFR_HUD
[19:38:39.528126] [230] HEARTBEAT
[19:38:39.638075] [231] VFR_HUD
[19:38:39.977274] [103] RADIO
[19:38:39.980706] [103] RADIO_STATUS
[19:38:40.455220] [232] HEARTBEAT
[19:38:40.462245] [233] SYS_STATUS
[19:38:40.580262] [234] BATTERY_STATUS
[19:38:40.588276] [235] ATTITUDE_TARGET
[19:38:40.618482] [236] VFR_HUD
[19:38:40.792328] [104] RADIO
[19:38:40.795266] [104] RADIO_STATUS
[19:38:41.247478] [237] VFR_HUD
[19:38:41.472491] [238] HEARTBEAT
[19:38:41.816496] [105] RADIO
[19:38:41.819551] [105] RADIO_STATUS
[19:38:42.061543] [239] VFR_HUD
[19:38:42.525663] [240] HEARTBEAT
[19:38:42.533677] [241] ATTITUDE_TARGET
[19:38:42.856672] [242] VFR_HUD
[19:38:42.888684] [106] RADIO
[19:38:42.891622] [106] RADIO_STATUS
[19:38:43.432015] [243] HEARTBEAT
[19:38:43.670835] [244] VFR_HUD
[19:38:43.787096] [107] RADIO
[19:38:43.788797] [107] RADIO_STATUS
[19:38:44.594032] [247] BATTERY_STATUS
[19:38:44.712031] [248] ATTITUDE_TARGET
[19:38:44.717034] [249] VFR_HUD
[19:38:44.804041] [108] RADIO
[19:38:44.807052] [108] RADIO_STATUS
[19:38:45.280116] [250] VFR_HUD
[19:38:45.500293] [251] HEARTBEAT
[19:38:45.843294] [109] RADIO
[19:38:45.846361] [109] RADIO_STATUS
[19:38:46.074210] [252] VFR_HUD
[19:38:46.420315] [253] HEARTBEAT
[19:38:46.442342] [254] ATTITUDE_TARGET
[19:38:46.873420] [110] RADIO
[19:38:46.876375] [110] RADIO_STATUS
[19:38:46.993519] [255] VFR_HUD
[19:38:47.449987] [0] HEARTBEAT
[19:38:47.683559] [1] VFR_HUD
[19:38:47.792576] [111] RADIO
[19:38:47.795519] [111] RADIO_STATUS
[19:38:48.500679] [2] HEARTBEAT
[19:38:48.507757] [3] SYS_STATUS
[19:38:48.625692] [4] BATTERY_STATUS
[19:38:48.633843] [5] ATTITUDE_TARGET
[19:38:48.663648] [6] VFR_HUD
[19:38:48.832699] [112] RADIO
[19:38:48.835784] [112] RADIO_STATUS
[19:38:49.292837] [7] VFR_HUD
[19:38:49.413820] [8] HEARTBEAT
[19:38:49.861911] [113] RADIO
[19:38:49.864868] [113] RADIO_STATUS
[19:38:50.102916] [9] VFR_HUD
[19:38:50.452056] [10] HEARTBEAT
[19:38:50.459081] [11] ATTITUDE_TARGET
[19:38:50.902015] [12] VFR_HUD
[19:38:50.931997] [114] RADIO
[19:38:50.935071] [114] RADIO_STATUS
[19:38:51.477152] [13] HEARTBEAT
[19:38:51.711117] [14] VFR_HUD
[19:38:51.821165] [115] RADIO
[19:38:51.824142] [115] RADIO_STATUS
[19:38:52.643347] [17] BATTERY_STATUS
[19:38:52.645287] [18] EXTENDED_SYS_STATE
[19:38:52.764296] [19] ATTITUDE_TARGET
[19:38:52.769293] [20] VFR_HUD
[19:38:52.773237] [21] SYSTEM_TIME
[19:38:52.850287] [116] RADIO
[19:38:52.853254] [116] RADIO_STATUS
[19:38:53.326409] [22] VFR_HUD
[19:38:53.437516] [23] HEARTBEAT
[19:38:53.889556] [117] RADIO
[19:38:53.894038] [117] RADIO_STATUS
[19:38:54.015495] [24] VFR_HUD
[19:38:54.484649] [25] HEARTBEAT
[19:38:54.492608] [26] ATTITUDE_TARGET
[19:38:54.919682] [118] RADIO
[19:38:54.922615] [118] RADIO_STATUS
[19:38:54.957745] [27] VFR_HUD
[19:38:55.494799] [28] HEARTBEAT
[19:38:55.729764] [29] VFR_HUD
[19:38:55.838746] [119] RADIO
[19:38:55.841798] [119] RADIO_STATUS
[19:38:56.426920] [30] HEARTBEAT
[19:38:56.433908] [31] SYS_STATUS
[19:38:56.554091] [32] BATTERY_STATUS
[19:38:56.665971] [33] ATTITUDE_TARGET
[19:38:56.670917] [34] VFR_HUD
[19:38:56.877950] [120] RADIO
[19:38:56.880933] [120] RADIO_STATUS
[19:38:57.229394] [35] VFR_HUD
[19:38:57.459119] [36] HEARTBEAT
[19:38:57.908184] [121] RADIO
[19:38:57.911055] [121] RADIO_STATUS
[19:38:58.028120] [37] VFR_HUD
[19:38:58.497195] [38] HEARTBEAT
[19:38:58.505256] [39] ATTITUDE_TARGET
[19:38:58.838245] [40] VFR_HUD
[19:38:58.947420] [122] RADIO
[19:38:58.950431] [122] RADIO_STATUS
[19:38:59.637460] [42] VFR_HUD
[19:38:59.872485] [123] RADIO
[19:38:59.874503] [123] RADIO_STATUS
[19:39:00.459619] [43] HEARTBEAT
[19:39:00.466560] [44] SYS_STATUS
[19:39:00.506571] [45] BATTERY_STATUS
[19:39:00.514628] [46] ATTITUDE_TARGET
[19:39:00.518776] [47] VFR_HUD
[19:39:00.897661] [124] RADIO
[19:39:00.900623] [124] RADIO_STATUS
[19:39:01.483761] [48] VFR_HUD
[19:39:01.486787] [49] HEARTBEAT
[19:39:01.942911] [125] RADIO
[19:39:01.946078] [125] RADIO_STATUS
[19:39:02.062898] [50] VFR_HUD
[19:39:02.532041] [51] HEARTBEAT
[19:39:02.539921] [52] ATTITUDE_TARGET
[19:39:02.967036] [126] RADIO
[19:39:02.969978] [126] RADIO_STATUS
[19:39:03.433164] [54] HEARTBEAT
[19:39:03.672082] [55] VFR_HUD
[19:39:03.886227] [127] RADIO
[19:39:03.889074] [127] RADIO_STATUS
[19:39:04.474520] [56] HEARTBEAT
[19:39:04.481265] [57] SYS_STATUS
[19:39:04.601281] [58] BATTERY_STATUS
[19:39:04.713788] [59] ATTITUDE_TARGET
[19:39:04.718558] [60] VFR_HUD
[19:39:04.931286] [128] RADIO
[19:39:04.934312] [128] RADIO_STATUS
[19:39:05.276366] [61] VFR_HUD
[19:39:05.501513] [62] HEARTBEAT
[19:39:05.958515] [129] RADIO
[19:39:05.961447] [129] RADIO_STATUS
[19:39:06.076483] [63] VFR_HUD
[19:39:06.435578] [64] HEARTBEAT
[19:39:06.442548] [65] ATTITUDE_TARGET
[19:39:06.885620] [66] VFR_HUD
[19:39:06.999645] [130] RADIO
[19:39:07.002767] [130] RADIO_STATUS
[19:39:07.685814] [68] VFR_HUD
[19:39:07.919846] [131] RADIO
[19:39:07.922784] [131] RADIO_STATUS
[19:39:08.502969] [69] HEARTBEAT
[19:39:08.508971] [70] SYS_STATUS
[19:39:08.943987] [132] RADIO
[19:39:08.946995] [132] RADIO_STATUS
[19:39:09.294074] [74] VFR_HUD
[19:39:09.410076] [75] HEARTBEAT
[19:39:09.988119] [133] RADIO
[19:39:09.991151] [133] RADIO_STATUS
[19:39:10.104684] [76] VFR_HUD
[19:39:10.453266] [77] HEARTBEAT
[19:39:10.461265] [78] ATTITUDE_TARGET
[19:39:11.013332] [134] RADIO
[19:39:11.015264] [134] RADIO_STATUS
[19:39:11.479432] [80] HEARTBEAT
[19:39:11.718676] [81] VFR_HUD
[19:39:11.932511] [135] RADIO
[19:39:11.935520] [135] RADIO_STATUS
[19:39:12.520601] [82] HEARTBEAT
[19:39:12.527592] [83] SYS_STATUS
[19:39:12.644643] [84] BATTERY_STATUS
[19:39:12.646547] [85] EXTENDED_SYS_STATE
[19:39:12.765622] [86] ATTITUDE_TARGET
[19:39:12.770590] [87] VFR_HUD
[19:39:12.774575] [88] SYSTEM_TIME
[19:39:12.971607] [136] RADIO
[19:39:12.974701] [136] RADIO_STATUS
[19:39:13.327744] [89] VFR_HUD
[19:39:13.439774] [90] HEARTBEAT
[19:39:14.000958] [137] RADIO
[19:39:14.003934] [137] RADIO_STATUS
[19:39:14.121864] [91] VFR_HUD
[19:39:14.481113] [92] HEARTBEAT
[19:39:14.488944] [93] ATTITUDE_TARGET
[19:39:14.921005] [138] RADIO
[19:39:14.924181] [138] RADIO_STATUS
[19:39:14.959034] [94] VFR_HUD
[19:39:15.621131] [96] VFR_HUD
[19:39:15.960203] [139] RADIO
[19:39:15.963186] [139] RADIO_STATUS
[19:39:16.428285] [97] HEARTBEAT
[19:39:16.435295] [98] SYS_STATUS
[19:39:16.550309] [99] BATTERY_STATUS
[19:39:16.990326] [140] RADIO
[19:39:16.993304] [140] RADIO_STATUS
[19:39:17.230395] [102] VFR_HUD
[19:39:17.461428] [103] HEARTBEAT
[19:39:18.030503] [104] VFR_HUD
[19:39:18.057542] [141] RADIO
[19:39:18.060563] [141] RADIO_STATUS
[19:39:18.499589] [105] HEARTBEAT
[19:39:18.507614] [106] ATTITUDE_TARGET
[19:39:18.844676] [107] VFR_HUD
[19:39:19.058662] [142] RADIO
[19:39:19.061630] [142] RADIO_STATUS
[19:39:19.529808] [108] HEARTBEAT
[19:39:19.639716] [109] VFR_HUD
[19:39:19.978767] [143] RADIO
[19:39:19.981901] [143] RADIO_STATUS
[19:39:20.461921] [110] HEARTBEAT
[19:39:20.467888] [111] SYS_STATUS
[19:39:20.507911] [112] BATTERY_STATUS
[19:39:20.517308] [113] ATTITUDE_TARGET
[19:39:20.520878] [114] VFR_HUD
[19:39:21.020964] [144] RADIO
[19:39:21.023930] [144] RADIO_STATUS
[19:39:21.484097] [115] VFR_HUD
[19:39:21.487029] [116] HEARTBEAT
[19:39:22.047301] [145] RADIO
[19:39:22.050130] [145] RADIO_STATUS
[19:39:22.086179] [117] VFR_HUD
[19:39:22.532338] [118] HEARTBEAT
[19:39:22.540327] [119] ATTITUDE_TARGET
[19:39:22.858354] [120] VFR_HUD
[19:39:22.967291] [146] RADIO
[19:39:22.970261] [146] RADIO_STATUS
[19:39:23.438394] [121] HEARTBEAT
[19:39:23.667404] [122] VFR_HUD
[19:39:24.006454] [147] RADIO
[19:39:24.009513] [147] RADIO_STATUS
[19:39:24.474567] [123] HEARTBEAT
[19:39:24.481553] [124] SYS_STATUS
[19:39:24.601663] [125] BATTERY_STATUS
[19:39:24.832628] [126] ATTITUDE_TARGET
[19:39:24.837605] [127] VFR_HUD
[19:39:25.035647] [148] RADIO
[19:39:25.038585] [148] RADIO_STATUS
[19:39:25.276729] [128] VFR_HUD
[19:39:25.507984] [129] HEARTBEAT
[19:39:26.075865] [130] VFR_HUD
[19:39:26.102815] [149] RADIO
[19:39:26.106026] [149] RADIO_STATUS
[19:39:26.435054] [131] HEARTBEAT
[19:39:26.442957] [132] ATTITUDE_TARGET
[19:39:26.886145] [133] VFR_HUD
[19:39:27.105205] [150] RADIO
[19:39:27.108026] [150] RADIO_STATUS
[19:39:27.451103] [134] HEARTBEAT
[19:39:27.685146] [135] VFR_HUD
[19:39:28.024258] [151] RADIO
[19:39:28.027227] [151] RADIO_STATUS
[19:39:28.502458] [136] HEARTBEAT
[19:39:28.509332] [137] SYS_STATUS
[19:39:28.627373] [138] BATTERY_STATUS
[19:39:28.635547] [139] ATTITUDE_TARGET
[19:39:28.665365] [140] VFR_HUD
[19:39:29.063415] [152] RADIO
[19:39:29.066448] [152] RADIO_STATUS
[19:39:29.409546] [142] HEARTBEAT
[19:39:29.988584] [153] RADIO
[19:39:29.991598] [153] RADIO_STATUS
[19:39:30.108636] [143] VFR_HUD
[19:39:30.572731] [144] HEARTBEAT
[19:39:30.579771] [145] ATTITUDE_TARGET
[19:39:30.903742] [146] VFR_HUD
[19:39:31.012771] [154] RADIO
[19:39:31.015766] [154] RADIO_STATUS
[19:39:31.478879] [147] HEARTBEAT
[19:39:31.719003] [148] VFR_HUD
[19:39:32.057940] [155] RADIO
[19:39:32.060992] [155] RADIO_STATUS
[19:39:32.520057] [149] HEARTBEAT
[19:39:32.527120] [150] SYS_STATUS
[19:39:32.650062] [151] BATTERY_STATUS
[19:39:32.652079] [152] EXTENDED_SYS_STATE
[19:39:32.684063] [153] ATTITUDE_TARGET
[19:39:32.689089] [154] VFR_HUD
[19:39:32.692074] [155] SYSTEM_TIME
[19:39:33.082153] [156] RADIO
[19:39:33.085095] [156] RADIO_STATUS
[19:39:33.328184] [156] VFR_HUD
[19:39:33.439247] [157] HEARTBEAT
[19:39:34.001268] [157] RADIO
[19:39:34.004229] [157] RADIO_STATUS
[19:39:34.122290] [158] VFR_HUD
[19:39:34.481262] [159] HEARTBEAT
[19:39:34.489284] [160] ATTITUDE_TARGET
[19:39:34.931374] [161] VFR_HUD
[19:39:35.151400] [158] RADIO
[19:39:35.154410] [158] RADIO_STATUS
[19:39:35.497548] [162] HEARTBEAT
[19:39:35.621517] [163] VFR_HUD
[19:39:36.070587] [159] RADIO
[19:39:36.073627] [159] RADIO_STATUS
[19:39:36.416693] [164] HEARTBEAT
[19:39:36.436631] [165] SYS_STATUS
[19:39:36.550654] [166] BATTERY_STATUS
[19:39:36.667672] [167] ATTITUDE_TARGET
[19:39:36.672632] [168] VFR_HUD
[19:39:37.115782] [160] RADIO
[19:39:37.118878] [160] RADIO_STATUS
[19:39:37.235794] [169] VFR_HUD
[19:39:37.455810] [170] HEARTBEAT
[19:39:38.029855] [171] VFR_HUD
[19:39:38.062846] [161] RADIO
[19:39:38.065850] [161] RADIO_STATUS
[19:39:38.619250] [172] HEARTBEAT
[19:39:38.626085] [173] ATTITUDE_TARGET
[19:39:38.845244] [174] VFR_HUD
[19:39:39.059129] [162] RADIO
[19:39:39.062035] [162] RADIO_STATUS
[19:39:39.405204] [175] HEARTBEAT
[19:39:40.103218] [163] RADIO
[19:39:40.106277] [163] RADIO_STATUS
[19:39:40.462337] [177] HEARTBEAT
[19:39:40.468319] [178] SYS_STATUS
[19:39:40.508406] [179] BATTERY_STATUS
[19:39:40.516430] [180] ATTITUDE_TARGET
[19:39:40.521307] [181] VFR_HUD
[19:39:41.128413] [164] RADIO
[19:39:41.131347] [164] RADIO_STATUS
[19:39:41.484548] [182] VFR_HUD
[19:39:41.487519] [183] HEARTBEAT
[19:39:42.047521] [165] RADIO
[19:39:42.050498] [165] RADIO_STATUS
[19:39:42.168555] [184] VFR_HUD
[19:39:42.532627] [185] HEARTBEAT
[19:39:42.540638] [186] ATTITUDE_TARGET
[19:39:42.857868] [187] VFR_HUD
[19:39:43.196779] [166] RADIO
[19:39:43.199690] [166] RADIO_STATUS
[19:39:43.437795] [188] HEARTBEAT
[19:39:43.667819] [189] VFR_HUD
[19:39:44.116938] [167] RADIO
[19:39:44.118901] [167] RADIO_STATUS
[19:39:44.475033] [190] HEARTBEAT
[19:39:44.481112] [191] SYS_STATUS
[19:39:44.601048] [192] BATTERY_STATUS
[19:39:45.156089] [168] RADIO
[19:39:45.159056] [168] RADIO_STATUS
[19:39:45.277137] [195] VFR_HUD
[19:39:45.507178] [196] HEARTBEAT
[19:39:46.076282] [197] VFR_HUD
[19:39:46.103266] [169] RADIO
[19:39:46.106160] [169] RADIO_STATUS
[19:39:46.440291] [198] HEARTBEAT
[19:39:46.448443] [199] ATTITUDE_TARGET
[19:39:46.885350] [200] VFR_HUD
[19:39:47.105428] [170] RADIO
[19:39:47.108390] [170] RADIO_STATUS
[19:39:47.451604] [201] HEARTBEAT
[19:39:48.144606] [171] RADIO
[19:39:48.147531] [171] RADIO_STATUS
[19:39:48.507744] [203] HEARTBEAT
[19:39:48.515422] [204] SYS_STATUS
[19:39:48.553641] [205] BATTERY_STATUS
[19:39:48.561683] [206] ATTITUDE_TARGET
[19:39:48.566689] [207] VFR_HUD
[19:39:49.064936] [172] RADIO
[19:39:49.067740] [172] RADIO_STATUS
[19:39:49.419785] [208] VFR_HUD
[19:39:49.422783] [209] HEARTBEAT
[19:39:50.093979] [173] RADIO
[19:39:50.096867] [173] RADIO_STATUS
[19:39:50.131957] [210] VFR_HUD
[19:39:50.453969] [211] HEARTBEAT
[19:39:50.460949] [212] ATTITUDE_TARGET
[19:39:50.904051] [213] VFR_HUD
[19:39:51.243065] [174] RADIO
[19:39:51.246047] [174] RADIO_STATUS
[19:39:51.479129] [214] HEARTBEAT
[19:39:51.719352] [215] VFR_HUD
[19:39:52.163225] [175] RADIO
[19:39:52.166181] [175] RADIO_STATUS
[19:39:52.521284] [216] HEARTBEAT
[19:39:52.527319] [217] SYS_STATUS
[19:39:52.650423] [218] BATTERY_STATUS
[19:39:52.652250] [219] EXTENDED_SYS_STATE
[19:39:52.684284] [220] ATTITUDE_TARGET
[19:39:52.689294] [221] VFR_HUD
[19:39:52.693287] [222] SYSTEM_TIME
[19:39:53.087407] [176] RADIO
[19:39:53.090356] [176] RADIO_STATUS
[19:39:53.322615] [223] VFR_HUD
[19:39:54.122646] [225] VFR_HUD
[19:39:54.150486] [177] RADIO
[19:39:54.152928] [177] RADIO_STATUS
[19:39:54.481674] [226] HEARTBEAT
[19:39:54.489655] [227] ATTITUDE_TARGET
[19:39:54.812687] [228] VFR_HUD
[19:39:55.151796] [178] RADIO
[19:39:55.154830] [178] RADIO_STATUS
[19:39:55.497778] [229] HEARTBEAT
[19:39:55.626795] [230] VFR_HUD
[19:39:56.190922] [179] RADIO
[19:39:56.193893] [179] RADIO_STATUS
[19:39:56.428969] [231] HEARTBEAT
[19:39:56.435899] [232] SYS_STATUS
[19:39:56.550955] [233] BATTERY_STATUS
[19:39:56.668164] [234] ATTITUDE_TARGET
[19:39:56.672920] [235] VFR_HUD
[19:39:57.116064] [180] RADIO
[19:39:57.118971] [180] RADIO_STATUS
[19:39:57.236104] [236] VFR_HUD
[19:39:57.456107] [237] HEARTBEAT
[19:39:58.139332] [181] RADIO
[19:39:58.142223] [181] RADIO_STATUS
[19:39:58.499331] [239] HEARTBEAT
[19:39:58.507276] [240] ATTITUDE_TARGET
[19:39:58.845327] [241] VFR_HUD
[19:39:59.289341] [182] RADIO
[19:39:59.292306] [182] RADIO_STATUS
[19:39:59.405371] [242] HEARTBEAT
[19:39:59.641780] [243] VFR_HUD
[19:40:00.208666] [183] RADIO
[19:40:00.211492] [183] RADIO_STATUS
[19:40:00.456746] [244] HEARTBEAT
[19:40:00.463587] [245] SYS_STATUS
[19:40:00.582668] [246] BATTERY_STATUS
[19:40:00.590592] [247] ATTITUDE_TARGET
[19:40:00.620554] [248] VFR_HUD
[19:40:01.128647] [184] RADIO
[19:40:01.131681] [184] RADIO_STATUS
[19:40:01.249716] [249] VFR_HUD
[19:40:02.058872] [251] VFR_HUD
[19:40:02.172778] [185] RADIO
[19:40:02.175873] [185] RADIO_STATUS
[19:40:02.527936] [252] HEARTBEAT
[19:40:02.535926] [253] ATTITUDE_TARGET
[19:40:02.858927] [254] VFR_HUD
[19:40:03.198176] [186] RADIO
[19:40:03.201077] [186] RADIO_STATUS
[19:40:03.439128] [255] HEARTBEAT
[19:40:03.667981] [0] VFR_HUD
[19:40:04.242165] [187] RADIO
[19:40:04.245171] [187] RADIO_STATUS
[19:40:04.475141] [1] HEARTBEAT
[19:40:04.482122] [2] SYS_STATUS
[19:40:04.597260] [3] BATTERY_STATUS
[19:40:04.714177] [4] ATTITUDE_TARGET
[19:40:04.719170] [5] VFR_HUD
[19:40:05.162223] [188] RADIO
[19:40:05.169743] [188] RADIO_STATUS
[19:40:05.277236] [6] VFR_HUD
[19:40:05.508428] [7] HEARTBEAT
[19:40:06.186446] [189] RADIO
[19:40:06.189405] [189] RADIO_STATUS
[19:40:06.441573] [9] HEARTBEAT
[19:40:06.448612] [10] ATTITUDE_TARGET
[19:40:06.891612] [11] VFR_HUD
[19:40:07.335658] [190] RADIO
[19:40:07.338648] [190] RADIO_STATUS
[19:40:07.451717] [12] HEARTBEAT
[19:40:07.685735] [13] VFR_HUD
[19:40:08.254835] [191] RADIO
[19:40:08.257724] [191] RADIO_STATUS
[19:40:08.507925] [14] HEARTBEAT
[19:40:08.514819] [15] SYS_STATUS
[19:40:08.554840] [16] BATTERY_STATUS
[19:40:08.561851] [17] ATTITUDE_TARGET
[19:40:08.566785] [18] VFR_HUD
[19:40:09.175155] [192] RADIO
[19:40:09.176977] [192] RADIO_STATUS
[19:40:09.426084] [19] VFR_HUD
[19:40:09.429016] [20] HEARTBEAT
[19:40:10.110240] [21] VFR_HUD
[19:40:10.225141] [193] RADIO
[19:40:10.228115] [193] RADIO_STATUS
[19:40:10.454162] [22] HEARTBEAT
[19:40:10.461145] [23] ATTITUDE_TARGET
[19:40:10.904418] [24] VFR_HUD
[19:40:11.243368] [194] RADIO
[19:40:11.246273] [194] RADIO_STATUS
[19:40:11.484414] [25] HEARTBEAT
[19:40:11.714411] [26] VFR_HUD
[19:40:12.168547] [195] RADIO
[19:40:12.171564] [195] RADIO_STATUS
[19:40:12.521590] [27] HEARTBEAT
[19:40:12.527701] [28] SYS_STATUS
[19:40:12.650592] [29] BATTERY_STATUS
[19:40:12.652515] [30] EXTENDED_SYS_STATE
[19:40:12.684581] [31] ATTITUDE_TARGET
[19:40:12.689544] [32] VFR_HUD
[19:40:12.692591] [33] SYSTEM_TIME
[19:40:13.202666] [196] RADIO
[19:40:13.205637] [196] RADIO_STATUS
[19:40:13.323668] [34] VFR_HUD
[19:40:13.429763] [35] HEARTBEAT
[19:40:14.017848] [36] VFR_HUD
[19:40:14.231846] [197] RADIO
[19:40:14.234964] [197] RADIO_STATUS
[19:40:14.481908] [37] HEARTBEAT
[19:40:14.489852] [38] ATTITUDE_TARGET
[19:40:14.813001] [39] VFR_HUD
[19:40:15.381111] [198] RADIO
[19:40:15.383968] [198] RADIO_STATUS
[19:40:15.498181] [40] HEARTBEAT
[19:40:15.627108] [41] VFR_HUD
[19:40:16.300399] [199] RADIO
[19:40:16.303195] [199] RADIO_STATUS
[19:40:16.550419] [44] BATTERY_STATUS
[19:40:16.667220] [45] ATTITUDE_TARGET
[19:40:16.672257] [46] VFR_HUD
[19:40:17.220349] [200] RADIO
[19:40:17.223325] [200] RADIO_STATUS
[19:40:17.258387] [47] VFR_HUD
[19:40:17.456389] [48] HEARTBEAT
[19:40:18.030568] [49] VFR_HUD
[19:40:18.259508] [201] RADIO
[19:40:18.262480] [201] RADIO_STATUS
[19:40:18.499601] [50] HEARTBEAT
[19:40:18.507556] [51] ATTITUDE_TARGET
