[15:17:21.452346] [206] HEARTBEAT
[15:17:21.458312] [207] SYS_STATUS
[15:17:21.577442] [208] BATTERY_STATUS
[15:17:21.585338] [209] ATTITUDE_TARGET
[15:17:21.615373] [210] VFR_HUD
[15:17:21.893516] [6] RADIO
[15:17:21.896309] [6] RADIO_STATUS
[15:17:22.244573] [211] VFR_HUD
[15:17:22.365569] [212] HEARTBEAT
[15:17:22.813677] [7] RADIO
[15:17:22.816496] [7] RADIO_STATUS
[15:17:23.053604] [213] VFR_HUD
[15:17:23.402740] [214] HEARTBEAT
[15:17:23.410700] [215] ATTITUDE_TARGET
[15:17:23.853826] [216] VFR_HUD
[15:17:23.880669] [8] RADIO
[15:17:23.883770] [8] RADIO_STATUS
[15:17:24.433815] [217] HEARTBEAT
[15:17:24.662963] [218] VFR_HUD
[15:17:24.881824] [9] RADIO
[15:17:24.884862] [9] RADIO_STATUS
[15:17:25.469949] [219] HEARTBEAT
[15:17:25.476925] [220] SYS_STATUS
[15:17:25.591988] [221] BATTERY_STATUS
[15:17:25.708945] [222] ATTITUDE_TARGET
[15:17:25.713917] [223] VFR_HUD
[15:17:25.922016] [10] RADIO
[15:17:25.924971] [10] RADIO_STATUS
[15:17:26.158065] [224] VFR_HUD
[15:17:26.378188] [225] HEARTBEAT
[15:17:26.841276] [11] RADIO
[15:17:26.844232] [11] RADIO_STATUS
[15:17:26.967202] [226] VFR_HUD
[15:17:27.436275] [227] HEARTBEAT
[15:17:27.444176] [228] ATTITUDE_TARGET
[15:17:27.761249] [229] VFR_HUD
[15:17:27.871250] [12] RADIO
[15:17:27.874261] [12] RADIO_STATUS
[15:17:28.446398] [230] HEARTBEAT
[15:17:28.571459] [231] VFR_HUD
[15:17:28.910386] [13] RADIO
[15:17:28.913393] [13] RADIO_STATUS
[15:17:29.378544] [232] HEARTBEAT
[15:17:29.385538] [233] SYS_STATUS
[15:17:29.508678] [234] BATTERY_STATUS
[15:17:29.509410] [235] EXTENDED_SYS_STATE
[15:17:29.541522] [236] ATTITUDE_TARGET
[15:17:29.546450] [237] VFR_HUD
[15:17:29.550454] [238] SYSTEM_TIME
[15:17:29.939547] [14] RADIO
[15:17:29.942522] [14] RADIO_STATUS
[15:17:30.180591] [239] VFR_HUD
[15:17:30.411800] [240] HEARTBEAT
[15:17:30.859734] [15] RADIO
[15:17:30.862738] [15] RADIO_STATUS
[15:17:30.980643] [241] VFR_HUD
[15:17:31.573811] [242] HEARTBEAT
[15:17:31.581738] [243] ATTITUDE_TARGET
[15:17:31.789782] [244] VFR_HUD
[15:17:31.903798] [16] RADIO
[15:17:31.906793] [16] RADIO_STATUS
[15:17:32.928014] [17] RADIO
[15:17:32.930935] [17] RADIO_STATUS
[15:17:33.406303] [247] HEARTBEAT
[15:17:33.413194] [248] SYS_STATUS
[15:17:33.968172] [18] RADIO
[15:17:33.971141] [18] RADIO_STATUS
[15:17:34.198239] [252] VFR_HUD
[15:17:34.424239] [253] HEARTBEAT
[15:17:34.997323] [19] RADIO
[15:17:35.000356] [19] RADIO_STATUS
[15:17:35.036388] [254] VFR_HUD
[15:17:35.482366] [255] HEARTBEAT
[15:17:35.490380] [0] ATTITUDE_TARGET
[15:17:35.714153] JAMMING_START
[15:17:35.916571] [20] RADIO
[15:17:35.919400] [20] RADIO_STATUS
[15:17:36.382576] [2] HEARTBEAT
[15:17:36.622600] [3] VFR_HUD
[15:17:37.066673] [21] RADIO
[15:17:37.069714] [21] RADIO_STATUS
[15:17:37.550772] [6] BATTERY_STATUS
[15:17:37.782737] [7] ATTITUDE_TARGET
[15:17:37.787769] [8] VFR_HUD
[15:17:37.985788] [22] RADIO
[15:17:37.988838] [22] RADIO_STATUS
[15:17:38.226780] [9] VFR_HUD
[15:17:38.452235] [10] HEARTBEAT
[15:17:38.905893] [23] RADIO
[15:17:38.908877] [23] RADIO_STATUS
[15:17:39.026039] [11] VFR_HUD
[15:17:39.386126] [12] HEARTBEAT
[15:17:39.393006] [13] ATTITUDE_TARGET
[15:17:39.836167] [14] VFR_HUD
[15:17:39.950292] [24] RADIO
[15:17:39.953093] [24] RADIO_STATUS
[15:17:40.974256] [25] RADIO
[15:17:40.977198] [25] RADIO_STATUS
[15:17:42.019545] [26] RADIO
[15:17:42.022393] [26] RADIO_STATUS
[15:17:42.244551] [22] VFR_HUD
[15:17:42.360588] [23] HEARTBEAT
[15:17:42.938563] [27] RADIO
[15:17:42.941656] [27] RADIO_STATUS
[15:17:43.054597] [24] VFR_HUD
[15:17:43.522735] [25] HEARTBEAT
[15:17:43.530765] [26] ATTITUDE_TARGET
[15:17:43.963746] [28] RADIO
[15:17:43.966706] [28] RADIO_STATUS
[15:17:44.429811] [28] HEARTBEAT
[15:17:44.668834] [29] VFR_HUD
[15:17:45.112994] [29] RADIO
[15:17:45.115848] [29] RADIO_STATUS
[15:17:45.353886] [30] HEARTBEAT
[15:17:45.600019] [33] ATTITUDE_TARGET
[15:17:45.605748] [34] VFR_HUD
[15:17:45.922030] [30] RADIO
[15:17:45.924978] [30] RADIO_STATUS
[15:17:46.278092] [35] VFR_HUD
[15:17:46.400082] [36] HEARTBEAT
[15:17:46.952148] [31] RADIO
[15:17:46.955206] [31] RADIO_STATUS
[15:17:47.072191] [37] VFR_HUD
[15:17:47.437268] [38] HEARTBEAT
[15:17:47.445297] [39] ATTITUDE_TARGET
[15:17:47.773300] [40] VFR_HUD
[15:17:47.991347] [32] RADIO
[15:17:47.994331] [32] RADIO_STATUS
[15:17:48.572432] [42] VFR_HUD
[15:17:49.021523] [33] RADIO
[15:17:49.024477] [33] RADIO_STATUS
[15:17:49.379600] [43] HEARTBEAT
[15:17:49.386646] [44] SYS_STATUS
[15:17:49.946658] [34] RADIO
[15:17:49.949648] [34] RADIO_STATUS
[15:17:50.181741] [50] VFR_HUD
[15:17:50.412881] [51] HEARTBEAT
[15:17:51.093864] [35] RADIO
[15:17:51.096844] [35] RADIO_STATUS
[15:17:51.569992] [53] HEARTBEAT
[15:17:51.577960] [54] ATTITUDE_TARGET
[15:17:52.010052] [36] RADIO
[15:17:52.013063] [36] RADIO_STATUS
[15:17:52.356164] [56] HEARTBEAT
[15:17:52.591179] [57] VFR_HUD
[15:17:53.160215] [37] RADIO
[15:17:53.163195] [37] RADIO_STATUS
[15:17:53.413320] [58] HEARTBEAT
[15:17:53.420301] [59] SYS_STATUS
[15:17:53.459286] [60] BATTERY_STATUS
[15:17:53.467441] [61] ATTITUDE_TARGET
[15:17:53.472267] [62] VFR_HUD
[15:17:53.969337] [38] RADIO
[15:17:53.972263] [38] RADIO_STATUS
[15:17:54.560587] [63] VFR_HUD
[15:17:54.563515] [64] HEARTBEAT
[15:17:54.999575] [39] RADIO
[15:17:55.002441] [39] RADIO_STATUS
[15:17:55.037444] [65] VFR_HUD
[15:17:55.484603] [66] HEARTBEAT
[15:17:55.492659] [67] ATTITUDE_TARGET
[15:17:56.038678] [40] RADIO
[15:17:56.041627] [40] RADIO_STATUS
[15:17:56.624806] [70] VFR_HUD
[15:17:57.068892] [41] RADIO
[15:17:57.071862] [41] RADIO_STATUS
[15:17:57.426961] [71] HEARTBEAT
[15:17:57.433938] [72] SYS_STATUS
[15:17:57.786182] [74] ATTITUDE_TARGET
[15:17:57.790043] [75] VFR_HUD
[15:17:57.989025] [42] RADIO
[15:17:57.991976] [42] RADIO_STATUS
[15:17:58.229031] [76] VFR_HUD
[15:17:58.460115] [77] HEARTBEAT
[15:17:59.040214] [78] VFR_HUD
[15:17:59.138262] [43] RADIO
[15:17:59.140138] [43] RADIO_STATUS
[15:17:59.387257] [79] HEARTBEAT
[15:17:59.395220] [80] ATTITUDE_TARGET
[15:18:00.057358] [44] RADIO
[15:18:00.060310] [44] RADIO_STATUS
[15:18:00.409838] [82] HEARTBEAT
[15:18:00.637659] [83] VFR_HUD
[15:18:01.206582] [45] RADIO
[15:18:01.209522] [45] RADIO_STATUS
[15:18:01.454616] [84] HEARTBEAT
[15:18:01.461568] [85] SYS_STATUS
[15:18:02.021661] [46] RADIO
[15:18:02.024628] [46] RADIO_STATUS
[15:18:02.362778] [90] HEARTBEAT
[15:18:03.045887] [47] RADIO
[15:18:03.048857] [47] RADIO_STATUS
[15:18:03.084850] [91] VFR_HUD
[15:18:03.524941] [92] HEARTBEAT
[15:18:03.532936] [93] ATTITUDE_TARGET
[15:18:03.751985] [94] VFR_HUD
[15:18:04.090013] [48] RADIO
[15:18:04.092960] [48] RADIO_STATUS
[15:18:04.671109] [96] VFR_HUD
[15:18:05.114175] [49] RADIO
[15:18:05.117177] [49] RADIO_STATUS
[15:18:05.472328] [97] HEARTBEAT
[15:18:05.479252] [98] SYS_STATUS
[15:18:06.037600] [50] RADIO
[15:18:06.040359] [50] RADIO_STATUS
[15:18:06.279411] [102] VFR_HUD
[15:18:06.391383] [103] HEARTBEAT
[15:18:06.964437] [104] VFR_HUD
[15:18:07.078452] [51] RADIO
[15:18:07.081411] [51] RADIO_STATUS
[15:18:07.433664] [105] HEARTBEAT
[15:18:07.441695] [106] ATTITUDE_TARGET
[15:18:07.763619] [107] VFR_HUD
[15:18:08.102869] [52] RADIO
[15:18:08.105696] [52] RADIO_STATUS
[15:18:08.344698] [108] HEARTBEAT
[15:18:08.573814] [109] VFR_HUD
[15:18:09.251868] [53] RADIO
[15:18:09.254783] [53] RADIO_STATUS
[15:18:09.505155] [112] BATTERY_STATUS
[15:18:09.506844] [113] EXTENDED_SYS_STATE
[15:18:10.067065] [54] RADIO
[15:18:10.069985] [54] RADIO_STATUS
[15:18:10.413145] [118] HEARTBEAT
[15:18:10.982204] [119] VFR_HUD
[15:18:11.091157] [55] RADIO
[15:18:11.094129] [55] RADIO_STATUS
[15:18:11.571295] [120] HEARTBEAT
[15:18:11.578341] [121] ATTITUDE_TARGET
[15:18:11.797241] [122] VFR_HUD
[15:18:12.136314] [56] RADIO
[15:18:12.139239] [56] RADIO_STATUS
[15:18:12.357309] [123] HEARTBEAT
[15:18:13.160425] [57] RADIO
[15:18:13.163352] [57] RADIO_STATUS
[15:18:13.413576] [125] HEARTBEAT
[15:18:13.420517] [126] SYS_STATUS
[15:18:13.460477] [127] BATTERY_STATUS
[15:18:13.467991] [128] ATTITUDE_TARGET
[15:18:13.472513] [129] VFR_HUD
[15:18:14.080611] [58] RADIO
[15:18:14.083516] [58] RADIO_STATUS
[15:18:14.436723] [130] VFR_HUD
[15:18:14.439680] [131] HEARTBEAT
[15:18:15.015722] [132] VFR_HUD
[15:18:15.130905] [59] RADIO
[15:18:15.133743] [59] RADIO_STATUS
[15:18:15.809892] [135] VFR_HUD
[15:18:16.149856] [60] RADIO
[15:18:16.152897] [60] RADIO_STATUS
[15:18:16.390950] [136] HEARTBEAT
[15:18:16.619964] [137] VFR_HUD
[15:18:17.299090] [61] RADIO
[15:18:17.302072] [61] RADIO_STATUS
[15:18:17.554259] [140] BATTERY_STATUS
[15:18:17.785169] [141] ATTITUDE_TARGET
[15:18:17.790163] [142] VFR_HUD
[15:18:18.108274] [62] RADIO
[15:18:18.111179] [62] RADIO_STATUS
[15:18:18.460287] [144] HEARTBEAT
[15:18:19.029349] [145] VFR_HUD
[15:18:19.138365] [63] RADIO
[15:18:19.141309] [63] RADIO_STATUS
[15:18:19.838445] [148] VFR_HUD
[15:18:20.287629] [64] RADIO
[15:18:20.290468] [64] RADIO_STATUS
[15:18:20.409875] [149] HEARTBEAT
[15:18:21.097607] [65] RADIO
[15:18:21.100595] [65] RADIO_STATUS
[15:18:21.460747] [151] HEARTBEAT
[15:18:21.467739] [152] SYS_STATUS
[15:18:21.507741] [153] BATTERY_STATUS
[15:18:21.514680] [154] ATTITUDE_TARGET
[15:18:21.519696] [155] VFR_HUD
[15:18:22.127800] [66] RADIO
[15:18:22.130721] [66] RADIO_STATUS
[15:18:22.200882] [156] VFR_HUD
[15:18:22.363896] [157] HEARTBEAT
[15:18:23.062929] [158] VFR_HUD
[15:18:23.277101] [67] RADIO
[15:18:23.280012] [67] RADIO_STATUS
[15:18:23.532082] [159] HEARTBEAT
[15:18:23.539032] [160] ATTITUDE_TARGET
[15:18:23.857079] [161] VFR_HUD
[15:18:24.197138] [68] RADIO
[15:18:24.200162] [68] RADIO_STATUS
[15:18:24.433158] [162] HEARTBEAT
[15:18:24.564182] [163] VFR_HUD
[15:18:25.122335] [69] RADIO
[15:18:25.125242] [69] RADIO_STATUS
[15:18:25.353405] [164] HEARTBEAT
[15:18:25.373366] [165] SYS_STATUS
[15:18:25.416600] [166] BATTERY_STATUS
[15:18:25.424397] [167] ATTITUDE_TARGET
[15:18:25.429383] [168] VFR_HUD
[15:18:26.161491] [70] RADIO
[15:18:26.164478] [70] RADIO_STATUS
[15:18:26.512557] [169] VFR_HUD
[15:18:26.515624] [170] HEARTBEAT
[15:18:26.967710] [171] VFR_HUD
[15:18:27.186733] [71] RADIO
[15:18:27.189676] [71] RADIO_STATUS
[15:18:27.766804] [174] VFR_HUD
[15:18:28.336028] [72] RADIO
[15:18:28.338866] [72] RADIO_STATUS
[15:18:28.451856] [175] HEARTBEAT
[15:18:29.150987] [73] RADIO
[15:18:29.153934] [73] RADIO_STATUS
[15:18:29.384104] [177] HEARTBEAT
[15:18:29.390034] [178] SYS_STATUS
[15:18:29.508003] [179] BATTERY_STATUS
[15:18:29.509967] [180] EXTENDED_SYS_STATE
[15:18:29.629067] [181] ATTITUDE_TARGET
[15:18:29.634022] [182] VFR_HUD
[15:18:29.637995] [183] SYSTEM_TIME
[15:18:30.175128] [74] RADIO
[15:18:30.178117] [74] RADIO_STATUS
[15:18:30.214234] [184] VFR_HUD
[15:18:30.411249] [185] HEARTBEAT
[15:18:31.324366] [75] RADIO
[15:18:31.327269] [75] RADIO_STATUS
[15:18:31.372451] [187] HEARTBEAT
[15:18:31.380368] [188] ATTITUDE_TARGET
[15:18:31.800423] [189] VFR_HUD
[15:18:32.244499] [76] RADIO
[15:18:32.247444] [76] RADIO_STATUS
[15:18:33.393846] [77] RADIO
[15:18:33.396680] [77] RADIO_STATUS
[15:18:33.453789] [192] HEARTBEAT
[15:18:33.460908] [193] SYS_STATUS
[15:18:33.467728] [194] BATTERY_STATUS
[15:18:33.480777] [195] ATTITUDE_TARGET
[15:18:33.485714] [196] VFR_HUD
[15:18:34.204768] [197] VFR_HUD
[15:18:34.236816] [78] RADIO
[15:18:34.239825] [78] RADIO_STATUS
[15:18:35.013962] [199] VFR_HUD
[15:18:35.233006] [79] RADIO
[15:18:35.235994] [79] RADIO_STATUS
[15:18:35.350060] [200] HEARTBEAT
[15:18:35.372026] [201] ATTITUDE_TARGET
[15:18:36.278220] [80] RADIO
[15:18:36.281110] [80] RADIO_STATUS
[15:18:36.394237] [203] HEARTBEAT
[15:18:37.302318] [81] RADIO
[15:18:37.305311] [81] RADIO_STATUS
[15:18:37.430370] [205] HEARTBEAT
[15:18:37.437325] [206] SYS_STATUS
[15:18:37.552366] [207] BATTERY_STATUS
[15:18:37.669397] [208] ATTITUDE_TARGET
[15:18:37.674370] [209] VFR_HUD
[15:18:38.221471] [82] RADIO
[15:18:38.224423] [82] RADIO_STATUS
[15:18:38.380507] [211] HEARTBEAT
[15:18:39.266748] [83] RADIO
[15:18:39.269698] [83] RADIO_STATUS
[15:18:39.396850] [213] HEARTBEAT
[15:18:39.404724] [214] ATTITUDE_TARGET
[15:18:39.847747] [215] VFR_HUD
[15:18:40.291898] [84] RADIO
[15:18:40.294777] [84] RADIO_STATUS
[15:18:40.652890] [217] VFR_HUD
[15:18:41.440006] [85] RADIO
[15:18:41.442955] [85] RADIO_STATUS
[15:18:41.500084] [218] HEARTBEAT
[15:18:41.506088] [219] SYS_STATUS
[15:18:41.514005] [220] BATTERY_STATUS
[15:18:41.526051] [221] ATTITUDE_TARGET
[15:18:41.531014] [222] VFR_HUD
[15:18:42.250151] [223] VFR_HUD
[15:18:42.277130] [86] RADIO
[15:18:42.280079] [86] RADIO_STATUS
[15:18:43.065294] [225] VFR_HUD
[15:18:43.279331] [87] RADIO
[15:18:43.282275] [87] RADIO_STATUS
[15:18:43.409353] [226] HEARTBEAT
[15:18:43.417489] [227] ATTITUDE_TARGET
[15:18:44.319462] [88] RADIO
[15:18:44.321366] [88] RADIO_STATUS
[15:18:44.440525] [229] HEARTBEAT
[15:18:44.549512] [230] VFR_HUD
[15:18:45.238540] [89] RADIO
[15:18:45.241747] [89] RADIO_STATUS
[15:18:45.366620] [231] HEARTBEAT
[15:18:45.373614] [232] SYS_STATUS
[15:18:45.492700] [233] BATTERY_STATUS
[15:18:45.499654] [234] ATTITUDE_TARGET
[15:18:45.530606] [235] VFR_HUD
[15:18:46.170737] [236] VFR_HUD
[15:18:46.267754] [90] RADIO
[15:18:46.270730] [90] RADIO_STATUS
[15:18:46.383875] [237] HEARTBEAT
[15:18:47.307949] [91] RADIO
[15:18:47.310823] [91] RADIO_STATUS
[15:18:47.437002] [239] HEARTBEAT
[15:18:47.445540] [240] ATTITUDE_TARGET
[15:18:47.768040] [241] VFR_HUD
[15:18:48.337054] [92] RADIO
[15:18:48.340008] [92] RADIO_STATUS
[15:18:48.453279] [242] HEARTBEAT
[15:18:48.583137] [243] VFR_HUD
[15:18:49.487259] [93] RADIO
[15:18:49.490272] [93] RADIO_STATUS
[15:18:49.527326] [246] BATTERY_STATUS
[15:18:49.558451] [247] EXTENDED_SYS_STATE
[15:18:49.566565] [248] ATTITUDE_TARGET
[15:18:49.571282] [249] VFR_HUD
[15:18:49.574310] [250] SYSTEM_TIME
[15:18:50.296401] [94] RADIO
[15:18:50.301828] [94] RADIO_STATUS
[15:18:50.986499] [253] VFR_HUD
[15:18:51.325586] [95] RADIO
[15:18:51.328528] [95] RADIO_STATUS
[15:18:51.455578] [254] HEARTBEAT
[15:18:51.463574] [255] ATTITUDE_TARGET
[15:18:51.801640] [0] VFR_HUD
[15:18:52.361773] [1] HEARTBEAT
[15:18:52.474665] [96] RADIO
[15:18:52.477648] [96] RADIO_STATUS
[15:18:52.595901] [2] VFR_HUD
[15:18:53.394865] [97] RADIO
[15:18:53.397798] [97] RADIO_STATUS
[15:18:53.522924] [3] HEARTBEAT
[15:18:53.529893] [4] SYS_STATUS
[15:18:53.649938] [5] BATTERY_STATUS
[15:18:53.762403] [6] ATTITUDE_TARGET
[15:18:53.766976] [7] VFR_HUD
[15:18:54.315121] [98] RADIO
[15:18:54.317043] [98] RADIO_STATUS
[15:18:54.349032] [9] HEARTBEAT
[15:18:55.350187] [11] HEARTBEAT
[15:18:55.464163] [99] RADIO
[15:18:55.467482] [99] RADIO_STATUS
[15:18:55.593273] [12] ATTITUDE_TARGET
[15:18:55.815208] [13] VFR_HUD
[15:18:56.384346] [100] RADIO
[15:18:56.387301] [100] RADIO_STATUS
[15:18:56.418617] [14] HEARTBEAT
[15:18:56.625421] [15] VFR_HUD
[15:18:57.533461] [101] RADIO
[15:18:57.536548] [101] RADIO_STATUS
[15:18:57.574465] [18] BATTERY_STATUS
[15:18:57.601542] [19] ATTITUDE_TARGET
[15:18:57.606723] [20] VFR_HUD
[15:18:58.239548] [21] VFR_HUD
[15:18:58.351589] [22] HEARTBEAT
[15:18:58.381512] [102] RADIO
[15:18:58.384547] [102] RADIO_STATUS
[15:18:59.373765] [103] RADIO
[15:18:59.375705] [103] RADIO_STATUS
[15:18:59.420875] [24] HEARTBEAT
[15:18:59.428711] [25] ATTITUDE_TARGET
[15:18:59.848767] [26] VFR_HUD
[15:19:00.408859] [27] HEARTBEAT
[15:19:00.440867] [104] RADIO
[15:19:00.443834] [104] RADIO_STATUS
[15:19:00.643903] [28] VFR_HUD
[15:19:01.443087] [105] RADIO
[15:19:01.446030] [105] RADIO_STATUS
[15:19:01.502080] [29] HEARTBEAT
[15:19:01.509102] [30] SYS_STATUS
[15:19:01.517089] [31] BATTERY_STATUS
[15:19:01.529063] [32] ATTITUDE_TARGET
[15:19:01.534058] [33] VFR_HUD
[15:19:02.253188] [34] VFR_HUD
[15:19:02.362215] [106] RADIO
[15:19:02.365153] [106] RADIO_STATUS
[15:19:02.396265] [35] HEARTBEAT
[15:19:03.429625] [107] RADIO
[15:19:03.432390] [107] RADIO_STATUS
[15:19:03.536465] [37] HEARTBEAT
[15:19:03.545876] [38] ATTITUDE_TARGET
[15:19:03.874476] [39] VFR_HUD
[15:19:04.431543] [108] RADIO
[15:19:04.434539] [108] RADIO_STATUS
[15:19:04.465589] [40] HEARTBEAT
[15:19:04.672564] [41] VFR_HUD
[15:19:05.581928] [109] RADIO
[15:19:05.584727] [109] RADIO_STATUS
[15:19:06.173852] [47] VFR_HUD
[15:19:06.387906] [48] HEARTBEAT
[15:19:06.418870] [110] RADIO
[15:19:06.421841] [110] RADIO_STATUS
[15:19:06.976970] [49] VFR_HUD
[15:19:07.421092] [111] RADIO
[15:19:07.424055] [111] RADIO_STATUS
[15:19:07.469006] [50] HEARTBEAT
[15:19:07.476008] [51] ATTITUDE_TARGET
[15:19:08.347130] [53] HEARTBEAT
[15:19:08.465122] [112] RADIO
[15:19:08.468120] [112] RADIO_STATUS
[15:19:08.586144] [54] VFR_HUD
[15:19:09.490344] [113] RADIO
[15:19:09.493401] [113] RADIO_STATUS
[15:19:09.554313] [57] BATTERY_STATUS
[15:19:09.556245] [58] EXTENDED_SYS_STATE
[15:19:09.564290] [59] ATTITUDE_TARGET
[15:19:09.569252] [60] VFR_HUD
[15:19:09.572241] [61] SYSTEM_TIME
[15:19:10.195370] [62] VFR_HUD
[15:19:10.409413] [114] RADIO
[15:19:10.412472] [114] RADIO_STATUS
[15:19:10.525441] [63] HEARTBEAT
[15:19:10.990491] [64] VFR_HUD
[15:19:11.476681] [115] RADIO
[15:19:11.479554] [115] RADIO_STATUS
[15:19:11.583667] [65] HEARTBEAT
[15:19:11.591710] [66] ATTITUDE_TARGET
[15:19:11.799874] [67] VFR_HUD
[15:19:12.478836] [116] RADIO
[15:19:12.481746] [116] RADIO_STATUS
[15:19:12.610815] [69] VFR_HUD
[15:19:13.629555] [117] RADIO
[15:19:13.631916] [117] RADIO_STATUS
[15:19:14.209221] [75] VFR_HUD
[15:19:14.435192] [76] HEARTBEAT
[15:19:14.548092] [118] RADIO
[15:19:14.551049] [118] RADIO_STATUS
[15:19:15.019222] [77] VFR_HUD
[15:19:15.468262] [119] RADIO
[15:19:15.471228] [119] RADIO_STATUS
[15:19:15.597305] [78] HEARTBEAT
[15:19:15.605307] [79] ATTITUDE_TARGET
[15:19:16.394499] [81] HEARTBEAT
[15:19:16.508454] [120] RADIO
[15:19:16.511474] [120] RADIO_STATUS
[15:19:16.738517] [82] VFR_HUD
[15:19:17.537681] [121] RADIO
[15:19:17.540569] [121] RADIO_STATUS
[15:19:17.578740] [85] BATTERY_STATUS
[15:19:17.628708] [86] ATTITUDE_TARGET
[15:19:17.633706] [87] VFR_HUD
[15:19:18.243793] [88] VFR_HUD
[15:19:18.355812] [89] HEARTBEAT
[15:19:18.457792] [122] RADIO
[15:19:18.460715] [122] RADIO_STATUS
[15:19:19.037879] [90] VFR_HUD
[15:19:19.402968] [91] HEARTBEAT
[15:19:19.409944] [92] ATTITUDE_TARGET
[15:19:19.496930] [123] RADIO
[15:19:19.499895] [123] RADIO_STATUS
[15:19:19.853930] [93] VFR_HUD
[15:19:20.527098] [124] RADIO
[15:19:20.530131] [124] RADIO_STATUS
[15:19:20.648162] [95] VFR_HUD
[15:19:21.676274] [125] RADIO
[15:19:21.679254] [125] RADIO_STATUS
[15:19:22.257449] [101] VFR_HUD
[15:19:22.377446] [102] HEARTBEAT
[15:19:22.486493] [126] RADIO
[15:19:22.489396] [126] RADIO_STATUS
[15:19:23.066606] [103] VFR_HUD
[15:19:23.515934] [127] RADIO
[15:19:23.518786] [127] RADIO_STATUS
[15:19:23.645923] [104] HEARTBEAT
[15:19:23.653782] [105] ATTITUDE_TARGET
[15:19:24.446824] [107] HEARTBEAT
[15:19:24.556777] [108] VFR_HUD
[15:19:24.583705] [128] RADIO
[15:19:24.586720] [128] RADIO_STATUS
[15:19:25.378936] [109] HEARTBEAT
[15:19:25.385910] [110] SYS_STATUS
[15:19:25.424945] [111] BATTERY_STATUS
[15:19:25.432992] [112] ATTITUDE_TARGET
[15:19:25.438004] [113] VFR_HUD
[15:19:25.479948] [129] RADIO
[15:19:25.483122] [129] RADIO_STATUS
[15:19:26.505156] [130] RADIO
[15:19:26.508167] [130] RADIO_STATUS
[15:19:26.548181] [114] VFR_HUD
[15:19:26.551058] [115] HEARTBEAT
[15:19:26.980125] [116] VFR_HUD
[15:19:27.450260] [117] HEARTBEAT
[15:19:27.457213] [118] ATTITUDE_TARGET
[15:19:27.544232] [131] RADIO
[15:19:27.547201] [131] RADIO_STATUS
[15:19:27.775625] [119] VFR_HUD
[15:19:28.574422] [132] RADIO
[15:19:28.577366] [132] RADIO_STATUS
[15:19:28.612969] [121] VFR_HUD
[15:19:29.392570] [122] HEARTBEAT
[15:19:29.399572] [123] SYS_STATUS
[15:19:29.494554] [133] RADIO
[15:19:29.496548] [133] RADIO_STATUS
[15:19:30.194806] [129] VFR_HUD
[15:19:30.425741] [130] HEARTBEAT
[15:19:30.538711] [134] RADIO
[15:19:30.541675] [134] RADIO_STATUS
[15:19:30.994789] [131] VFR_HUD
[15:19:31.463899] [132] HEARTBEAT
[15:19:31.470849] [133] ATTITUDE_TARGET
[15:19:31.563915] [135] RADIO
[15:19:31.565970] [135] RADIO_STATUS
[15:19:32.379071] [135] HEARTBEAT
[15:19:32.615083] [136] VFR_HUD
[15:19:32.636032] [136] RADIO
[15:19:32.639046] [136] RADIO_STATUS
[15:19:33.421283] [137] HEARTBEAT
[15:19:33.428205] [138] SYS_STATUS
[15:19:33.596313] [141] VFR_HUD
[15:19:33.612195] [137] RADIO
[15:19:33.615170] [137] RADIO_STATUS
[15:19:34.552388] [138] RADIO
[15:19:34.555410] [138] RADIO_STATUS
[15:19:35.028446] [144] VFR_HUD
[15:19:35.491494] [145] HEARTBEAT
[15:19:35.499513] [146] ATTITUDE_TARGET
[15:19:35.597517] [139] RADIO
[15:19:35.600506] [139] RADIO_STATUS
[15:19:36.621696] [140] RADIO
[15:19:36.624732] [140] RADIO_STATUS
[15:19:36.660749] [149] VFR_HUD
[15:19:37.439824] [150] HEARTBEAT
[15:19:37.446791] [151] SYS_STATUS
[15:19:37.541801] [141] RADIO
[15:19:37.544777] [141] RADIO_STATUS
[15:19:38.477053] [155] VFR_HUD
[15:19:38.480032] [156] HEARTBEAT
[15:19:38.586061] [142] RADIO
[15:19:38.589039] [142] RADIO_STATUS
[15:19:39.042115] [157] VFR_HUD
[15:19:39.401173] [158] HEARTBEAT
[15:19:39.409123] [159] ATTITUDE_TARGET
[15:19:39.613753] [143] RADIO
[15:19:39.614100] [143] RADIO_STATUS
[15:19:40.426321] [161] HEARTBEAT
[15:19:40.530268] [144] RADIO
[15:19:40.533229] [144] RADIO_STATUS
[15:19:40.651303] [162] VFR_HUD
[15:19:41.468547] [163] HEARTBEAT
[15:19:41.475606] [164] SYS_STATUS
[15:19:41.631488] [167] VFR_HUD
[15:19:41.679528] [145] RADIO
[15:19:41.682463] [145] RADIO_STATUS
[15:19:42.380699] [169] HEARTBEAT
[15:19:42.598662] [146] RADIO
[15:19:42.601745] [146] RADIO_STATUS
[15:19:43.069814] [170] VFR_HUD
[15:19:43.537856] [171] HEARTBEAT
[15:19:43.545792] [172] ATTITUDE_TARGET
[15:19:43.748992] [147] RADIO
[15:19:43.751911] [147] RADIO_STATUS
[15:19:43.786863] [173] VFR_HUD
[15:19:44.667961] [148] RADIO
[15:19:44.670912] [148] RADIO_STATUS
[15:19:45.381113] [176] HEARTBEAT
[15:19:45.388046] [177] SYS_STATUS
[15:19:45.427269] [178] BATTERY_STATUS
[15:19:45.435144] [179] ATTITUDE_TARGET
[15:19:45.440113] [180] VFR_HUD
[15:19:45.588079] [149] RADIO
[15:19:45.591038] [149] RADIO_STATUS
[15:19:46.523214] [181] VFR_HUD
[15:19:46.526273] [182] HEARTBEAT
[15:19:46.627260] [150] RADIO
[15:19:46.630184] [150] RADIO_STATUS
[15:19:46.983432] [183] VFR_HUD
[15:19:47.453806] [184] HEARTBEAT
[15:19:47.460395] [185] ATTITUDE_TARGET
[15:19:47.657639] [151] RADIO
[15:19:47.660422] [151] RADIO_STATUS
[15:19:47.777459] [186] VFR_HUD
[15:19:48.358635] [187] HEARTBEAT
[15:19:48.576619] [152] RADIO
[15:19:48.579560] [152] RADIO_STATUS
[15:19:48.697615] [188] VFR_HUD
[15:19:49.524871] [191] BATTERY_STATUS
[15:19:49.526725] [192] EXTENDED_SYS_STATE
[15:19:49.558814] [193] ATTITUDE_TARGET
[15:19:49.563749] [194] VFR_HUD
[15:19:49.566775] [195] SYSTEM_TIME
[15:19:49.616861] [153] RADIO
[15:19:49.619782] [153] RADIO_STATUS
[15:19:50.428040] [197] HEARTBEAT
[15:19:50.645957] [154] RADIO
[15:19:50.648946] [154] RADIO_STATUS
[15:19:51.590122] [200] ATTITUDE_TARGET
[15:19:51.686079] [155] RADIO
[15:19:51.689024] [155] RADIO_STATUS
[15:19:51.806174] [201] VFR_HUD
[15:19:52.372207] [202] HEARTBEAT
[15:19:52.715261] [156] RADIO
[15:19:52.718211] [156] RADIO_STATUS
[15:19:53.428419] [204] HEARTBEAT
[15:19:53.435385] [205] SYS_STATUS
[15:19:53.475551] [206] BATTERY_STATUS
[15:19:53.483395] [207] ATTITUDE_TARGET
[15:19:53.487441] [208] VFR_HUD
[15:19:53.635913] [157] RADIO
[15:19:53.638370] [157] RADIO_STATUS
[15:19:54.451573] [209] VFR_HUD
[15:19:54.454626] [210] HEARTBEAT
[15:19:54.675666] [158] RADIO
[15:19:54.678511] [158] RADIO_STATUS
[15:19:55.030584] [211] VFR_HUD
[15:19:55.499780] [212] HEARTBEAT
[15:19:55.507845] [213] ATTITUDE_TARGET
[15:19:55.599760] [159] RADIO
[15:19:55.602774] [159] RADIO_STATUS
[15:19:55.825752] [214] VFR_HUD
[15:19:56.400855] [215] HEARTBEAT
[15:19:56.624928] [160] RADIO
[15:19:56.627881] [160] RADIO_STATUS
[15:19:56.663013] [216] VFR_HUD
[15:19:57.569042] [219] BATTERY_STATUS
[15:19:57.720016] [161] RADIO
[15:19:57.722964] [161] RADIO_STATUS
[15:19:58.694222] [162] RADIO
[15:19:58.697202] [162] RADIO_STATUS
[15:19:59.056324] [224] VFR_HUD
[15:19:59.739442] [163] RADIO
[15:19:59.742342] [163] RADIO_STATUS
[15:19:59.854415] [227] VFR_HUD
[15:20:00.419473] [228] HEARTBEAT
[15:20:00.763542] [164] RADIO
[15:20:00.766516] [164] RADIO_STATUS
[15:20:01.471799] [230] HEARTBEAT
[15:20:01.478651] [231] SYS_STATUS
[15:20:01.596757] [232] BATTERY_STATUS
[15:20:01.604759] [233] ATTITUDE_TARGET
[15:20:01.634892] [234] VFR_HUD
[15:20:01.662730] [165] RADIO
[15:20:01.665675] [165] RADIO_STATUS
[15:20:02.158767] [235] VFR_HUD
[15:20:02.379817] [236] HEARTBEAT
[15:20:02.728824] [166] RADIO
[15:20:02.730815] [166] RADIO_STATUS
[15:20:03.542067] [238] HEARTBEAT
[15:20:03.550023] [239] ATTITUDE_TARGET
[15:20:03.753066] [167] RADIO
[15:20:03.756026] [167] RADIO_STATUS
[15:20:03.791062] [240] VFR_HUD
[15:20:04.449200] [241] HEARTBEAT
[15:20:04.575154] [242] VFR_HUD
[15:20:04.672192] [168] RADIO
[15:20:04.675246] [168] RADIO_STATUS
[15:20:05.385347] [243] HEARTBEAT
[15:20:05.392329] [244] SYS_STATUS
[15:20:05.432375] [245] BATTERY_STATUS
[15:20:05.440343] [246] ATTITUDE_TARGET
[15:20:05.444325] [247] VFR_HUD
[15:20:05.822443] [169] RADIO
[15:20:05.825390] [169] RADIO_STATUS
[15:20:06.172486] [248] VFR_HUD
[15:20:06.741625] [170] RADIO
[15:20:06.744555] [170] RADIO_STATUS
[15:20:06.982640] [250] VFR_HUD
[15:20:07.661710] [171] RADIO
[15:20:07.664660] [171] RADIO_STATUS
[15:20:08.362868] [254] HEARTBEAT
[15:20:08.812061] [172] RADIO
[15:20:08.815024] [172] RADIO_STATUS
[15:20:09.524073] [2] BATTERY_STATUS
[15:20:09.526009] [3] EXTENDED_SYS_STATE
[15:20:09.645031] [4] ATTITUDE_TARGET
[15:20:09.649978] [5] VFR_HUD
[15:20:09.653018] [6] SYSTEM_TIME
[15:20:09.683045] [173] RADIO
[15:20:09.686032] [173] RADIO_STATUS
[15:20:10.202078] [7] VFR_HUD
[15:20:10.432189] [8] HEARTBEAT
[15:20:10.771192] [174] RADIO
[15:20:10.774188] [174] RADIO_STATUS
[15:20:11.352500] [10] HEARTBEAT
[15:20:11.589355] [11] ATTITUDE_TARGET
[15:20:11.691518] [175] RADIO
[15:20:11.694407] [175] RADIO_STATUS
[15:20:11.817613] [12] VFR_HUD
[15:20:12.386474] [13] HEARTBEAT
[15:20:12.611488] [14] VFR_HUD
[15:20:12.720533] [176] RADIO
[15:20:12.723482] [176] RADIO_STATUS
[15:20:13.434225] [15] HEARTBEAT
[15:20:13.440665] [16] SYS_STATUS
[15:20:13.480639] [17] BATTERY_STATUS
[15:20:13.487610] [18] ATTITUDE_TARGET
[15:20:13.492594] [19] VFR_HUD
[15:20:13.760718] [177] RADIO
[15:20:13.763726] [177] RADIO_STATUS
[15:20:14.789864] [178] RADIO
[15:20:14.792811] [178] RADIO_STATUS
[15:20:15.038039] [22] VFR_HUD
[15:20:15.380020] [23] HEARTBEAT
[15:20:15.388010] [24] ATTITUDE_TARGET
[15:20:15.710009] [179] RADIO
[15:20:15.714113] [179] RADIO_STATUS
[15:20:15.842018] [25] VFR_HUD
[15:20:16.411200] [26] HEARTBEAT
[15:20:16.859173] [180] RADIO
[15:20:16.862116] [180] RADIO_STATUS
[15:20:17.574380] [30] BATTERY_STATUS
[15:20:17.686336] [31] ATTITUDE_TARGET
[15:20:17.691337] [32] VFR_HUD
[15:20:17.697270] [181] RADIO
[15:20:17.700283] [181] RADIO_STATUS
[15:20:18.249367] [33] VFR_HUD
[15:20:18.355461] [34] HEARTBEAT
[15:20:18.698445] [182] RADIO
[15:20:18.701423] [182] RADIO_STATUS
[15:20:19.409834] [36] HEARTBEAT
[15:20:19.416810] [37] ATTITUDE_TARGET
[15:20:19.738653] [183] RADIO
[15:20:19.741594] [183] RADIO_STATUS
[15:20:19.859737] [38] VFR_HUD
[15:20:20.424812] [39] HEARTBEAT
[15:20:20.554777] [40] VFR_HUD
[15:20:20.768786] [184] RADIO
[15:20:20.771733] [184] RADIO_STATUS
[15:20:21.475968] [41] HEARTBEAT
[15:20:21.482953] [42] SYS_STATUS
[15:20:21.807984] [185] RADIO
[15:20:21.810980] [185] RADIO_STATUS
[15:20:22.164019] [46] VFR_HUD
[15:20:22.733111] [186] RADIO
[15:20:22.736056] [186] RADIO_STATUS
[15:20:22.959135] [48] VFR_HUD
[15:20:23.428203] [49] HEARTBEAT
[15:20:23.435358] [50] ATTITUDE_TARGET
[15:20:23.757267] [187] RADIO
[15:20:23.760246] [187] RADIO_STATUS
[15:20:23.796262] [51] VFR_HUD
[15:20:24.453446] [52] HEARTBEAT
[15:20:24.579395] [53] VFR_HUD
[15:20:24.907482] [188] RADIO
[15:20:24.910400] [188] RADIO_STATUS
[15:20:25.385631] [54] HEARTBEAT
[15:20:25.391531] [55] SYS_STATUS
[15:20:25.549955] [58] VFR_HUD
[15:20:25.826579] [189] RADIO
[15:20:25.829635] [189] RADIO_STATUS
[15:20:26.412835] [60] HEARTBEAT
[15:20:26.747429] [190] RADIO
[15:20:26.749771] [190] RADIO_STATUS
[15:20:27.455960] [62] HEARTBEAT
[15:20:27.463877] [63] ATTITUDE_TARGET
[15:20:27.798018] [64] VFR_HUD
[15:20:27.819003] [191] RADIO
[15:20:27.822032] [191] RADIO_STATUS
[15:20:28.367081] [65] HEARTBEAT
[15:20:28.596196] [66] VFR_HUD
[15:20:28.815127] [192] RADIO
[15:20:28.818105] [192] RADIO_STATUS
[15:20:29.528411] [69] BATTERY_STATUS
[15:20:29.530258] [70] EXTENDED_SYS_STATE
[15:20:29.740427] [193] RADIO
[15:20:29.743516] [193] RADIO_STATUS
[15:20:30.211578] [74] VFR_HUD
[15:20:30.780440] [194] RADIO
[15:20:30.783433] [194] RADIO_STATUS
[15:20:31.369560] [77] HEARTBEAT
[15:20:31.377637] [78] ATTITUDE_TARGET
[15:20:31.804691] [195] RADIO
[15:20:31.807640] [195] RADIO_STATUS
[15:20:31.842947] [79] VFR_HUD
[15:20:32.380878] [80] HEARTBEAT
[15:20:32.614716] [81] VFR_HUD
[15:20:32.953802] [196] RADIO
[15:20:32.956803] [196] RADIO_STATUS
[15:20:33.874024] [197] RADIO
[15:20:33.877009] [197] RADIO_STATUS
[15:20:34.345048] [88] HEARTBEAT
[15:20:34.794127] [198] RADIO
[15:20:34.796035] [198] RADIO_STATUS
[15:20:35.508201] [90] HEARTBEAT
[15:20:35.516160] [91] ATTITUDE_TARGET
[15:20:35.834267] [92] VFR_HUD
[15:20:35.861147] [199] RADIO
[15:20:35.864221] [199] RADIO_STATUS
[15:20:36.415319] [93] HEARTBEAT
[15:20:36.644382] [94] VFR_HUD
[15:20:36.863789] [200] RADIO
[15:20:36.866342] [200] RADIO_STATUS
[15:20:37.577547] [97] BATTERY_STATUS
[15:20:37.809646] [98] ATTITUDE_TARGET
[15:20:37.814580] [99] VFR_HUD
[15:20:38.012594] [201] RADIO
[15:20:38.015540] [201] RADIO_STATUS
[15:20:38.253639] [100] VFR_HUD
[15:20:38.359279] [101] HEARTBEAT
[15:20:38.932710] [202] RADIO
[15:20:38.935965] [202] RADIO_STATUS
[15:20:38.970736] [102] VFR_HUD
[15:20:39.416902] [103] HEARTBEAT
[15:20:39.424816] [104] ATTITUDE_TARGET
[15:20:39.851945] [203] RADIO
[15:20:39.854889] [203] RADIO_STATUS
[15:20:39.891894] [105] VFR_HUD
[15:20:40.428027] [106] HEARTBEAT
[15:20:40.557116] [107] VFR_HUD
[15:20:41.001099] [204] RADIO
[15:20:41.004031] [204] RADIO_STATUS
[15:20:41.367232] [109] SYS_STATUS
[15:20:41.486192] [110] BATTERY_STATUS
[15:20:41.598192] [111] ATTITUDE_TARGET
[15:20:41.603192] [112] VFR_HUD
[15:20:41.921373] [205] RADIO
[15:20:41.924522] [205] RADIO_STATUS
[15:20:42.162281] [113] VFR_HUD
[15:20:42.387392] [114] HEARTBEAT
[15:20:42.841362] [206] RADIO
[15:20:42.843334] [206] RADIO_STATUS
[15:20:42.961404] [115] VFR_HUD
[15:20:43.555522] [116] HEARTBEAT
[15:20:43.562509] [117] ATTITUDE_TARGET
[15:20:43.771548] [118] VFR_HUD
[15:20:43.880516] [207] RADIO
[15:20:43.883765] [207] RADIO_STATUS
[15:20:44.909791] [208] RADIO
[15:20:44.912695] [208] RADIO_STATUS
[15:20:45.949890] [209] RADIO
[15:20:45.952868] [209] RADIO_STATUS
[15:20:46.179960] [126] VFR_HUD
[15:20:46.406072] [127] HEARTBEAT
[15:20:46.979130] [210] RADIO
[15:20:46.982049] [210] RADIO_STATUS
[15:20:47.459196] [129] HEARTBEAT
[15:20:47.466127] [130] ATTITUDE_TARGET
[15:20:47.898214] [211] RADIO
[15:20:47.901291] [211] RADIO_STATUS
[15:20:48.364311] [132] HEARTBEAT
[15:20:48.604380] [133] VFR_HUD
[15:20:49.048388] [212] RADIO
[15:20:49.051425] [212] RADIO_STATUS
[15:20:49.530482] [136] BATTERY_STATUS
[15:20:49.532415] [137] EXTENDED_SYS_STATE
[15:20:49.684730] [138] ATTITUDE_TARGET
[15:20:49.688453] [139] VFR_HUD
[15:20:49.692690] [140] SYSTEM_TIME
[15:20:49.967544] [213] RADIO
[15:20:49.970548] [213] RADIO_STATUS
[15:20:50.213660] [141] VFR_HUD
[15:20:50.433653] [142] HEARTBEAT
[15:20:50.886749] [214] RADIO
[15:20:50.889877] [214] RADIO_STATUS
[15:20:51.007730] [143] VFR_HUD
[15:20:51.371842] [144] HEARTBEAT
[15:20:51.379862] [145] ATTITUDE_TARGET
[15:20:51.822901] [146] VFR_HUD
[15:20:51.943826] [215] RADIO
[15:20:51.946796] [215] RADIO_STATUS
[15:20:52.957897] [216] RADIO
[15:20:52.960084] [216] RADIO_STATUS
[15:20:53.882212] [217] RADIO
[15:20:53.885225] [217] RADIO_STATUS
[15:20:54.227236] [154] VFR_HUD
[15:20:54.347278] [155] HEARTBEAT
[15:20:55.026388] [218] RADIO
[15:20:55.029405] [218] RADIO_STATUS
[15:20:55.158408] [156] VFR_HUD
[15:20:55.385463] [157] HEARTBEAT
[15:20:55.393436] [158] ATTITUDE_TARGET
[15:20:55.944549] [219] RADIO
[15:20:55.947502] [219] RADIO_STATUS
[15:20:56.417055] [160] HEARTBEAT
[15:20:56.644737] [161] VFR_HUD
[15:20:57.094746] [220] RADIO
[15:20:57.097915] [220] RADIO_STATUS
[15:20:57.573892] [164] BATTERY_STATUS
[15:20:57.691835] [165] ATTITUDE_TARGET
[15:20:57.697866] [166] VFR_HUD
[15:20:57.936840] [221] RADIO
[15:20:57.939790] [221] RADIO_STATUS
[15:20:58.254937] [167] VFR_HUD
[15:20:58.934085] [222] RADIO
[15:20:58.937050] [222] RADIO_STATUS
[15:20:58.972085] [169] VFR_HUD
[15:20:59.419177] [170] HEARTBEAT
[15:20:59.427161] [171] ATTITUDE_TARGET
[15:20:59.869271] [172] VFR_HUD
[15:20:59.990278] [223] RADIO
[15:20:59.993181] [223] RADIO_STATUS
[15:21:00.560959] [174] VFR_HUD
[15:21:01.003352] [224] RADIO
[15:21:01.006342] [224] RADIO_STATUS
[15:21:01.361448] [175] HEARTBEAT
[15:21:01.368628] [176] SYS_STATUS
[15:21:01.923516] [225] RADIO
[15:21:01.926527] [225] RADIO_STATUS
[15:21:02.163630] [180] VFR_HUD
[15:21:02.394689] [181] HEARTBEAT
[15:21:02.995761] [226] RADIO
[15:21:02.998745] [226] RADIO_STATUS
[15:21:03.433030] [183] HEARTBEAT
[15:21:03.440928] [184] ATTITUDE_TARGET
[15:21:03.992886] [227] RADIO
[15:21:03.995866] [227] RADIO_STATUS
[15:21:04.464008] [186] HEARTBEAT
[15:21:04.574033] [187] VFR_HUD
[15:21:05.143089] [228] RADIO
[15:21:05.146057] [228] RADIO_STATUS
[15:21:05.391125] [188] HEARTBEAT
[15:21:05.398185] [189] SYS_STATUS
[15:21:05.952247] [229] RADIO
[15:21:05.955194] [229] RADIO_STATUS
[15:21:06.409297] [194] HEARTBEAT
[15:21:06.982388] [230] RADIO
[15:21:06.985385] [230] RADIO_STATUS
[15:21:07.021391] [195] VFR_HUD
[15:21:07.462499] [196] HEARTBEAT
[15:21:07.470497] [197] ATTITUDE_TARGET
[15:21:07.792494] [198] VFR_HUD
[15:21:08.021624] [231] RADIO
[15:21:08.024739] [231] RADIO_STATUS
[15:21:08.607788] [200] VFR_HUD
[15:21:09.051786] [232] RADIO
[15:21:09.054766] [232] RADIO_STATUS
[15:21:09.409822] [201] HEARTBEAT
[15:21:09.415966] [202] SYS_STATUS
[15:21:09.970844] [233] RADIO
[15:21:09.973805] [233] RADIO_STATUS
[15:21:10.217009] [208] VFR_HUD
[15:21:10.437066] [209] HEARTBEAT
[15:21:11.038072] [234] RADIO
[15:21:11.041151] [234] RADIO_STATUS
[15:21:11.370101] [211] HEARTBEAT
[15:21:11.378050] [212] ATTITUDE_TARGET
[15:21:12.040204] [235] RADIO
[15:21:12.043219] [235] RADIO_STATUS
[15:21:12.396321] [214] HEARTBEAT
[15:21:12.621240] [215] VFR_HUD
[15:21:13.190379] [236] RADIO
[15:21:13.192353] [236] RADIO_STATUS
[15:21:13.437405] [216] HEARTBEAT
[15:21:13.444444] [217] SYS_STATUS
[15:21:13.612423] [220] VFR_HUD
[15:21:13.998511] [237] RADIO
[15:21:14.001518] [237] RADIO_STATUS
[15:21:14.350647] [222] HEARTBEAT
[15:21:15.028649] [238] RADIO
[15:21:15.031620] [238] RADIO_STATUS
[15:21:15.149811] [223] VFR_HUD
[15:21:15.507897] [224] HEARTBEAT
[15:21:15.515784] [225] ATTITUDE_TARGET
[15:21:16.068900] [239] RADIO
[15:21:16.070874] [239] RADIO_STATUS
[15:21:16.648932] [228] VFR_HUD
[15:21:17.098010] [240] RADIO
[15:21:17.100990] [240] RADIO_STATUS
[15:21:17.340102] [229] HEARTBEAT
[15:21:17.469081] [230] SYS_STATUS
[15:21:17.476198] [231] BATTERY_STATUS
[15:21:18.018158] [241] RADIO
[15:21:18.021105] [241] RADIO_STATUS
[15:21:18.264378] [234] VFR_HUD
[15:21:18.376185] [235] HEARTBEAT
[15:21:18.954199] [236] VFR_HUD
[15:21:19.168257] [242] RADIO
[15:21:19.171168] [242] RADIO_STATUS
[15:21:19.423375] [237] HEARTBEAT
[15:21:19.430308] [238] ATTITUDE_TARGET
[15:21:20.087406] [243] RADIO
[15:21:20.090311] [243] RADIO_STATUS
[15:21:20.443512] [240] HEARTBEAT
[15:21:20.558471] [241] VFR_HUD
[15:21:21.240591] [244] RADIO
[15:21:21.243536] [244] RADIO_STATUS
[15:21:21.491662] [244] BATTERY_STATUS
[15:21:22.051769] [245] RADIO
[15:21:22.054762] [245] RADIO_STATUS
[15:21:22.398994] [248] HEARTBEAT
[15:21:22.978832] [249] VFR_HUD
[15:21:23.076883] [246] RADIO
[15:21:23.079830] [246] RADIO_STATUS
[15:21:23.560972] [250] HEARTBEAT
[15:21:23.568983] [251] ATTITUDE_TARGET
[15:21:23.777040] [252] VFR_HUD
[15:21:24.122223] [247] RADIO
[15:21:24.124991] [247] RADIO_STATUS
[15:21:24.343091] [253] HEARTBEAT
[15:21:25.041135] [248] RADIO
[15:21:25.044149] [248] RADIO_STATUS
[15:21:25.399242] [255] HEARTBEAT
[15:21:25.406306] [0] SYS_STATUS
[15:21:25.446243] [1] BATTERY_STATUS
[15:21:25.453464] [2] ATTITUDE_TARGET
[15:21:25.458272] [3] VFR_HUD
[15:21:26.066342] [249] RADIO
[15:21:26.069394] [249] RADIO_STATUS
[15:21:26.198375] [4] VFR_HUD
[15:21:26.413772] [5] HEARTBEAT
[15:21:27.001551] [6] VFR_HUD
[15:21:27.215549] [250] RADIO
[15:21:27.218542] [250] RADIO_STATUS
[15:21:27.470605] [7] HEARTBEAT
[15:21:27.478555] [8] ATTITUDE_TARGET
[15:21:27.795579] [9] VFR_HUD
[15:21:28.135697] [251] RADIO
[15:21:28.137584] [251] RADIO_STATUS
[15:21:28.371670] [10] HEARTBEAT
[15:21:28.610799] [11] VFR_HUD
[15:21:29.055290] [252] RADIO
[15:21:29.057831] [252] RADIO_STATUS
[15:21:29.542963] [14] BATTERY_STATUS
[15:21:29.544822] [15] EXTENDED_SYS_STATE
[15:21:29.577069] [16] ATTITUDE_TARGET
[15:21:29.581997] [17] VFR_HUD
[15:21:29.584958] [18] SYSTEM_TIME
[15:21:30.095106] [253] RADIO
[15:21:30.097988] [253] RADIO_STATUS
[15:21:30.441278] [20] HEARTBEAT
[15:21:31.015150] [21] VFR_HUD
[15:21:31.124131] [254] RADIO
[15:21:31.127103] [254] RADIO_STATUS
[15:21:31.824395] [24] VFR_HUD
[15:21:32.164282] [255] RADIO
[15:21:32.166271] [255] RADIO_STATUS
[15:21:32.390438] [25] HEARTBEAT
[15:21:33.083500] [0] RADIO
[15:21:33.088534] [0] RADIO_STATUS
[15:21:33.441632] [27] HEARTBEAT
[15:21:33.448508] [28] SYS_STATUS
[15:21:33.566527] [29] BATTERY_STATUS
[15:21:33.574551] [30] ATTITUDE_TARGET
[15:21:33.604553] [31] VFR_HUD
[15:21:34.113697] [1] RADIO
[15:21:34.115735] [1] RADIO_STATUS
[15:21:34.151605] [32] VFR_HUD
[15:21:34.349691] [33] HEARTBEAT
[15:21:35.043726] [34] VFR_HUD
[15:21:35.262648] [2] RADIO
[15:21:35.265793] [2] RADIO_STATUS
[15:21:35.511777] [35] HEARTBEAT
[15:21:35.519769] [36] ATTITUDE_TARGET
[15:21:35.843791] [37] VFR_HUD
[15:21:36.185856] [3] RADIO
[15:21:36.188834] [3] RADIO_STATUS
[15:21:36.419030] [38] HEARTBEAT
[15:21:36.657939] [39] VFR_HUD
[15:21:37.102146] [4] RADIO
[15:21:37.104995] [4] RADIO_STATUS
[15:21:37.339043] [40] HEARTBEAT
[15:21:37.359141] [41] SYS_STATUS
[15:21:37.402085] [42] BATTERY_STATUS
[15:21:37.410076] [43] ATTITUDE_TARGET
[15:21:37.415191] [44] VFR_HUD
[15:21:38.144285] [5] RADIO
[15:21:38.146201] [5] RADIO_STATUS
[15:21:38.500273] [45] VFR_HUD
[15:21:38.504781] [46] HEARTBEAT
[15:21:38.954313] [47] VFR_HUD
[15:21:39.173464] [6] RADIO
[15:21:39.176444] [6] RADIO_STATUS
[15:21:40.212572] [7] RADIO
[15:21:40.215546] [7] RADIO_STATUS
[15:21:40.438662] [51] HEARTBEAT
[15:21:41.132737] [8] RADIO
[15:21:41.135758] [8] RADIO_STATUS
[15:21:41.491869] [55] BATTERY_STATUS
[15:21:41.609792] [56] ATTITUDE_TARGET
[15:21:41.614796] [57] VFR_HUD
[15:21:42.162025] [9] RADIO
[15:21:42.164935] [9] RADIO_STATUS
[15:21:42.293919] [58] VFR_HUD
[15:21:42.402960] [59] HEARTBEAT
[15:21:43.312094] [10] RADIO
[15:21:43.315065] [10] RADIO_STATUS
[15:21:43.346215] [61] HEARTBEAT
[15:21:43.368168] [62] ATTITUDE_TARGET
[15:21:43.787241] [63] VFR_HUD
[15:21:44.231216] [11] RADIO
[15:21:44.234331] [11] RADIO_STATUS
[15:21:44.357580] [64] HEARTBEAT
[15:21:44.593298] [65] VFR_HUD
[15:21:45.150424] [12] RADIO
[15:21:45.153644] [12] RADIO_STATUS
[15:21:45.404447] [66] HEARTBEAT
[15:21:45.411435] [67] SYS_STATUS
[15:21:45.450431] [68] BATTERY_STATUS
[15:21:45.458439] [69] ATTITUDE_TARGET
[15:21:45.463410] [70] VFR_HUD
[15:21:46.197578] [13] RADIO
[15:21:46.200595] [13] RADIO_STATUS
[15:21:46.553648] [71] VFR_HUD
[15:21:46.556760] [72] HEARTBEAT
[15:21:47.007783] [73] VFR_HUD
[15:21:47.221789] [14] RADIO
[15:21:47.224741] [14] RADIO_STATUS
[15:21:47.337856] [74] HEARTBEAT
[15:21:48.141877] [15] RADIO
[15:21:48.144819] [15] RADIO_STATUS
[15:21:48.382916] [77] HEARTBEAT
[15:21:49.291166] [16] RADIO
[15:21:49.294130] [16] RADIO_STATUS
[15:21:49.419137] [79] HEARTBEAT
[15:21:49.426041] [80] SYS_STATUS
[15:21:49.549083] [81] BATTERY_STATUS
[15:21:49.551071] [82] EXTENDED_SYS_STATE
[15:21:49.583088] [83] ATTITUDE_TARGET
[15:21:49.588039] [84] VFR_HUD
[15:21:49.591093] [85] SYSTEM_TIME
[15:21:50.211174] [17] RADIO
[15:21:50.213151] [17] RADIO_STATUS
[15:21:50.343271] [86] VFR_HUD
[15:21:50.350232] [87] HEARTBEAT
[15:21:51.152466] [18] RADIO
[15:21:51.155358] [18] RADIO_STATUS
[15:21:51.380415] [89] HEARTBEAT
[15:21:51.388404] [90] ATTITUDE_TARGET
[15:21:51.833719] [91] VFR_HUD
[15:21:52.279573] [19] RADIO
[15:21:52.282537] [19] RADIO_STATUS
[15:21:52.405680] [92] HEARTBEAT
[15:21:52.641572] [93] VFR_HUD
[15:21:53.199658] [20] RADIO
[15:21:53.202702] [20] RADIO_STATUS
[15:21:53.447787] [94] HEARTBEAT
[15:21:53.455316] [95] SYS_STATUS
[15:21:53.611793] [98] VFR_HUD
[15:21:54.240834] [99] VFR_HUD
[15:21:54.273037] [21] RADIO
[15:21:54.275818] [21] RADIO_STATUS
[15:21:55.054996] [101] VFR_HUD
[15:21:55.171011] [22] RADIO
[15:21:55.173925] [22] RADIO_STATUS
[15:21:55.399039] [102] HEARTBEAT
[15:21:55.409799] [103] ATTITUDE_TARGET
[15:21:55.747252] [104] VFR_HUD
[15:21:56.189223] [23] RADIO
[15:21:56.192157] [23] RADIO_STATUS
[15:21:56.425350] [105] HEARTBEAT
[15:21:57.233408] [24] RADIO
[15:21:57.236375] [24] RADIO_STATUS
[15:21:57.345397] [107] HEARTBEAT
[15:21:57.364335] [108] SYS_STATUS
[15:21:58.258531] [25] RADIO
[15:21:58.261499] [25] RADIO_STATUS
[15:21:58.327539] [109] BATTERY_STATUS
[15:21:58.334600] [110] ATTITUDE_TARGET
[15:21:58.339562] [111] VFR_HUD
[15:21:58.344477] [112] VFR_HUD
[15:21:58.350540] [113] HEARTBEAT
[15:21:59.407673] [26] RADIO
[15:21:59.410634] [26] RADIO_STATUS
[15:21:59.662850] [115] HEARTBEAT
[15:21:59.670763] [116] ATTITUDE_TARGET
[15:21:59.758744] [117] VFR_HUD
[15:22:00.327986] [27] RADIO
[15:22:00.331066] [27] RADIO_STATUS
[15:22:00.361848] [118] HEARTBEAT
[15:22:00.567884] [119] VFR_HUD
[15:22:01.247996] [28] RADIO
[15:22:01.249969] [28] RADIO_STATUS
[15:22:01.497112] [122] BATTERY_STATUS
[15:22:02.183197] [125] VFR_HUD
[15:22:02.299221] [29] RADIO
[15:22:02.302187] [29] RADIO_STATUS
[15:22:02.978456] [127] VFR_HUD
[15:22:03.207295] [30] RADIO
[15:22:03.210295] [30] RADIO_STATUS
[15:22:03.447443] [128] HEARTBEAT
[15:22:03.454373] [129] ATTITUDE_TARGET
[15:22:03.792521] [130] VFR_HUD
[15:22:04.236479] [31] RADIO
[15:22:04.239522] [31] RADIO_STATUS
[15:22:04.352513] [131] HEARTBEAT
[15:22:04.587609] [132] VFR_HUD
[15:22:05.275688] [32] RADIO
[15:22:05.278721] [32] RADIO_STATUS
[15:22:05.409795] [133] HEARTBEAT
[15:22:05.416564] [134] SYS_STATUS
[15:22:06.305862] [33] RADIO
[15:22:06.308842] [33] RADIO_STATUS
[15:22:06.349858] [138] VFR_HUD
[15:22:06.352973] [139] HEARTBEAT
[15:22:07.225986] [34] RADIO
[15:22:07.228949] [34] RADIO_STATUS
[15:22:07.341987] [141] HEARTBEAT
[15:22:07.479035] [142] ATTITUDE_TARGET
[15:22:07.806084] [143] VFR_HUD
[15:22:08.375171] [35] RADIO
[15:22:08.378126] [35] RADIO_STATUS
[15:22:08.409734] [144] HEARTBEAT
[15:22:08.615200] [145] VFR_HUD
[15:22:09.294256] [36] RADIO
[15:22:09.297279] [36] RADIO_STATUS
[15:22:09.547509] [148] BATTERY_STATUS
[15:22:09.549384] [149] EXTENDED_SYS_STATE
[15:22:10.225531] [153] VFR_HUD
[15:22:10.334484] [37] RADIO
[15:22:10.337402] [37] RADIO_STATUS
[15:22:11.024634] [155] VFR_HUD
[15:22:11.259661] [38] RADIO
[15:22:11.262566] [38] RADIO_STATUS
[15:22:11.389725] [156] HEARTBEAT
[15:22:11.397698] [157] ATTITUDE_TARGET
[15:22:11.834672] [158] VFR_HUD
[15:22:12.283804] [39] RADIO
[15:22:12.286722] [39] RADIO_STATUS
[15:22:12.399795] [159] HEARTBEAT
[15:22:12.633817] [160] VFR_HUD
[15:22:13.328929] [40] RADIO
[15:22:13.331900] [40] RADIO_STATUS
[15:22:13.456988] [161] HEARTBEAT
[15:22:13.463922] [162] SYS_STATUS
[15:22:14.353081] [41] RADIO
[15:22:14.356054] [41] RADIO_STATUS
[15:22:14.604232] [166] VFR_HUD
[15:22:14.607098] [167] HEARTBEAT
[15:22:15.273246] [42] RADIO
[15:22:15.276213] [42] RADIO_STATUS
[15:22:15.527353] [169] HEARTBEAT
[15:22:15.535316] [170] ATTITUDE_TARGET
[15:22:15.743288] [171] VFR_HUD
[15:22:16.422610] [43] RADIO
[15:22:16.425552] [43] RADIO_STATUS
[15:22:16.671512] [172] HEARTBEAT
[15:22:16.676499] [173] VFR_HUD
[15:22:17.341634] [44] RADIO
[15:22:17.344627] [44] RADIO_STATUS
[15:22:17.596683] [176] BATTERY_STATUS
[15:22:17.828821] [177] ATTITUDE_TARGET
[15:22:17.834122] [178] VFR_HUD
[15:22:18.151800] [179] VFR_HUD
[15:22:18.377900] [180] HEARTBEAT
[15:22:18.408783] [45] RADIO
[15:22:18.411746] [45] RADIO_STATUS
[15:22:18.961864] [181] VFR_HUD
[15:22:19.305941] [46] RADIO
[15:22:19.308879] [46] RADIO_STATUS
[15:22:19.430975] [182] HEARTBEAT
[15:22:19.439046] [183] ATTITUDE_TARGET
[15:22:20.331084] [47] RADIO
[15:22:20.334049] [47] RADIO_STATUS
[15:22:20.447173] [185] HEARTBEAT
[15:22:20.576139] [186] VFR_HUD
[15:22:21.398363] [48] RADIO
[15:22:21.401304] [48] RADIO_STATUS
[15:22:21.500354] [189] BATTERY_STATUS
[15:22:21.847479] [190] ATTITUDE_TARGET
[15:22:21.852455] [191] VFR_HUD
[15:22:22.186426] [192] VFR_HUD
[15:22:22.400476] [49] RADIO
[15:22:22.405800] [49] RADIO_STATUS
[15:22:22.516459] [193] HEARTBEAT
[15:22:22.980550] [194] VFR_HUD
[15:22:23.319680] [50] RADIO
[15:22:23.322822] [50] RADIO_STATUS
[15:22:23.367677] [195] HEARTBEAT
[15:22:23.375649] [196] ATTITUDE_TARGET
[15:22:23.795770] [197] VFR_HUD
[15:22:24.468851] [51] RADIO
[15:22:24.471825] [51] RADIO_STATUS
[15:22:24.600843] [199] VFR_HUD
[15:22:25.389051] [52] RADIO
[15:22:25.391994] [52] RADIO_STATUS
[15:22:25.639186] [202] BATTERY_STATUS
[15:22:26.199186] [205] VFR_HUD
[15:22:26.425191] [206] HEARTBEAT
[15:22:26.456133] [53] RADIO
[15:22:26.459263] [53] RADIO_STATUS
[15:22:27.009265] [207] VFR_HUD
[15:22:27.344328] [208] HEARTBEAT
[15:22:27.367337] [209] ATTITUDE_TARGET
[15:22:27.376414] [54] RADIO
[15:22:27.379239] [54] RADIO_STATUS
[15:22:28.377453] [55] RADIO
[15:22:28.380407] [55] RADIO_STATUS
[15:22:28.411512] [211] HEARTBEAT
[15:22:28.618726] [212] VFR_HUD
[15:22:29.527804] [56] RADIO
[15:22:29.530585] [56] RADIO_STATUS
[15:22:29.568715] [215] BATTERY_STATUS
[15:22:29.598740] [216] EXTENDED_SYS_STATE
[15:22:29.606721] [217] ATTITUDE_TARGET
[15:22:29.611654] [218] VFR_HUD
[15:22:29.614675] [219] SYSTEM_TIME
[15:22:30.353834] [57] RADIO
[15:22:30.356779] [57] RADIO_STATUS
[15:22:30.468803] [220] VFR_HUD
[15:22:30.470775] [221] HEARTBEAT
[15:22:31.027922] [222] VFR_HUD
[15:22:31.367009] [58] RADIO
[15:22:31.370005] [58] RADIO_STATUS
[15:22:31.414979] [223] HEARTBEAT
[15:22:31.422949] [224] ATTITUDE_TARGET
[15:22:31.843015] [225] VFR_HUD
[15:22:32.517130] [59] RADIO
[15:22:32.519171] [59] RADIO_STATUS
[15:22:32.555328] [227] VFR_HUD
[15:22:33.436294] [60] RADIO
[15:22:33.439205] [60] RADIO_STATUS
[15:22:34.246421] [233] VFR_HUD
[15:22:34.367444] [234] HEARTBEAT
[15:22:34.476544] [61] RADIO
[15:22:34.478411] [61] RADIO_STATUS
[15:22:35.061612] [235] VFR_HUD
[15:22:35.505634] [62] RADIO
[15:22:35.508645] [62] RADIO_STATUS
[15:22:35.552615] [236] HEARTBEAT
[15:22:35.561819] [237] ATTITUDE_TARGET
[15:22:36.425789] [63] RADIO
[15:22:36.428770] [63] RADIO_STATUS
[15:22:36.459848] [239] HEARTBEAT
[15:22:36.546794] [240] VFR_HUD
[15:22:37.363935] [241] HEARTBEAT
[15:22:37.370925] [242] SYS_STATUS
[15:22:37.548910] [64] RADIO
[15:22:37.551922] [64] RADIO_STATUS
[15:22:38.381195] [247] HEARTBEAT
[15:22:38.413390] [65] RADIO
[15:22:38.416120] [65] RADIO_STATUS
[15:22:38.971188] [248] VFR_HUD
[15:22:39.415250] [66] RADIO
[15:22:39.418348] [66] RADIO_STATUS
[15:22:39.669273] [249] HEARTBEAT
[15:22:39.677492] [250] ATTITUDE_TARGET
[15:22:39.765304] [251] VFR_HUD
[15:22:40.564424] [67] RADIO
[15:22:40.567439] [67] RADIO_STATUS
[15:22:40.603590] [253] VFR_HUD
[15:22:41.382598] [254] HEARTBEAT
[15:22:41.389634] [255] SYS_STATUS
[15:22:41.484606] [68] RADIO
[15:22:41.487633] [68] RADIO_STATUS
[15:22:42.420873] [3] VFR_HUD
[15:22:42.423853] [4] HEARTBEAT
[15:22:42.633788] [69] RADIO
[15:22:42.636729] [69] RADIO_STATUS
[15:22:42.984812] [5] VFR_HUD
[15:22:43.453861] [6] HEARTBEAT
[15:22:43.462051] [7] ATTITUDE_TARGET
[15:22:43.471818] [70] RADIO
[15:22:43.474801] [70] RADIO_STATUS
[15:22:44.360128] [9] HEARTBEAT
[15:22:44.473962] [71] RADIO
[15:22:44.476998] [71] RADIO_STATUS
[15:22:44.594033] [10] VFR_HUD
[15:22:45.411347] [11] HEARTBEAT
[15:22:45.418208] [12] SYS_STATUS
[15:22:45.602202] [72] RADIO
[15:22:45.605231] [72] RADIO_STATUS
[15:22:46.429544] [17] HEARTBEAT
[15:22:46.461335] [73] RADIO
[15:22:46.464635] [73] RADIO_STATUS
[15:22:47.014430] [18] VFR_HUD
[15:22:47.463505] [74] RADIO
[15:22:47.466518] [74] RADIO_STATUS
[15:22:47.813550] [21] VFR_HUD
[15:22:48.612599] [75] RADIO
[15:22:48.615570] [75] RADIO_STATUS
[15:22:48.732716] [23] VFR_HUD
[15:22:49.429836] [24] HEARTBEAT
[15:22:49.436806] [25] SYS_STATUS
[15:22:49.531761] [76] RADIO
[15:22:49.534795] [76] RADIO_STATUS
[15:22:50.341967] [31] VFR_HUD
[15:22:50.456963] [32] HEARTBEAT
[15:22:50.575981] [77] RADIO
[15:22:50.578973] [77] RADIO_STATUS
[15:22:51.032050] [33] VFR_HUD
[15:22:51.396162] [34] HEARTBEAT
[15:22:51.404169] [35] ATTITUDE_TARGET
[15:22:51.491119] [78] RADIO
[15:22:51.494134] [78] RADIO_STATUS
[15:22:52.416456] [37] HEARTBEAT
[15:22:52.520369] [79] RADIO
[15:22:52.523329] [79] RADIO_STATUS
[15:22:52.641316] [38] VFR_HUD
[15:22:53.463509] [39] HEARTBEAT
[15:22:53.470493] [40] SYS_STATUS
[15:22:53.509610] [41] BATTERY_STATUS
[15:22:53.517583] [42] ATTITUDE_TARGET
[15:22:53.522540] [43] VFR_HUD
[15:22:53.565532] [80] RADIO
[15:22:53.568490] [80] RADIO_STATUS
[15:22:54.381689] [44] VFR_HUD
[15:22:54.384722] [45] HEARTBEAT
[15:22:54.589747] [81] RADIO
[15:22:54.592802] [81] RADIO_STATUS
[15:22:55.059788] [46] VFR_HUD
[15:22:55.510176] [82] RADIO
[15:22:55.512918] [82] RADIO_STATUS
[15:22:55.556916] [47] HEARTBEAT
[15:22:55.564853] [48] ATTITUDE_TARGET
[15:22:55.749872] [49] VFR_HUD
[15:22:56.659070] [83] RADIO
[15:22:56.662012] [83] RADIO_STATUS
[15:22:57.372225] [52] HEARTBEAT
[15:22:57.379254] [53] SYS_STATUS
[15:22:57.418213] [54] BATTERY_STATUS
[15:22:57.426392] [55] ATTITUDE_TARGET
[15:22:57.431193] [56] VFR_HUD
[15:22:57.578365] [84] RADIO
[15:22:57.581187] [84] RADIO_STATUS
[15:22:58.395380] [57] VFR_HUD
[15:22:58.397401] [58] HEARTBEAT
[15:22:58.498423] [85] RADIO
[15:22:58.501419] [85] RADIO_STATUS
[15:22:58.974504] [59] VFR_HUD
[15:22:59.443538] [60] HEARTBEAT
[15:22:59.450608] [61] ATTITUDE_TARGET
[15:22:59.537570] [86] RADIO
[15:22:59.540523] [86] RADIO_STATUS
[15:22:59.768715] [62] VFR_HUD
[15:23:00.343706] [63] HEARTBEAT
[15:23:00.567769] [87] RADIO
[15:23:00.570788] [87] RADIO_STATUS
[15:23:00.605882] [64] VFR_HUD
[15:23:01.512908] [67] BATTERY_STATUS
[15:23:01.635889] [88] RADIO
[15:23:01.637876] [88] RADIO_STATUS
[15:23:01.744050] [68] ATTITUDE_TARGET
[15:23:01.748871] [69] VFR_HUD
[15:23:02.414403] [71] HEARTBEAT
[15:23:02.528078] [89] RADIO
[15:23:02.530012] [89] RADIO_STATUS
[15:23:02.988087] [72] VFR_HUD
[15:23:03.557324] [90] RADIO
[15:23:03.560208] [90] RADIO_STATUS
[15:23:03.604242] [74] ATTITUDE_TARGET
[15:23:03.798232] [75] VFR_HUD
[15:23:04.363382] [76] HEARTBEAT
[15:23:04.707612] [91] RADIO
[15:23:04.710425] [91] RADIO_STATUS
[15:23:05.414559] [78] HEARTBEAT
[15:23:05.421514] [79] SYS_STATUS
[15:23:05.540585] [80] BATTERY_STATUS
[15:23:05.548550] [81] ATTITUDE_TARGET
[15:23:05.578501] [82] VFR_HUD
[15:23:05.605545] [92] RADIO
[15:23:05.608482] [92] RADIO_STATUS
[15:23:06.441651] [84] HEARTBEAT
[15:23:06.546644] [93] RADIO
[15:23:06.549587] [93] RADIO_STATUS
[15:23:07.016712] [85] VFR_HUD
[15:23:07.485886] [86] HEARTBEAT
[15:23:07.493816] [87] ATTITUDE_TARGET
[15:23:07.585846] [94] RADIO
[15:23:07.588783] [94] RADIO_STATUS
[15:23:07.816849] [88] VFR_HUD
[15:23:08.391970] [89] HEARTBEAT
[15:23:08.615995] [95] RADIO
[15:23:08.620817] [95] RADIO_STATUS
[15:23:08.654951] [90] VFR_HUD
[15:23:09.558493] [93] BATTERY_STATUS
[15:23:09.560062] [94] EXTENDED_SYS_STATE
[15:23:09.717099] [96] RADIO
[15:23:09.720069] [96] RADIO_STATUS
[15:23:10.581297] [97] RADIO
[15:23:10.583248] [97] RADIO_STATUS
[15:23:11.036349] [100] VFR_HUD
[15:23:11.605397] [98] RADIO
[15:23:11.608377] [98] RADIO_STATUS
[15:23:11.851459] [103] VFR_HUD
[15:23:12.411599] [104] HEARTBEAT
[15:23:12.754612] [99] RADIO
[15:23:12.757588] [99] RADIO_STATUS
[15:23:13.330703] [106] HEARTBEAT
[15:23:13.350709] [107] SYS_STATUS
[15:23:13.464691] [108] BATTERY_STATUS
[15:23:13.581765] [109] ATTITUDE_TARGET
[15:23:13.586679] [110] VFR_HUD
[15:23:13.620694] [100] RADIO
[15:23:13.623741] [100] RADIO_STATUS
[15:23:14.145131] [111] VFR_HUD
[15:23:14.375809] [112] HEARTBEAT
[15:23:14.594196] [101] RADIO
[15:23:14.597865] [101] RADIO_STATUS
[15:23:15.533057] [114] HEARTBEAT
[15:23:15.541086] [115] ATTITUDE_TARGET
[15:23:15.639135] [102] RADIO
[15:23:15.642018] [102] RADIO_STATUS
[15:23:15.759031] [116] VFR_HUD
[15:23:16.445145] [117] HEARTBEAT
[15:23:16.586175] [103] RADIO
[15:23:16.589141] [103] RADIO_STATUS
[15:23:17.376335] [119] HEARTBEAT
[15:23:17.383282] [120] SYS_STATUS
[15:23:17.422334] [121] BATTERY_STATUS
[15:23:17.430264] [122] ATTITUDE_TARGET
[15:23:17.435311] [123] VFR_HUD
[15:23:17.584338] [104] RADIO
[15:23:17.587250] [104] RADIO_STATUS
[15:23:18.525439] [124] VFR_HUD
[15:23:18.528400] [125] HEARTBEAT
[15:23:18.629484] [105] RADIO
[15:23:18.632404] [105] RADIO_STATUS
[15:23:18.979521] [126] VFR_HUD
[15:23:19.657798] [106] RADIO
[15:23:19.657923] [106] RADIO_STATUS
[15:23:19.774679] [129] VFR_HUD
[15:23:20.354739] [130] HEARTBEAT
[15:23:20.802810] [107] RADIO
[15:23:20.805778] [107] RADIO_STATUS
[15:23:21.390881] [132] HEARTBEAT
[15:23:21.397913] [133] SYS_STATUS
[15:23:21.517911] [134] BATTERY_STATUS
[15:23:21.629877] [135] ATTITUDE_TARGET
[15:23:21.634957] [136] VFR_HUD
[15:23:21.639916] [108] RADIO
[15:23:21.642834] [108] RADIO_STATUS
[15:23:22.192992] [137] VFR_HUD
[15:23:22.424096] [138] HEARTBEAT
[15:23:22.642124] [109] RADIO
[15:23:22.645008] [109] RADIO_STATUS
[15:23:23.338274] [140] HEARTBEAT
[15:23:23.360206] [141] ATTITUDE_TARGET
[15:23:23.681249] [110] RADIO
[15:23:23.684267] [110] RADIO_STATUS
[15:23:23.802340] [142] VFR_HUD
[15:23:24.368411] [143] HEARTBEAT
[15:23:24.629428] [111] RADIO
[15:23:24.632671] [111] RADIO_STATUS
[15:23:25.419774] [145] HEARTBEAT
[15:23:25.425532] [146] SYS_STATUS
[15:23:25.630565] [112] RADIO
[15:23:25.633531] [112] RADIO_STATUS
[15:23:26.211727] [150] VFR_HUD
[15:23:26.780832] [113] RADIO
[15:23:26.783774] [113] RADIO_STATUS
[15:23:27.025873] [152] VFR_HUD
[15:23:27.369950] [153] HEARTBEAT
[15:23:27.377942] [154] ATTITUDE_TARGET
[15:23:27.699966] [114] RADIO
[15:23:27.702884] [114] RADIO_STATUS
[15:23:27.820954] [155] VFR_HUD
[15:23:28.396116] [156] HEARTBEAT
[15:23:28.850124] [115] RADIO
[15:23:28.853159] [115] RADIO_STATUS
[15:23:29.438308] [158] HEARTBEAT
[15:23:29.445273] [159] SYS_STATUS
[15:23:29.567266] [160] BATTERY_STATUS
[15:23:29.569252] [161] EXTENDED_SYS_STATE
[15:23:29.601303] [162] ATTITUDE_TARGET
[15:23:29.606261] [163] VFR_HUD
[15:23:29.609264] [164] SYSTEM_TIME
[15:23:29.659383] [116] RADIO
[15:23:29.662220] [116] RADIO_STATUS
[15:23:30.245357] [165] VFR_HUD
[15:23:30.366443] [166] HEARTBEAT
[15:23:30.688458] [117] RADIO
[15:23:30.691405] [117] RADIO_STATUS
[15:23:31.398619] [168] HEARTBEAT
[15:23:31.406632] [169] ATTITUDE_TARGET
[15:23:31.728650] [118] RADIO
[15:23:31.731557] [118] RADIO_STATUS
[15:23:31.849809] [170] VFR_HUD
[15:23:32.675949] [119] RADIO
[15:23:32.678828] [119] RADIO_STATUS
[15:23:33.467943] [175] BATTERY_STATUS
[15:23:33.677924] [120] RADIO
[15:23:33.680933] [120] RADIO_STATUS
[15:23:34.154062] [178] VFR_HUD
[15:23:34.723186] [121] RADIO
[15:23:34.726102] [121] RADIO_STATUS
[15:23:34.948355] [180] VFR_HUD
[15:23:35.417373] [181] HEARTBEAT
[15:23:35.425290] [182] ATTITUDE_TARGET
[15:23:35.747304] [122] RADIO
[15:23:35.750273] [122] RADIO_STATUS
[15:23:35.786369] [183] VFR_HUD
[15:23:36.443537] [184] HEARTBEAT
[15:23:36.558545] [185] VFR_HUD
[15:23:36.667530] [123] RADIO
[15:23:36.670470] [123] RADIO_STATUS
[15:23:37.380554] [186] HEARTBEAT
[15:23:37.387662] [187] SYS_STATUS
[15:23:37.712566] [124] RADIO
[15:23:37.714602] [124] RADIO_STATUS
[15:23:38.406684] [191] VFR_HUD
[15:23:38.406855] [192] HEARTBEAT
[15:23:38.736771] [125] RADIO
[15:23:38.739738] [125] RADIO_STATUS
[15:23:39.451926] [194] HEARTBEAT
[15:23:39.459838] [195] ATTITUDE_TARGET
[15:23:39.776892] [196] VFR_HUD
[15:23:39.808868] [126] RADIO
[15:23:39.811842] [126] RADIO_STATUS
[15:23:40.358129] [197] HEARTBEAT
[15:23:40.587048] [198] VFR_HUD
[15:23:40.701928] [127] RADIO
[15:23:40.704372] [127] RADIO_STATUS
[15:23:41.521231] [201] BATTERY_STATUS
[15:23:41.726237] [128] RADIO
[15:23:41.729171] [128] RADIO_STATUS
[15:23:42.196327] [204] VFR_HUD
[15:23:42.875416] [129] RADIO
[15:23:42.878375] [129] RADIO_STATUS
[15:23:42.996410] [206] VFR_HUD
[15:23:43.360470] [207] HEARTBEAT
[15:23:43.368472] [208] ATTITUDE_TARGET
[15:23:43.795499] [130] RADIO
[15:23:43.798513] [130] RADIO_STATUS
[15:23:43.915568] [209] VFR_HUD
[15:23:44.371631] [210] HEARTBEAT
[15:23:44.605667] [211] VFR_HUD
[15:23:44.715691] [131] RADIO
[15:23:44.717756] [131] RADIO_STATUS
[15:23:45.427825] [212] HEARTBEAT
[15:23:45.435041] [213] SYS_STATUS
[15:23:45.474847] [214] BATTERY_STATUS
[15:23:45.483669] [215] ATTITUDE_TARGET
[15:23:45.486807] [216] VFR_HUD
[15:23:45.759948] [132] RADIO
[15:23:45.762833] [132] RADIO_STATUS
[15:23:46.340898] [217] VFR_HUD
[15:23:46.343942] [218] HEARTBEAT
[15:23:46.783979] [133] RADIO
[15:23:46.786936] [133] RADIO_STATUS
[15:23:47.498180] [220] HEARTBEAT
[15:23:47.506097] [221] ATTITUDE_TARGET
[15:23:47.825169] [222] VFR_HUD
[15:23:47.857228] [134] RADIO
[15:23:47.860150] [134] RADIO_STATUS
[15:23:48.400240] [223] HEARTBEAT
[15:23:48.639259] [224] VFR_HUD
[15:23:48.755412] [135] RADIO
[15:23:48.758302] [135] RADIO_STATUS
[15:23:49.571511] [227] BATTERY_STATUS
[15:23:49.573394] [228] EXTENDED_SYS_STATE
[15:23:49.605437] [229] ATTITUDE_TARGET
[15:23:49.610488] [230] VFR_HUD
[15:23:49.613510] [231] SYSTEM_TIME
[15:23:49.773431] [136] RADIO
[15:23:49.776404] [136] RADIO_STATUS
[15:23:50.243550] [232] VFR_HUD
[15:23:50.348666] [233] HEARTBEAT
[15:23:50.813780] [137] RADIO
[15:23:50.815677] [137] RADIO_STATUS
[15:23:51.402909] [235] HEARTBEAT
[15:23:51.409830] [236] ATTITUDE_TARGET
[15:23:51.841870] [138] RADIO
[15:23:51.844883] [138] RADIO_STATUS
[15:23:51.962900] [237] VFR_HUD
[15:23:52.418000] [238] HEARTBEAT
[15:23:52.548129] [239] VFR_HUD
[15:23:52.762177] [139] RADIO
[15:23:52.764959] [139] RADIO_STATUS
[15:23:53.471143] [242] BATTERY_STATUS
[15:23:53.801207] [140] RADIO
[15:23:53.804172] [140] RADIO_STATUS
[15:23:54.157304] [245] VFR_HUD
[15:23:54.377314] [246] HEARTBEAT
[15:23:54.831321] [141] RADIO
[15:23:54.834326] [141] RADIO_STATUS
[15:23:54.951319] [247] VFR_HUD
[15:23:55.540471] [248] HEARTBEAT
[15:23:55.547423] [249] ATTITUDE_TARGET
[15:23:55.766527] [250] VFR_HUD
[15:23:55.881458] [142] RADIO
[15:23:55.884472] [142] RADIO_STATUS
[15:23:56.446613] [251] HEARTBEAT
[15:23:56.572569] [252] VFR_HUD
[15:23:56.899674] [143] RADIO
[15:23:56.902675] [143] RADIO_STATUS
[15:23:57.819840] [144] RADIO
[15:23:57.822768] [144] RADIO_STATUS
[15:23:58.169917] [2] VFR_HUD
[15:23:58.395926] [3] HEARTBEAT
[15:23:58.858960] [145] RADIO
[15:23:58.862008] [145] RADIO_STATUS
[15:23:58.980004] [4] VFR_HUD
[15:23:59.449072] [5] HEARTBEAT
[15:23:59.457081] [6] ATTITUDE_TARGET
[15:23:59.889177] [146] RADIO
[15:23:59.892098] [146] RADIO_STATUS
[15:24:00.360256] [8] HEARTBEAT
[15:24:00.590223] [9] VFR_HUD
[15:24:00.809260] [147] RADIO
[15:24:00.812197] [147] RADIO_STATUS
[15:24:01.518385] [12] BATTERY_STATUS
[15:24:01.848553] [148] RADIO
[15:24:01.851618] [148] RADIO_STATUS
[15:24:02.201303] [15] VFR_HUD
[15:24:02.429467] [16] HEARTBEAT
[15:24:02.878607] [149] RADIO
[15:24:02.881506] [149] RADIO_STATUS
[15:24:03.005751] [17] VFR_HUD
[15:24:03.363670] [18] HEARTBEAT
[15:24:03.370636] [19] ATTITUDE_TARGET
[15:24:03.797992] [150] RADIO
[15:24:03.800722] [150] RADIO_STATUS
[15:24:03.835808] [20] VFR_HUD
[15:24:04.608991] [22] VFR_HUD
[15:24:04.842909] [151] RADIO
[15:24:04.845868] [151] RADIO_STATUS
[15:24:05.867062] [152] RADIO
[15:24:05.870024] [152] RADIO_STATUS
[15:24:05.936181] [25] BATTERY_STATUS
