[16:51:28.141978] [152] HEARTBEAT
[16:51:28.360029] [237] RADIO
[16:51:28.362961] [237] RADIO_STATUS
[16:51:28.481044] [153] VFR_HUD
[16:51:29.178680] [154] HEARTBEAT
[16:51:29.185113] [155] SYS_STATUS
[16:51:29.308229] [156] BATTERY_STATUS
[16:51:29.310098] [157] EXTENDED_SYS_STATE
[16:51:29.342148] [158] ATTITUDE_TARGET
[16:51:29.347229] [159] VFR_HUD
[16:51:29.350112] [160] SYSTEM_TIME
[16:51:29.405133] [238] RADIO
[16:51:29.408119] [238] RADIO_STATUS
[16:51:29.980255] [161] VFR_HUD
[16:51:30.211330] [162] HEARTBEAT
[16:51:30.319355] [239] RADIO
[16:51:30.322275] [239] RADIO_STATUS
[16:51:30.780386] [163] VFR_HUD
[16:51:31.144449] [164] HEARTBEAT
[16:51:31.152430] [165] ATTITUDE_TARGET
[16:51:31.349452] [240] RADIO
[16:51:31.352470] [240] RADIO_STATUS
[16:51:31.589601] [166] VFR_HUD
[16:51:32.154600] [167] HEARTBEAT
[16:51:32.389624] [168] VFR_HUD
[16:51:32.421635] [241] RADIO
[16:51:32.424623] [241] RADIO_STATUS
[16:51:33.211811] [169] HEARTBEAT
[16:51:33.218838] [170] SYS_STATUS
[16:51:33.257849] [171] BATTERY_STATUS
[16:51:33.265898] [172] ATTITUDE_TARGET
[16:51:33.270748] [173] VFR_HUD
[16:51:33.308296] [242] RADIO
[16:51:33.310745] [242] RADIO_STATUS
[16:51:34.123958] [174] VFR_HUD
[16:51:34.129327] [175] HEARTBEAT
[16:51:34.338077] [243] RADIO
[16:51:34.341010] [243] RADIO_STATUS
[16:51:34.813201] [176] VFR_HUD
[16:51:35.157157] [177] HEARTBEAT
[16:51:35.165124] [178] ATTITUDE_TARGET
[16:51:35.377212] [244] RADIO
[16:51:35.380202] [244] RADIO_STATUS
[16:51:35.608303] [179] VFR_HUD
[16:51:36.183432] [180] HEARTBEAT
[16:51:36.297385] [181] VFR_HUD
[16:51:36.324362] [245] RADIO
[16:51:36.327321] [245] RADIO_STATUS
[16:51:37.114466] [182] HEARTBEAT
[16:51:37.121705] [183] SYS_STATUS
[16:51:37.240484] [184] BATTERY_STATUS
[16:51:37.247484] [185] ATTITUDE_TARGET
[16:51:37.277448] [186] VFR_HUD
[16:51:37.326569] [246] RADIO
[16:51:37.329502] [246] RADIO_STATUS
[16:51:38.132734] [188] HEARTBEAT
[16:51:38.366404] [247] RADIO
[16:51:38.368778] [247] RADIO_STATUS
[16:51:38.716674] [189] VFR_HUD
[16:51:39.185837] [190] HEARTBEAT
[16:51:39.193814] [191] ATTITUDE_TARGET
[16:51:39.395823] [248] RADIO
[16:51:39.398777] [248] RADIO_STATUS
[16:51:39.517795] [192] VFR_HUD
[16:51:40.210998] [193] HEARTBEAT
[16:51:40.330983] [194] VFR_HUD
[16:51:40.447037] [249] RADIO
[16:51:40.450069] [249] RADIO_STATUS
[16:51:41.133132] [195] HEARTBEAT
[16:51:41.140082] [196] SYS_STATUS
[16:51:41.255283] [197] BATTERY_STATUS
[16:51:41.383103] [250] RADIO
[16:51:41.386202] [250] RADIO_STATUS
[16:51:41.602194] [198] ATTITUDE_TARGET
[16:51:41.606205] [199] VFR_HUD
[16:51:41.941205] [200] VFR_HUD
[16:51:42.161275] [201] HEARTBEAT
[16:51:42.384340] [251] RADIO
[16:51:42.387257] [251] RADIO_STATUS
[16:51:42.735336] [202] VFR_HUD
[16:51:43.085409] [203] HEARTBEAT
[16:51:43.121410] [204] ATTITUDE_TARGET
[16:51:43.424472] [252] RADIO
[16:51:43.427431] [252] RADIO_STATUS
[16:51:43.550446] [205] VFR_HUD
[16:51:44.110563] [206] HEARTBEAT
[16:51:44.344620] [207] VFR_HUD
[16:51:44.376650] [253] RADIO
[16:51:44.379657] [253] RADIO_STATUS
[16:51:45.161789] [208] HEARTBEAT
[16:51:45.168773] [209] SYS_STATUS
[16:51:45.287821] [210] BATTERY_STATUS
[16:51:45.294800] [211] ATTITUDE_TARGET
[16:51:45.325792] [212] VFR_HUD
[16:51:45.352782] [254] RADIO
[16:51:45.355716] [254] RADIO_STATUS
[16:51:46.179901] [214] HEARTBEAT
[16:51:46.412886] [255] RADIO
[16:51:46.417031] [255] RADIO_STATUS
[16:51:46.763889] [215] VFR_HUD
[16:51:47.232050] [216] HEARTBEAT
[16:51:47.239965] [217] ATTITUDE_TARGET
[16:51:47.443055] [0] RADIO
[16:51:47.446023] [0] RADIO_STATUS
[16:51:47.563080] [218] VFR_HUD
[16:51:47.750730] JAMMING_START
[16:51:48.144193] [219] HEARTBEAT
[16:51:48.373247] [220] VFR_HUD
[16:51:48.487193] [1] RADIO
[16:51:48.490089] [1] RADIO_STATUS
[16:51:49.180272] [221] HEARTBEAT
[16:51:49.187265] [222] SYS_STATUS
[16:51:49.305539] [223] BATTERY_STATUS
[16:51:49.306379] [224] EXTENDED_SYS_STATE
[16:51:49.469408] [2] RADIO
[16:51:49.471302] [2] RADIO_STATUS
[16:51:49.982577] [228] VFR_HUD
[16:51:50.213408] [229] HEARTBEAT
[16:51:50.431434] [3] RADIO
[16:51:50.434665] [3] RADIO_STATUS
[16:51:50.784143] [230] VFR_HUD
[16:51:51.146565] [231] HEARTBEAT
[16:51:51.154532] [232] ATTITUDE_TARGET
[16:51:51.476653] [4] RADIO
[16:51:51.479568] [4] RADIO_STATUS
[16:51:51.596627] [233] VFR_HUD
[16:51:52.156868] [234] HEARTBEAT
[16:51:52.392138] [235] VFR_HUD
[16:51:52.423762] [5] RADIO
[16:51:52.426757] [5] RADIO_STATUS
[16:51:53.213940] [236] HEARTBEAT
[16:51:53.221211] [237] SYS_STATUS
[16:51:53.260943] [238] BATTERY_STATUS
[16:51:53.267921] [239] ATTITUDE_TARGET
[16:51:53.272891] [240] VFR_HUD
[16:51:53.420947] [6] RADIO
[16:51:53.423934] [6] RADIO_STATUS
[16:51:54.132058] [241] VFR_HUD
[16:51:54.135086] [242] HEARTBEAT
[16:51:54.465085] [7] RADIO
[16:51:54.468050] [7] RADIO_STATUS
[16:51:54.815187] [243] VFR_HUD
[16:51:55.284363] [244] HEARTBEAT
[16:51:55.291251] [245] ATTITUDE_TARGET
[16:51:55.489319] [8] RADIO
[16:51:55.492337] [8] RADIO_STATUS
[16:51:55.610559] [246] VFR_HUD
[16:51:56.190452] [247] HEARTBEAT
[16:51:56.419541] [248] VFR_HUD
[16:51:56.533432] [9] RADIO
[16:51:56.536394] [9] RADIO_STATUS
[16:51:57.116597] [249] HEARTBEAT
[16:51:57.123599] [250] SYS_STATUS
[16:51:57.241600] [251] BATTERY_STATUS
[16:51:57.249603] [252] ATTITUDE_TARGET
[16:51:57.279648] [253] VFR_HUD
[16:51:57.557683] [10] RADIO
[16:51:57.560640] [10] RADIO_STATUS
[16:51:57.908887] [254] VFR_HUD
[16:51:58.133785] [255] HEARTBEAT
[16:51:58.477761] [11] RADIO
[16:51:58.480740] [11] RADIO_STATUS
[16:51:58.722826] [0] VFR_HUD
[16:51:59.186867] [1] HEARTBEAT
[16:51:59.194879] [2] ATTITUDE_TARGET
[16:51:59.518028] [3] VFR_HUD
[16:51:59.549971] [12] RADIO
[16:51:59.553095] [12] RADIO_STATUS
[16:52:00.093308] [4] HEARTBEAT
[16:52:00.332088] [5] VFR_HUD
[16:52:00.448154] [13] RADIO
[16:52:00.451079] [13] RADIO_STATUS
[16:52:01.134329] [6] HEARTBEAT
[16:52:01.141292] [7] SYS_STATUS
[16:52:01.255310] [8] BATTERY_STATUS
[16:52:01.373305] [9] ATTITUDE_TARGET
[16:52:01.378264] [10] VFR_HUD
[16:52:01.466278] [14] RADIO
[16:52:01.469250] [14] RADIO_STATUS
[16:52:01.941401] [11] VFR_HUD
[16:52:02.161467] [12] HEARTBEAT
[16:52:02.504431] [15] RADIO
[16:52:02.507421] [15] RADIO_STATUS
[16:52:02.735508] [13] VFR_HUD
[16:52:03.328644] [14] HEARTBEAT
[16:52:03.336651] [15] ATTITUDE_TARGET
[16:52:03.534654] [16] RADIO
[16:52:03.537679] [16] RADIO_STATUS
[16:52:03.655237] [16] VFR_HUD
[16:52:04.110794] [17] HEARTBEAT
[16:52:04.344839] [18] VFR_HUD
[16:52:04.573841] [17] RADIO
[16:52:04.576793] [17] RADIO_STATUS
[16:52:05.161921] [19] HEARTBEAT
[16:52:05.168884] [20] SYS_STATUS
[16:52:05.286946] [21] BATTERY_STATUS
[16:52:05.295000] [22] ATTITUDE_TARGET
[16:52:05.324972] [23] VFR_HUD
[16:52:05.496160] [18] RADIO
[16:52:05.496879] [18] RADIO_STATUS
[16:52:05.953993] [24] VFR_HUD
[16:52:06.179060] [25] HEARTBEAT
[16:52:06.523126] [19] RADIO
[16:52:06.526093] [19] RADIO_STATUS
[16:52:06.763258] [26] VFR_HUD
[16:52:07.113360] [27] HEARTBEAT
[16:52:07.120297] [28] ATTITUDE_TARGET
[16:52:07.563336] [29] VFR_HUD
[16:52:07.590534] [20] RADIO
[16:52:07.593324] [20] RADIO_STATUS
[16:52:08.138473] [30] HEARTBEAT
[16:52:08.373389] [31] VFR_HUD
[16:52:08.482436] [21] RADIO
[16:52:08.485374] [21] RADIO_STATUS
[16:52:09.180583] [32] HEARTBEAT
[16:52:09.187600] [33] SYS_STATUS
[16:52:09.304602] [34] BATTERY_STATUS
[16:52:09.306516] [35] EXTENDED_SYS_STATE
[16:52:09.426837] [36] ATTITUDE_TARGET
[16:52:09.430594] [37] VFR_HUD
[16:52:09.434588] [38] SYSTEM_TIME
[16:52:09.512689] [22] RADIO
[16:52:09.516720] [22] RADIO_STATUS
[16:52:09.987709] [39] VFR_HUD
[16:52:10.108777] [40] HEARTBEAT
[16:52:10.551805] [23] RADIO
[16:52:10.555259] [23] RADIO_STATUS
[16:52:10.781818] [41] VFR_HUD
[16:52:11.146906] [42] HEARTBEAT
[16:52:11.153919] [43] ATTITUDE_TARGET
[16:52:11.580930] [24] RADIO
[16:52:11.583915] [24] RADIO_STATUS
[16:52:11.619927] [44] VFR_HUD
[16:52:12.157025] [45] HEARTBEAT
[16:52:12.391106] [46] VFR_HUD
[16:52:12.501202] [25] RADIO
[16:52:12.504236] [25] RADIO_STATUS
[16:52:13.214346] [47] HEARTBEAT
[16:52:13.221179] [48] SYS_STATUS
[16:52:13.260252] [49] BATTERY_STATUS
[16:52:13.268253] [50] ATTITUDE_TARGET
[16:52:13.273165] [51] VFR_HUD
[16:52:13.540257] [26] RADIO
[16:52:13.543211] [26] RADIO_STATUS
[16:52:14.132457] [52] VFR_HUD
[16:52:14.134380] [53] HEARTBEAT
[16:52:14.570426] [27] RADIO
[16:52:14.573403] [27] RADIO_STATUS
[16:52:14.810442] [54] VFR_HUD
[16:52:15.159521] [55] HEARTBEAT
[16:52:15.167523] [56] ATTITUDE_TARGET
[16:52:15.500562] [57] VFR_HUD
[16:52:15.609647] [28] RADIO
[16:52:15.612603] [28] RADIO_STATUS
[16:52:16.190714] [58] HEARTBEAT
[16:52:16.300772] [59] VFR_HUD
[16:52:16.534956] [29] RADIO
[16:52:16.537834] [29] RADIO_STATUS
[16:52:17.122862] [60] HEARTBEAT
[16:52:17.129890] [61] SYS_STATUS
[16:52:17.168878] [62] BATTERY_STATUS
[16:52:17.176922] [63] ATTITUDE_TARGET
[16:52:17.181905] [64] VFR_HUD
[16:52:17.558899] [30] RADIO
[16:52:17.561988] [30] RADIO_STATUS
[16:52:18.145033] [65] VFR_HUD
[16:52:18.148004] [66] HEARTBEAT
[16:52:18.603204] [31] RADIO
[16:52:18.606090] [31] RADIO_STATUS
[16:52:18.724166] [67] VFR_HUD
[16:52:19.192282] [68] HEARTBEAT
[16:52:19.201946] [69] ATTITUDE_TARGET
[16:52:19.518272] [70] VFR_HUD
[16:52:19.550237] [32] RADIO
[16:52:19.553200] [32] RADIO_STATUS
[16:52:20.093435] [71] HEARTBEAT
[16:52:20.333825] [72] VFR_HUD
[16:52:20.546416] [33] RADIO
[16:52:20.549359] [33] RADIO_STATUS
[16:52:21.134514] [73] HEARTBEAT
[16:52:21.141535] [74] SYS_STATUS
[16:52:21.261810] [75] BATTERY_STATUS
[16:52:21.373611] [76] ATTITUDE_TARGET
[16:52:21.378518] [77] VFR_HUD
[16:52:21.591629] [34] RADIO
[16:52:21.594793] [34] RADIO_STATUS
[16:52:21.936611] [78] VFR_HUD
[16:52:22.162691] [79] HEARTBEAT
[16:52:22.615900] [35] RADIO
[16:52:22.618773] [35] RADIO_STATUS
[16:52:23.205927] [81] HEARTBEAT
[16:52:23.213832] [82] ATTITUDE_TARGET
[16:52:23.546955] [83] VFR_HUD
[16:52:23.660949] [36] RADIO
[16:52:23.663843] [36] RADIO_STATUS
[16:52:24.112027] [84] HEARTBEAT
[16:52:24.346024] [85] VFR_HUD
[16:52:24.580071] [37] RADIO
[16:52:24.583012] [37] RADIO_STATUS
[16:52:25.163263] [86] HEARTBEAT
[16:52:25.170194] [87] SYS_STATUS
[16:52:25.289721] [88] BATTERY_STATUS
[16:52:25.296210] [89] ATTITUDE_TARGET
[16:52:25.326371] [90] VFR_HUD
[16:52:25.604305] [38] RADIO
[16:52:25.607228] [38] RADIO_STATUS
[16:52:25.955349] [91] VFR_HUD
[16:52:26.190365] [92] HEARTBEAT
[16:52:26.649428] [39] RADIO
[16:52:26.652381] [39] RADIO_STATUS
[16:52:26.764478] [93] VFR_HUD
[16:52:27.113494] [94] HEARTBEAT
[16:52:27.121520] [95] ATTITUDE_TARGET
[16:52:27.564525] [96] VFR_HUD
[16:52:27.591561] [40] RADIO
[16:52:27.594561] [40] RADIO_STATUS
[16:52:28.139876] [97] HEARTBEAT
[16:52:28.379648] [98] VFR_HUD
[16:52:28.592846] [41] RADIO
[16:52:28.595779] [41] RADIO_STATUS
[16:52:29.181803] [99] HEARTBEAT
[16:52:29.187990] [100] SYS_STATUS
[16:52:29.305931] [101] BATTERY_STATUS
[16:52:29.307903] [102] EXTENDED_SYS_STATE
[16:52:29.426909] [103] ATTITUDE_TARGET
[16:52:29.431813] [104] VFR_HUD
[16:52:29.435823] [105] SYSTEM_TIME
[16:52:29.632896] [42] RADIO
[16:52:29.635855] [42] RADIO_STATUS
[16:52:29.988953] [106] VFR_HUD
[16:52:30.101052] [107] HEARTBEAT
[16:52:30.663198] [43] RADIO
[16:52:30.666164] [43] RADIO_STATUS
[16:52:31.142847] [109] HEARTBEAT
[16:52:31.150156] [110] ATTITUDE_TARGET
[16:52:31.587188] [44] RADIO
[16:52:31.590187] [44] RADIO_STATUS
[16:52:31.621193] [111] VFR_HUD
[16:52:32.158458] [112] HEARTBEAT
[16:52:32.392356] [113] VFR_HUD
[16:52:32.625396] [45] RADIO
[16:52:32.628386] [45] RADIO_STATUS
[16:52:33.209532] [114] HEARTBEAT
[16:52:33.216481] [115] SYS_STATUS
[16:52:33.335551] [116] BATTERY_STATUS
[16:52:33.342505] [117] ATTITUDE_TARGET
[16:52:33.373503] [118] VFR_HUD
[16:52:33.651543] [46] RADIO
[16:52:33.654502] [46] RADIO_STATUS
[16:52:34.001590] [119] VFR_HUD
[16:52:34.122597] [120] HEARTBEAT
[16:52:34.690710] [47] RADIO
[16:52:34.693646] [47] RADIO_STATUS
[16:52:34.811818] [121] VFR_HUD
[16:52:35.160863] [122] HEARTBEAT
[16:52:35.168809] [123] ATTITUDE_TARGET
[16:52:35.506862] [124] VFR_HUD
[16:52:35.621908] [48] RADIO
[16:52:35.624854] [48] RADIO_STATUS
[16:52:36.192090] [125] HEARTBEAT
[16:52:36.300978] [126] VFR_HUD
[16:52:36.640041] [49] RADIO
[16:52:36.643020] [49] RADIO_STATUS
[16:52:37.123153] [127] HEARTBEAT
[16:52:37.130154] [128] SYS_STATUS
[16:52:37.170171] [129] BATTERY_STATUS
[16:52:37.177650] [130] ATTITUDE_TARGET
[16:52:37.182250] [131] VFR_HUD
[16:52:37.680164] [50] RADIO
[16:52:37.683228] [50] RADIO_STATUS
[16:52:38.146295] [132] VFR_HUD
[16:52:38.149262] [133] HEARTBEAT
[16:52:38.709389] [51] RADIO
[16:52:38.712352] [51] RADIO_STATUS
[16:52:38.748474] [134] VFR_HUD
[16:52:39.194473] [135] HEARTBEAT
[16:52:39.202444] [136] ATTITUDE_TARGET
[16:52:39.520452] [137] VFR_HUD
[16:52:39.629729] [52] RADIO
[16:52:39.632682] [52] RADIO_STATUS
[16:52:40.100665] [138] HEARTBEAT
[16:52:40.329663] [139] VFR_HUD
[16:52:40.673781] [53] RADIO
[16:52:40.676773] [53] RADIO_STATUS
[16:52:41.263854] [142] BATTERY_STATUS
[16:52:41.375940] [143] ATTITUDE_TARGET
[16:52:41.380882] [144] VFR_HUD
[16:52:41.697926] [54] RADIO
[16:52:41.700855] [54] RADIO_STATUS
[16:52:41.938946] [145] VFR_HUD
[16:52:42.169944] [146] HEARTBEAT
[16:52:42.739055] [147] VFR_HUD
[16:52:42.766053] [55] RADIO
[16:52:42.769047] [55] RADIO_STATUS
[16:52:43.208172] [148] HEARTBEAT
[16:52:43.216192] [149] ATTITUDE_TARGET
[16:52:43.549733] [150] VFR_HUD
[16:52:43.663262] [56] RADIO
[16:52:43.666269] [56] RADIO_STATUS
[16:52:44.114414] [151] HEARTBEAT
[16:52:44.348359] [152] VFR_HUD
[16:52:44.687467] [57] RADIO
[16:52:44.690593] [57] RADIO_STATUS
[16:52:45.165577] [153] HEARTBEAT
[16:52:45.172722] [154] SYS_STATUS
[16:52:45.290788] [155] BATTERY_STATUS
[16:52:45.298552] [156] ATTITUDE_TARGET
[16:52:45.328533] [157] VFR_HUD
[16:52:45.732618] [58] RADIO
[16:52:45.735570] [58] RADIO_STATUS
[16:52:45.957695] [158] VFR_HUD
[16:52:46.182724] [159] HEARTBEAT
[16:52:46.651774] [59] RADIO
[16:52:46.654759] [59] RADIO_STATUS
[16:52:46.772821] [160] VFR_HUD
[16:52:47.115872] [161] HEARTBEAT
[16:52:47.123824] [162] ATTITUDE_TARGET
[16:52:47.566926] [163] VFR_HUD
[16:52:47.678924] [60] RADIO
[16:52:47.681881] [60] RADIO_STATUS
[16:52:48.142095] [164] HEARTBEAT
[16:52:48.382056] [165] VFR_HUD
[16:52:48.721136] [61] RADIO
[16:52:48.724102] [61] RADIO_STATUS
[16:52:49.313252] [168] BATTERY_STATUS
[16:52:49.315239] [169] EXTENDED_SYS_STATE
[16:52:49.347254] [170] ATTITUDE_TARGET
[16:52:49.352241] [171] VFR_HUD
[16:52:49.355205] [172] SYSTEM_TIME
[16:52:49.745305] [62] RADIO
[16:52:49.748282] [62] RADIO_STATUS
[16:52:49.991321] [173] VFR_HUD
[16:52:50.102405] [174] HEARTBEAT
[16:52:50.785496] [175] VFR_HUD
[16:52:50.817468] [63] RADIO
[16:52:50.820384] [63] RADIO_STATUS
[16:52:51.144674] [176] HEARTBEAT
[16:52:51.152714] [177] ATTITUDE_TARGET
[16:52:51.595553] [178] VFR_HUD
[16:52:51.709563] [64] RADIO
[16:52:51.712514] [64] RADIO_STATUS
[16:52:52.160746] [179] HEARTBEAT
[16:52:52.394758] [180] VFR_HUD
[16:52:52.733914] [65] RADIO
[16:52:52.736729] [65] RADIO_STATUS
[16:52:53.211965] [181] HEARTBEAT
[16:52:53.218875] [182] SYS_STATUS
[16:52:53.337895] [183] BATTERY_STATUS
[16:52:53.344934] [184] ATTITUDE_TARGET
[16:52:53.375843] [185] VFR_HUD
[16:52:53.779001] [66] RADIO
[16:52:53.781977] [66] RADIO_STATUS
[16:52:53.899961] [186] VFR_HUD
[16:52:54.119991] [187] HEARTBEAT
[16:52:54.694094] [188] VFR_HUD
[16:52:54.721077] [67] RADIO
[16:52:54.724058] [67] RADIO_STATUS
[16:52:55.163182] [189] HEARTBEAT
[16:52:55.171161] [190] ATTITUDE_TARGET
[16:52:55.509235] [191] VFR_HUD
[16:52:55.722244] [68] RADIO
[16:52:55.725197] [68] RADIO_STATUS
[16:52:56.188304] [192] HEARTBEAT
[16:52:56.303350] [193] VFR_HUD
[16:52:56.762417] [69] RADIO
[16:52:56.765358] [69] RADIO_STATUS
[16:52:57.125588] [194] HEARTBEAT
[16:52:57.132495] [195] SYS_STATUS
[16:52:57.172606] [196] BATTERY_STATUS
[16:52:57.179513] [197] ATTITUDE_TARGET
[16:52:57.184467] [198] VFR_HUD
[16:52:57.791610] [70] RADIO
[16:52:57.794560] [70] RADIO_STATUS
[16:52:58.147670] [199] VFR_HUD
[16:52:58.150639] [200] HEARTBEAT
[16:52:58.711811] [71] RADIO
[16:52:58.713768] [71] RADIO_STATUS
[16:52:58.831773] [201] VFR_HUD
[16:52:59.195849] [202] HEARTBEAT
[16:52:59.203896] [203] ATTITUDE_TARGET
[16:52:59.521924] [204] VFR_HUD
[16:52:59.750905] [72] RADIO
[16:52:59.753887] [72] RADIO_STATUS
[16:53:00.101985] [205] HEARTBEAT
[16:53:00.333808] [206] VFR_HUD
[16:53:00.781103] [73] RADIO
[16:53:00.784033] [73] RADIO_STATUS
[16:53:01.138218] [207] HEARTBEAT
[16:53:01.145207] [208] SYS_STATUS
[16:53:01.265326] [209] BATTERY_STATUS
[16:53:01.377260] [210] ATTITUDE_TARGET
[16:53:01.382174] [211] VFR_HUD
[16:53:01.820259] [74] RADIO
[16:53:01.823256] [74] RADIO_STATUS
[16:53:01.940311] [212] VFR_HUD
[16:53:02.171444] [213] HEARTBEAT
[16:53:02.740381] [214] VFR_HUD
[16:53:02.767417] [75] RADIO
[16:53:02.770362] [75] RADIO_STATUS
[16:53:03.091510] [215] HEARTBEAT
[16:53:03.208495] [216] ATTITUDE_TARGET
[16:53:03.549560] [217] VFR_HUD
[16:53:03.768666] [76] RADIO
[16:53:03.771554] [76] RADIO_STATUS
[16:53:04.115707] [218] HEARTBEAT
[16:53:04.349709] [219] VFR_HUD
[16:53:04.808833] [77] RADIO
[16:53:04.811783] [77] RADIO_STATUS
[16:53:05.171862] [220] HEARTBEAT
[16:53:05.178904] [221] SYS_STATUS
[16:53:05.218811] [222] BATTERY_STATUS
[16:53:05.225823] [223] ATTITUDE_TARGET
[16:53:05.230804] [224] VFR_HUD
[16:53:05.838931] [78] RADIO
[16:53:05.840941] [78] RADIO_STATUS
[16:53:05.911946] [225] VFR_HUD
[16:53:06.185020] [226] HEARTBEAT
[16:53:06.758247] [79] RADIO
[16:53:06.761038] [79] RADIO_STATUS
[16:53:06.797021] [227] VFR_HUD
[16:53:07.118109] [228] HEARTBEAT
[16:53:07.126160] [229] ATTITUDE_TARGET
[16:53:07.568165] [230] VFR_HUD
[16:53:07.797210] [80] RADIO
[16:53:07.800184] [80] RADIO_STATUS
[16:53:08.144266] [231] HEARTBEAT
[16:53:08.383490] [232] VFR_HUD
[16:53:08.827348] [81] RADIO
[16:53:08.830382] [81] RADIO_STATUS
[16:53:09.185882] [233] HEARTBEAT
[16:53:09.192436] [234] SYS_STATUS
[16:53:09.315483] [235] BATTERY_STATUS
[16:53:09.316455] [236] EXTENDED_SYS_STATE
[16:53:09.348490] [237] ATTITUDE_TARGET
[16:53:09.353409] [238] VFR_HUD
[16:53:09.357918] [239] SYSTEM_TIME
[16:53:09.866569] [82] RADIO
[16:53:09.869508] [82] RADIO_STATUS
[16:53:09.987546] [240] VFR_HUD
[16:53:10.092658] [241] HEARTBEAT
[16:53:10.787680] [242] VFR_HUD
[16:53:10.819680] [83] RADIO
[16:53:10.822656] [83] RADIO_STATUS
[16:53:11.146813] [243] HEARTBEAT
[16:53:11.153819] [244] ATTITUDE_TARGET
[16:53:11.596940] [245] VFR_HUD
[16:53:11.815834] [84] RADIO
[16:53:11.818941] [84] RADIO_STATUS
[16:53:12.162963] [246] HEARTBEAT
[16:53:12.291993] [247] VFR_HUD
[16:53:12.860962] [85] RADIO
[16:53:12.863904] [85] RADIO_STATUS
[16:53:13.214059] [248] HEARTBEAT
[16:53:13.219959] [249] SYS_STATUS
[16:53:13.377214] [252] VFR_HUD
[16:53:13.885104] [86] RADIO
[16:53:13.888123] [86] RADIO_STATUS
[16:53:13.924136] [253] VFR_HUD
[16:53:14.121285] [254] HEARTBEAT
[16:53:14.696224] [255] VFR_HUD
[16:53:14.805268] [87] RADIO
[16:53:14.808226] [87] RADIO_STATUS
[16:53:15.165346] [0] HEARTBEAT
[16:53:15.172346] [1] ATTITUDE_TARGET
[16:53:15.510405] [2] VFR_HUD
[16:53:15.849536] [88] RADIO
[16:53:15.852426] [88] RADIO_STATUS
[16:53:16.190532] [3] HEARTBEAT
[16:53:16.305673] [4] VFR_HUD
[16:53:16.874634] [89] RADIO
[16:53:16.876711] [89] RADIO_STATUS
[16:53:17.122659] [5] HEARTBEAT
[16:53:17.128649] [6] SYS_STATUS
[16:53:17.247712] [7] BATTERY_STATUS
[16:53:17.255830] [8] ATTITUDE_TARGET
[16:53:17.285658] [9] VFR_HUD
[16:53:17.914832] [10] VFR_HUD
[16:53:17.946898] [90] RADIO
[16:53:17.949790] [90] RADIO_STATUS
[16:53:18.139896] [11] HEARTBEAT
[16:53:18.723846] [12] VFR_HUD
[16:53:18.839071] [91] RADIO
[16:53:18.841909] [91] RADIO_STATUS
[16:53:19.193002] [13] HEARTBEAT
[16:53:19.200980] [14] ATTITUDE_TARGET
[16:53:19.524007] [15] VFR_HUD
[16:53:19.863078] [92] RADIO
[16:53:19.866015] [92] RADIO_STATUS
[16:53:20.104335] [16] HEARTBEAT
[16:53:20.334133] [17] VFR_HUD
[16:53:20.908239] [93] RADIO
[16:53:20.911278] [93] RADIO_STATUS
[16:53:21.141413] [18] HEARTBEAT
[16:53:21.147370] [19] SYS_STATUS
[16:53:21.262356] [20] BATTERY_STATUS
[16:53:21.932451] [94] RADIO
[16:53:21.935362] [94] RADIO_STATUS
[16:53:22.052530] [23] VFR_HUD
[16:53:22.173466] [24] HEARTBEAT
[16:53:22.742575] [25] VFR_HUD
[16:53:22.857917] [95] RADIO
[16:53:22.858141] [95] RADIO_STATUS
[16:53:23.106693] [26] HEARTBEAT
[16:53:23.114714] [27] ATTITUDE_TARGET
[16:53:23.557886] [28] VFR_HUD
[16:53:23.891798] [96] RADIO
[16:53:23.894991] [96] RADIO_STATUS
[16:53:24.117817] [29] HEARTBEAT
[16:53:24.351824] [30] VFR_HUD
[16:53:24.920909] [97] RADIO
[16:53:24.923871] [97] RADIO_STATUS
[16:53:25.174016] [31] HEARTBEAT
[16:53:25.181075] [32] SYS_STATUS
[16:53:25.220999] [33] BATTERY_STATUS
[16:53:25.229012] [34] ATTITUDE_TARGET
[16:53:25.232981] [35] VFR_HUD
[16:53:25.961102] [98] RADIO
[16:53:25.964284] [98] RADIO_STATUS
[16:53:26.197294] [36] VFR_HUD
[16:53:26.200121] [37] HEARTBEAT
[16:53:26.776469] [38] VFR_HUD
[16:53:26.892262] [99] RADIO
[16:53:26.894466] [99] RADIO_STATUS
[16:53:27.244350] [39] HEARTBEAT
[16:53:27.252304] [40] ATTITUDE_TARGET
[16:53:27.570349] [41] VFR_HUD
[16:53:27.909468] [100] RADIO
[16:53:27.912346] [100] RADIO_STATUS
[16:53:28.151513] [42] HEARTBEAT
[16:53:28.380437] [43] VFR_HUD
[16:53:28.949653] [101] RADIO
[16:53:28.953774] [101] RADIO_STATUS
[16:53:29.187584] [44] HEARTBEAT
[16:53:29.194606] [45] SYS_STATUS
[16:53:29.317613] [46] BATTERY_STATUS
[16:53:29.318518] [47] EXTENDED_SYS_STATE
[16:53:29.353725] [48] ATTITUDE_TARGET
[16:53:29.355557] [49] VFR_HUD
[16:53:29.359604] [50] SYSTEM_TIME
[16:53:29.978715] [102] RADIO
[16:53:29.981634] [102] RADIO_STATUS
[16:53:30.105772] [51] VFR_HUD
[16:53:30.108978] [52] HEARTBEAT
[16:53:30.788814] [53] VFR_HUD
[16:53:30.897846] [103] RADIO
[16:53:30.900825] [103] RADIO_STATUS
[16:53:31.147979] [54] HEARTBEAT
[16:53:31.155907] [55] ATTITUDE_TARGET
[16:53:31.597998] [56] VFR_HUD
[16:53:31.937063] [104] RADIO
[16:53:31.940028] [104] RADIO_STATUS
[16:53:32.164177] [57] HEARTBEAT
[16:53:32.293152] [58] VFR_HUD
[16:53:32.967195] [105] RADIO
[16:53:32.970133] [105] RADIO_STATUS
[16:53:33.215282] [59] HEARTBEAT
[16:53:33.222214] [60] SYS_STATUS
[16:53:33.340267] [61] BATTERY_STATUS
[16:53:33.348426] [62] ATTITUDE_TARGET
[16:53:33.378216] [63] VFR_HUD
[16:53:33.892323] [106] RADIO
[16:53:33.895300] [106] RADIO_STATUS
[16:53:33.925322] [64] VFR_HUD
[16:53:34.123422] [65] HEARTBEAT
[16:53:34.697471] [66] VFR_HUD
[16:53:34.926621] [107] RADIO
[16:53:34.929513] [107] RADIO_STATUS
[16:53:35.290539] [67] HEARTBEAT
[16:53:35.298588] [68] ATTITUDE_TARGET
[16:53:35.506593] [69] VFR_HUD
[16:53:35.955678] [108] RADIO
[16:53:35.958665] [108] RADIO_STATUS
[16:53:36.191743] [70] HEARTBEAT
[16:53:36.306887] [71] VFR_HUD
[16:53:36.995813] [109] RADIO
[16:53:36.998765] [109] RADIO_STATUS
[16:53:37.123903] [72] HEARTBEAT
[16:53:37.130844] [73] SYS_STATUS
[16:53:37.248855] [74] BATTERY_STATUS
[16:53:37.256883] [75] ATTITUDE_TARGET
[16:53:37.286898] [76] VFR_HUD
[16:53:37.916072] [77] VFR_HUD
[16:53:37.949010] [110] RADIO
[16:53:37.950949] [110] RADIO_STATUS
[16:53:38.142063] [78] HEARTBEAT
[16:53:38.726153] [79] VFR_HUD
[16:53:38.945177] [111] RADIO
[16:53:38.948142] [111] RADIO_STATUS
[16:53:39.195207] [80] HEARTBEAT
[16:53:39.203777] [81] ATTITUDE_TARGET
[16:53:39.525226] [82] VFR_HUD
[16:53:39.990362] [112] RADIO
[16:53:39.993318] [112] RADIO_STATUS
[16:53:40.101335] [83] HEARTBEAT
[16:53:40.338138] [84] VFR_HUD
[16:53:41.014444] [113] RADIO
[16:53:41.017416] [113] RADIO_STATUS
[16:53:41.142543] [85] HEARTBEAT
[16:53:41.149499] [86] SYS_STATUS
[16:53:41.264560] [87] BATTERY_STATUS
[16:53:41.381522] [88] ATTITUDE_TARGET
[16:53:41.386533] [89] VFR_HUD
[16:53:41.933667] [114] RADIO
[16:53:41.936683] [114] RADIO_STATUS
[16:53:41.972663] [90] VFR_HUD
[16:53:42.169692] [91] HEARTBEAT
[16:53:42.743883] [92] VFR_HUD
[16:53:42.978848] [115] RADIO
[16:53:42.981786] [115] RADIO_STATUS
[16:53:43.108855] [93] HEARTBEAT
[16:53:43.115907] [94] ATTITUDE_TARGET
[16:53:43.559187] [95] VFR_HUD
[16:53:44.003016] [116] RADIO
[16:53:44.005919] [116] RADIO_STATUS
[16:53:44.119006] [96] HEARTBEAT
[16:53:45.047110] [117] RADIO
[16:53:45.050159] [117] RADIO_STATUS
[16:53:45.175307] [98] HEARTBEAT
[16:53:45.182171] [99] SYS_STATUS
[16:53:45.222415] [100] BATTERY_STATUS
[16:53:45.230224] [101] ATTITUDE_TARGET
[16:53:45.235160] [102] VFR_HUD
[16:53:45.962565] [118] RADIO
[16:53:45.965251] [118] RADIO_STATUS
[16:53:46.088304] [103] VFR_HUD
[16:53:46.199354] [104] HEARTBEAT
[16:53:46.772466] [105] VFR_HUD
[16:53:46.992740] [119] RADIO
[16:53:46.994421] [119] RADIO_STATUS
[16:53:47.121544] [106] HEARTBEAT
[16:53:47.129483] [107] ATTITUDE_TARGET
[16:53:47.571547] [108] VFR_HUD
[16:53:48.030655] [120] RADIO
[16:53:48.033602] [120] RADIO_STATUS
[16:53:48.152671] [109] HEARTBEAT
[16:53:48.381733] [110] VFR_HUD
[16:53:49.065706] [121] RADIO
[16:53:49.065892] [121] RADIO_STATUS
[16:53:49.094819] [111] HEARTBEAT
[16:53:49.131877] [112] SYS_STATUS
[16:53:49.139808] [113] BATTERY_STATUS
[16:53:49.141788] [114] EXTENDED_SYS_STATE
[16:53:49.160845] [115] ATTITUDE_TARGET
[16:53:49.165803] [116] VFR_HUD
[16:53:49.169857] [117] SYSTEM_TIME
[16:53:49.982226] [122] RADIO
[16:53:49.984282] [122] RADIO_STATUS
[16:53:50.230978] [118] VFR_HUD
[16:53:50.233958] [119] HEARTBEAT
[16:53:50.791712] [120] VFR_HUD
[16:53:51.020286] [123] RADIO
[16:53:51.023075] [123] RADIO_STATUS
[16:53:51.155256] [121] HEARTBEAT
[16:53:51.163157] [122] ATTITUDE_TARGET
[16:53:51.600215] [123] VFR_HUD
[16:53:52.049322] [124] RADIO
[16:53:52.052245] [124] RADIO_STATUS
[16:53:52.165454] [124] HEARTBEAT
[16:53:52.399605] [125] VFR_HUD
[16:53:53.085468] [126] HEARTBEAT
[16:53:53.105492] [127] SYS_STATUS
[16:53:53.116481] [125] RADIO
[16:53:53.119460] [125] RADIO_STATUS
[16:53:53.223478] [128] BATTERY_STATUS
[16:53:53.335587] [129] ATTITUDE_TARGET
[16:53:53.340451] [130] VFR_HUD
[16:53:53.904564] [131] VFR_HUD
[16:53:54.019627] [126] RADIO
[16:53:54.022600] [126] RADIO_STATUS
[16:53:54.133878] [132] HEARTBEAT
[16:53:54.698668] [133] VFR_HUD
[16:53:55.037926] [127] RADIO
[16:53:55.040862] [127] RADIO_STATUS
[16:53:55.167808] [134] HEARTBEAT
[16:53:55.175840] [135] ATTITUDE_TARGET
[16:53:55.507878] [136] VFR_HUD
[16:53:56.077001] [128] RADIO
[16:53:56.079885] [128] RADIO_STATUS
[16:53:56.193971] [137] HEARTBEAT
[16:53:56.307995] [138] VFR_HUD
[16:53:57.107122] [129] RADIO
[16:53:57.110044] [129] RADIO_STATUS
[16:53:57.235187] [139] HEARTBEAT
[16:53:57.242255] [140] SYS_STATUS
[16:53:57.362390] [141] BATTERY_STATUS
[16:53:57.474161] [142] ATTITUDE_TARGET
[16:53:57.479141] [143] VFR_HUD
[16:53:57.917165] [144] VFR_HUD
[16:53:58.026186] [130] RADIO
[16:53:58.029281] [130] RADIO_STATUS
[16:53:58.142249] [145] HEARTBEAT
[16:53:58.726372] [146] VFR_HUD
[16:53:59.065438] [131] RADIO
[16:53:59.068342] [131] RADIO_STATUS
[16:53:59.195453] [147] HEARTBEAT
[16:53:59.203458] [148] ATTITUDE_TARGET
[16:53:59.526584] [149] VFR_HUD
[16:54:00.095718] [132] RADIO
[16:54:00.098653] [132] RADIO_STATUS
[16:54:00.211823] [150] HEARTBEAT
[16:54:00.341921] [151] VFR_HUD
[16:54:01.014742] [133] RADIO
[16:54:01.017741] [133] RADIO_STATUS
[16:54:01.142749] [152] HEARTBEAT
[16:54:01.149696] [153] SYS_STATUS
[16:54:01.264942] [154] BATTERY_STATUS
[16:54:01.381830] [155] ATTITUDE_TARGET
[16:54:01.386925] [156] VFR_HUD
[16:54:01.950873] [157] VFR_HUD
[16:54:02.070896] [134] RADIO
[16:54:02.073872] [134] RADIO_STATUS
[16:54:02.170941] [158] HEARTBEAT
[16:54:02.744939] [159] VFR_HUD
[16:54:03.084018] [135] RADIO
[16:54:03.086993] [135] RADIO_STATUS
[16:54:03.132078] [160] HEARTBEAT
[16:54:03.140047] [161] ATTITUDE_TARGET
[16:54:03.560390] [162] VFR_HUD
[16:54:04.120421] [163] HEARTBEAT
[16:54:04.233209] [136] RADIO
[16:54:04.236153] [136] RADIO_STATUS
[16:54:04.354262] [164] VFR_HUD
[16:54:05.048339] [137] RADIO
[16:54:05.051418] [137] RADIO_STATUS
[16:54:05.171454] [165] HEARTBEAT
[16:54:05.177436] [166] SYS_STATUS
[16:54:05.296490] [167] BATTERY_STATUS
[16:54:05.304440] [168] ATTITUDE_TARGET
[16:54:05.334396] [169] VFR_HUD
[16:54:05.963486] [170] VFR_HUD
[16:54:06.072512] [138] RADIO
[16:54:06.075482] [138] RADIO_STATUS
[16:54:06.106559] [171] HEARTBEAT
[16:54:06.772621] [172] VFR_HUD
[16:54:07.121632] [173] HEARTBEAT
[16:54:07.129641] [174] ATTITUDE_TARGET
[16:54:07.139652] [139] RADIO
[16:54:07.142617] [139] RADIO_STATUS
[16:54:07.572694] [175] VFR_HUD
[16:54:08.141883] [140] RADIO
[16:54:08.144809] [140] RADIO_STATUS
[16:54:08.175945] [176] HEARTBEAT
[16:54:08.382858] [177] VFR_HUD
[16:54:09.066962] [141] RADIO
[16:54:09.069906] [141] RADIO_STATUS
[16:54:09.107931] [178] HEARTBEAT
[16:54:09.114229] [179] SYS_STATUS
[16:54:09.149787] [180] BATTERY_STATUS
[16:54:09.149931] [181] EXTENDED_SYS_STATE
[16:54:09.156017] [182] ATTITUDE_TARGET
[16:54:09.161244] [183] VFR_HUD
[16:54:09.164126] [184] SYSTEM_TIME
[16:54:09.991352] [185] VFR_HUD
[16:54:10.097173] [186] HEARTBEAT
[16:54:10.129143] [142] RADIO
[16:54:10.131291] [142] RADIO_STATUS
[16:54:10.791282] [187] VFR_HUD
[16:54:11.130225] [143] RADIO
[16:54:11.133190] [143] RADIO_STATUS
[16:54:11.178283] [188] HEARTBEAT
[16:54:11.186280] [189] ATTITUDE_TARGET
[16:54:11.606351] [190] VFR_HUD
[16:54:12.166448] [191] HEARTBEAT
[16:54:12.197443] [144] RADIO
[16:54:12.200665] [144] RADIO_STATUS
[16:54:12.295522] [192] VFR_HUD
[16:54:13.158729] [145] RADIO
[16:54:13.161638] [145] RADIO_STATUS
[16:54:14.120435] [146] RADIO
[16:54:14.122763] [146] RADIO_STATUS
[16:54:14.164828] [198] VFR_HUD
[16:54:14.167827] [199] HEARTBEAT
[16:54:14.700914] [200] VFR_HUD
[16:54:15.169991] [201] HEARTBEAT
[16:54:15.177924] [202] ATTITUDE_TARGET
[16:54:15.187932] [147] RADIO
[16:54:15.190917] [147] RADIO_STATUS
[16:54:15.509972] [203] VFR_HUD
[16:54:16.189127] [148] RADIO
[16:54:16.192137] [148] RADIO_STATUS
[16:54:16.223098] [204] HEARTBEAT
[16:54:16.310113] [205] VFR_HUD
[16:54:17.127265] [206] HEARTBEAT
[16:54:17.134194] [207] SYS_STATUS
[16:54:17.253230] [208] BATTERY_STATUS
[16:54:17.260258] [209] ATTITUDE_TARGET
[16:54:17.291278] [210] VFR_HUD
[16:54:17.318253] [149] RADIO
[16:54:17.321223] [149] RADIO_STATUS
[16:54:17.919346] [211] VFR_HUD
[16:54:18.146165] [212] HEARTBEAT
[16:54:18.258463] [150] RADIO
[16:54:18.261813] [150] RADIO_STATUS
[16:54:18.734477] [213] VFR_HUD
[16:54:19.178584] [151] RADIO
[16:54:19.181527] [151] RADIO_STATUS
[16:54:19.307626] [214] HEARTBEAT
[16:54:19.315741] [215] ATTITUDE_TARGET
[16:54:19.528641] [216] VFR_HUD
[16:54:20.103725] [217] HEARTBEAT
[16:54:20.217747] [152] RADIO
[16:54:20.220704] [152] RADIO_STATUS
[16:54:20.343840] [218] VFR_HUD
[16:54:21.246901] [153] RADIO
[16:54:21.249961] [153] RADIO_STATUS
[16:54:21.316921] [221] BATTERY_STATUS
[16:54:21.323927] [222] ATTITUDE_TARGET
[16:54:21.329024] [223] VFR_HUD
[16:54:22.167083] [154] RADIO
[16:54:22.170032] [154] RADIO_STATUS
[16:54:22.418270] [224] VFR_HUD
[16:54:22.421181] [225] HEARTBEAT
[16:54:22.747203] [226] VFR_HUD
[16:54:23.106531] [227] HEARTBEAT
[16:54:23.114290] [228] ATTITUDE_TARGET
[16:54:23.316244] [155] RADIO
[16:54:23.319200] [155] RADIO_STATUS
[16:54:23.557370] [229] VFR_HUD
[16:54:24.122397] [230] HEARTBEAT
[16:54:24.235380] [156] RADIO
[16:54:24.238377] [156] RADIO_STATUS
[16:54:24.356834] [231] VFR_HUD
[16:54:25.154574] [157] RADIO
[16:54:25.157499] [157] RADIO_STATUS
[16:54:25.283634] [232] HEARTBEAT
[16:54:25.289594] [233] SYS_STATUS
[16:54:25.409816] [234] BATTERY_STATUS
[16:54:25.522595] [235] ATTITUDE_TARGET
[16:54:25.526609] [236] VFR_HUD
[16:54:25.965700] [237] VFR_HUD
[16:54:26.085865] [238] HEARTBEAT
[16:54:26.194886] [158] RADIO
[16:54:26.197734] [158] RADIO_STATUS
[16:54:26.775013] [239] VFR_HUD
[16:54:27.123889] [240] HEARTBEAT
[16:54:27.131938] [241] ATTITUDE_TARGET
[16:54:27.223907] [159] RADIO
[16:54:27.226897] [159] RADIO_STATUS
[16:54:27.573955] [242] VFR_HUD
[16:54:28.150110] [243] HEARTBEAT
[16:54:28.263256] [160] RADIO
[16:54:28.266090] [160] RADIO_STATUS
[16:54:28.384114] [244] VFR_HUD
[16:54:29.293274] [161] RADIO
[16:54:29.297355] [161] RADIO_STATUS
[16:54:29.333297] [247] BATTERY_STATUS
[16:54:29.365994] [248] EXTENDED_SYS_STATE
[16:54:29.372289] [249] ATTITUDE_TARGET
[16:54:29.377324] [250] VFR_HUD
[16:54:29.380438] [251] SYSTEM_TIME
[16:54:30.109357] [252] VFR_HUD
[16:54:30.112356] [253] HEARTBEAT
[16:54:30.212360] [162] RADIO
[16:54:30.215384] [162] RADIO_STATUS
[16:54:30.687486] [254] VFR_HUD
[16:54:31.156656] [255] HEARTBEAT
[16:54:31.164617] [0] ATTITUDE_TARGET
[16:54:31.251580] [163] RADIO
[16:54:31.254523] [163] RADIO_STATUS
[16:54:31.607732] [1] VFR_HUD
[16:54:32.167743] [2] HEARTBEAT
[16:54:32.199106] [164] RADIO
[16:54:32.201681] [164] RADIO_STATUS
[16:54:32.404817] [3] VFR_HUD
[16:54:33.099889] [4] HEARTBEAT
[16:54:33.106241] [5] SYS_STATUS
[16:54:33.200887] [165] RADIO
[16:54:33.203860] [165] RADIO_STATUS
[16:54:33.270925] [6] BATTERY_STATUS
[16:54:33.277890] [7] ATTITUDE_TARGET
[16:54:33.282895] [8] VFR_HUD
[16:54:34.142044] [9] VFR_HUD
[16:54:34.145107] [10] HEARTBEAT
[16:54:34.350071] [166] RADIO
[16:54:34.353047] [166] RADIO_STATUS
[16:54:34.701161] [11] VFR_HUD
[16:54:35.170416] [12] HEARTBEAT
[16:54:35.177290] [13] ATTITUDE_TARGET
[16:54:35.269319] [167] RADIO
[16:54:35.272272] [167] RADIO_STATUS
[16:54:35.510329] [14] VFR_HUD
[16:54:36.200396] [15] HEARTBEAT
[16:54:36.309471] [16] VFR_HUD
[16:54:36.341386] [168] RADIO
[16:54:36.344458] [168] RADIO_STATUS
[16:54:37.132575] [17] HEARTBEAT
[16:54:37.138483] [18] SYS_STATUS
[16:54:37.178586] [19] BATTERY_STATUS
[16:54:37.186565] [20] ATTITUDE_TARGET
[16:54:37.191496] [21] VFR_HUD
[16:54:37.233526] [169] RADIO
[16:54:37.236546] [169] RADIO_STATUS
[16:54:38.155263] [22] VFR_HUD
[16:54:38.157714] [23] HEARTBEAT
[16:54:38.258694] [170] RADIO
[16:54:38.261693] [170] RADIO_STATUS
[16:54:38.733822] [24] VFR_HUD
[16:54:39.202975] [25] HEARTBEAT
[16:54:39.211090] [26] ATTITUDE_TARGET
[16:54:39.303131] [171] RADIO
[16:54:39.305905] [171] RADIO_STATUS
[16:54:40.104053] [28] HEARTBEAT
[16:54:40.223012] [172] RADIO
[16:54:40.226050] [172] RADIO_STATUS
[16:54:40.343121] [29] VFR_HUD
[16:54:41.145183] [30] HEARTBEAT
[16:54:41.152153] [31] SYS_STATUS
[16:54:41.247172] [173] RADIO
[16:54:41.250181] [173] RADIO_STATUS
[16:54:41.316180] [32] BATTERY_STATUS
[16:54:41.324585] [33] ATTITUDE_TARGET
[16:54:41.329172] [34] VFR_HUD
[16:54:42.183367] [35] VFR_HUD
[16:54:42.186355] [36] HEARTBEAT
[16:54:42.396380] [174] RADIO
[16:54:42.399333] [174] RADIO_STATUS
[16:54:42.750464] [37] VFR_HUD
[16:54:43.106507] [38] HEARTBEAT
[16:54:43.114536] [39] ATTITUDE_TARGET
[16:54:43.316516] [175] RADIO
[16:54:43.319505] [175] RADIO_STATUS
[16:54:43.556539] [40] VFR_HUD
[16:54:44.131672] [41] HEARTBEAT
[16:54:44.356722] [42] VFR_HUD
[16:54:44.388820] [176] RADIO
[16:54:44.391954] [176] RADIO_STATUS
[16:54:45.173869] [43] HEARTBEAT
[16:54:45.179856] [44] SYS_STATUS
[16:54:45.384807] [177] RADIO
[16:54:45.387797] [177] RADIO_STATUS
[16:54:45.968311] [48] VFR_HUD
[16:54:46.080948] [49] HEARTBEAT
[16:54:46.305023] [178] RADIO
[16:54:46.307907] [178] RADIO_STATUS
[16:54:46.775024] [50] VFR_HUD
[16:54:47.124115] [51] HEARTBEAT
[16:54:47.132105] [52] ATTITUDE_TARGET
[16:54:47.344218] [179] RADIO
[16:54:47.347087] [179] RADIO_STATUS
[16:54:48.153835] [54] HEARTBEAT
[16:54:48.264655] [180] RADIO
[16:54:48.267334] [180] RADIO_STATUS
[16:54:48.390253] [55] VFR_HUD
[16:54:49.191437] [56] HEARTBEAT
[16:54:49.198399] [57] SYS_STATUS
[16:54:49.293385] [181] RADIO
[16:54:49.296329] [181] RADIO_STATUS
[16:54:49.334398] [58] BATTERY_STATUS
[16:54:49.364357] [59] EXTENDED_SYS_STATE
[16:54:49.372383] [60] ATTITUDE_TARGET
[16:54:49.377412] [61] VFR_HUD
[16:54:49.380366] [62] SYSTEM_TIME
[16:54:50.109540] [63] VFR_HUD
[16:54:50.112508] [64] HEARTBEAT
[16:54:50.332526] [182] RADIO
[16:54:50.335680] [182] RADIO_STATUS
[16:54:50.793588] [65] VFR_HUD
[16:54:51.151808] [66] HEARTBEAT
[16:54:51.159660] [67] ATTITUDE_TARGET
[16:54:51.361688] [183] RADIO
[16:54:51.364652] [183] RADIO_STATUS
[16:54:51.487696] [68] VFR_HUD
[16:54:52.177908] [69] HEARTBEAT
[16:54:52.281874] [184] RADIO
[16:54:52.284835] [184] RADIO_STATUS
[16:54:52.401851] [70] VFR_HUD
[16:54:53.100051] [71] HEARTBEAT
[16:54:53.106045] [72] SYS_STATUS
[16:54:53.221047] [73] BATTERY_STATUS
[16:54:53.431166] [185] RADIO
[16:54:53.434031] [185] RADIO_STATUS
[16:54:53.485057] [74] ATTITUDE_TARGET
[16:54:53.490055] [75] VFR_HUD
[16:54:53.901098] [76] VFR_HUD
[16:54:54.132107] [77] HEARTBEAT
[16:54:54.350236] [186] RADIO
[16:54:54.353197] [186] RADIO_STATUS
[16:54:54.701796] [78] VFR_HUD
[16:54:55.170285] [79] HEARTBEAT
[16:54:55.178274] [80] ATTITUDE_TARGET
[16:54:55.390298] [187] RADIO
[16:54:55.393242] [187] RADIO_STATUS
[16:54:55.516320] [81] VFR_HUD
[16:54:56.081404] [82] HEARTBEAT
[16:54:56.310591] [83] VFR_HUD
[16:54:56.337597] [188] RADIO
[16:54:56.340430] [188] RADIO_STATUS
[16:54:57.132674] [84] HEARTBEAT
[16:54:57.139610] [85] SYS_STATUS
[16:54:57.179589] [86] BATTERY_STATUS
[16:54:57.187578] [87] ATTITUDE_TARGET
[16:54:57.191591] [88] VFR_HUD
[16:54:57.339704] [189] RADIO
[16:54:57.342824] [189] RADIO_STATUS
[16:54:58.155835] [89] VFR_HUD
[16:54:58.158900] [90] HEARTBEAT
[16:54:58.379023] [190] RADIO
[16:54:58.381813] [190] RADIO_STATUS
[16:54:58.734888] [91] VFR_HUD
[16:54:59.205977] [92] HEARTBEAT
[16:54:59.211955] [93] ATTITUDE_TARGET
[16:54:59.303981] [191] RADIO
[16:54:59.306891] [191] RADIO_STATUS
[16:54:59.529144] [94] VFR_HUD
[16:55:00.110158] [95] HEARTBEAT
[16:55:00.328210] [192] RADIO
[16:55:00.331215] [192] RADIO_STATUS
[16:55:00.449172] [96] VFR_HUD
[16:55:01.146328] [97] HEARTBEAT
[16:55:01.152277] [98] SYS_STATUS
[16:55:01.272288] [99] BATTERY_STATUS
[16:55:01.395312] [193] RADIO
[16:55:01.399863] [193] RADIO_STATUS
[16:55:01.504339] [100] ATTITUDE_TARGET
[16:55:01.509306] [101] VFR_HUD
[16:55:01.948371] [102] VFR_HUD
[16:55:02.178432] [103] HEARTBEAT
[16:55:02.397805] [194] RADIO
[16:55:02.400647] [194] RADIO_STATUS
[16:55:02.747502] [104] VFR_HUD
[16:55:03.106593] [105] HEARTBEAT
[16:55:03.114541] [106] ATTITUDE_TARGET
[16:55:03.436621] [195] RADIO
[16:55:03.439603] [195] RADIO_STATUS
[16:55:03.557600] [107] VFR_HUD
[16:55:04.122738] [108] HEARTBEAT
[16:55:04.356720] [109] VFR_HUD
[16:55:04.389720] [196] RADIO
[16:55:04.392740] [196] RADIO_STATUS
[16:55:05.173966] [110] HEARTBEAT
[16:55:05.180889] [111] SYS_STATUS
[16:55:05.299876] [112] BATTERY_STATUS
[16:55:05.307882] [113] ATTITUDE_TARGET
[16:55:05.337885] [114] VFR_HUD
[16:55:05.364860] [197] RADIO
[16:55:05.367830] [197] RADIO_STATUS
[16:55:05.966979] [115] VFR_HUD
[16:55:06.082071] [116] HEARTBEAT
[16:55:06.431034] [198] RADIO
[16:55:06.434023] [198] RADIO_STATUS
[16:55:06.781096] [117] VFR_HUD
[16:55:07.244228] [118] HEARTBEAT
[16:55:07.252179] [119] ATTITUDE_TARGET
[16:55:07.455377] [199] RADIO
[16:55:07.458182] [199] RADIO_STATUS
[16:55:07.493251] [120] VFR_HUD
[16:55:08.151377] [121] HEARTBEAT
[16:55:08.375335] [200] RADIO
[16:55:08.378339] [200] RADIO_STATUS
[16:55:08.413371] [122] VFR_HUD
[16:55:09.192602] [123] HEARTBEAT
[16:55:09.201852] [124] SYS_STATUS
[16:55:09.322524] [125] BATTERY_STATUS
[16:55:09.324467] [126] EXTENDED_SYS_STATE
[16:55:09.356531] [127] ATTITUDE_TARGET
[16:55:09.361506] [128] VFR_HUD
[16:55:09.364473] [129] SYSTEM_TIME
[16:55:09.419529] [201] RADIO
[16:55:09.423804] [201] RADIO_STATUS
[16:55:10.000645] [130] VFR_HUD
[16:55:10.111669] [131] HEARTBEAT
[16:55:10.444660] [202] RADIO
[16:55:10.447652] [202] RADIO_STATUS
[16:55:10.684724] [132] VFR_HUD
[16:55:11.153809] [133] HEARTBEAT
[16:55:11.161817] [134] ATTITUDE_TARGET
[16:55:11.489829] [135] VFR_HUD
[16:55:11.516868] [203] RADIO
[16:55:11.519786] [203] RADIO_STATUS
[16:55:12.169957] [136] HEARTBEAT
[16:55:12.293981] [137] VFR_HUD
[16:55:12.403993] [204] RADIO
[16:55:12.409758] [204] RADIO_STATUS
[16:55:13.102141] [138] HEARTBEAT
[16:55:13.108140] [139] SYS_STATUS
[16:55:13.223097] [140] BATTERY_STATUS
[16:55:13.340128] [141] ATTITUDE_TARGET
[16:55:13.345596] [142] VFR_HUD
[16:55:13.433153] [205] RADIO
[16:55:13.436025] [205] RADIO_STATUS
[16:55:13.909184] [143] VFR_HUD
[16:55:14.129352] [144] HEARTBEAT
[16:55:14.478384] [206] RADIO
[16:55:14.481279] [206] RADIO_STATUS
[16:55:14.703295] [145] VFR_HUD
[16:55:15.292461] [146] HEARTBEAT
[16:55:15.299444] [147] ATTITUDE_TARGET
[16:55:15.502411] [207] RADIO
[16:55:15.505362] [207] RADIO_STATUS
[16:55:15.541441] [148] VFR_HUD
[16:55:16.078506] [149] HEARTBEAT
[16:55:16.312619] [150] VFR_HUD
[16:55:16.422645] [208] RADIO
[16:55:16.425544] [208] RADIO_STATUS
[16:55:17.135749] [151] HEARTBEAT
[16:55:17.142773] [152] SYS_STATUS
[16:55:17.181745] [153] BATTERY_STATUS
[16:55:17.189729] [154] ATTITUDE_TARGET
[16:55:17.194822] [155] VFR_HUD
[16:55:17.461801] [209] RADIO
[16:55:17.464804] [209] RADIO_STATUS
[16:55:18.158056] [156] VFR_HUD
[16:55:18.160896] [157] HEARTBEAT
[16:55:18.491842] [210] RADIO
[16:55:18.494806] [210] RADIO_STATUS
[16:55:18.731948] [158] VFR_HUD
[16:55:19.206012] [159] HEARTBEAT
[16:55:19.213958] [160] ATTITUDE_TARGET
[16:55:19.532041] [161] VFR_HUD
[16:55:19.559088] [211] RADIO
[16:55:19.562217] [211] RADIO_STATUS
[16:55:20.112211] [162] HEARTBEAT
[16:55:20.341267] [163] VFR_HUD
[16:55:20.451183] [212] RADIO
[16:55:20.454200] [212] RADIO_STATUS
[16:55:21.149918] [164] HEARTBEAT
[16:55:21.155625] [165] SYS_STATUS
[16:55:21.275417] [166] BATTERY_STATUS
[16:55:21.388747] [167] ATTITUDE_TARGET
[16:55:21.392554] [168] VFR_HUD
[16:55:21.480343] [213] RADIO
[16:55:21.483316] [213] RADIO_STATUS
[16:55:21.951410] [169] VFR_HUD
[16:55:22.181518] [170] HEARTBEAT
[16:55:22.520529] [214] RADIO
[16:55:22.523884] [214] RADIO_STATUS
[16:55:22.750569] [171] VFR_HUD
[16:55:23.115657] [172] HEARTBEAT
[16:55:23.123652] [173] ATTITUDE_TARGET
[16:55:23.439652] [215] RADIO
[16:55:23.442656] [215] RADIO_STATUS
[16:55:23.560746] [174] VFR_HUD
[16:55:24.125908] [175] HEARTBEAT
[16:55:24.359874] [176] VFR_HUD
[16:55:24.469871] [216] RADIO
[16:55:24.472806] [216] RADIO_STATUS
[16:55:25.182977] [177] HEARTBEAT
[16:55:25.189015] [178] SYS_STATUS
[16:55:25.228962] [179] BATTERY_STATUS
[16:55:25.236990] [180] ATTITUDE_TARGET
[16:55:25.241987] [181] VFR_HUD
[16:55:25.509083] [217] RADIO
[16:55:25.512051] [217] RADIO_STATUS
[16:55:26.095957] [182] VFR_HUD
[16:55:26.098116] [183] HEARTBEAT
[16:55:26.540589] [218] RADIO
[16:55:26.541184] [218] RADIO_STATUS
[16:55:26.784284] [184] VFR_HUD
[16:55:27.128404] [185] HEARTBEAT
[16:55:27.136457] [186] ATTITUDE_TARGET
[16:55:27.458372] [219] RADIO
[16:55:27.461696] [219] RADIO_STATUS
[16:55:27.578501] [187] VFR_HUD
[16:55:28.153500] [188] HEARTBEAT
[16:55:28.393766] [189] VFR_HUD
[16:55:28.514580] [220] RADIO
[16:55:28.517566] [220] RADIO_STATUS
[16:55:29.195691] [190] HEARTBEAT
[16:55:29.201664] [191] SYS_STATUS
[16:55:29.325955] [192] BATTERY_STATUS
[16:55:29.326782] [193] EXTENDED_SYS_STATE
[16:55:29.358946] [194] ATTITUDE_TARGET
[16:55:29.363741] [195] VFR_HUD
[16:55:29.367689] [196] SYSTEM_TIME
[16:55:29.526802] [221] RADIO
[16:55:29.529738] [221] RADIO_STATUS
[16:55:29.996837] [197] VFR_HUD
[16:55:30.111829] [198] HEARTBEAT
[16:55:30.570936] [222] RADIO
[16:55:30.573893] [222] RADIO_STATUS
[16:55:30.796956] [199] VFR_HUD
[16:55:31.156186] [200] HEARTBEAT
[16:55:31.163984] [201] ATTITUDE_TARGET
[16:55:31.486050] [202] VFR_HUD
[16:55:31.519072] [223] RADIO
[16:55:31.522198] [223] RADIO_STATUS
[16:55:32.172134] [203] HEARTBEAT
[16:55:32.301138] [204] VFR_HUD
[16:55:32.515166] [224] RADIO
[16:55:32.518124] [224] RADIO_STATUS
[16:55:33.103270] [205] HEARTBEAT
[16:55:33.110301] [206] SYS_STATUS
[16:55:33.224262] [207] BATTERY_STATUS
[16:55:33.342336] [208] ATTITUDE_TARGET
[16:55:33.347300] [209] VFR_HUD
[16:55:33.664334] [225] RADIO
[16:55:33.667324] [225] RADIO_STATUS
[16:55:33.910356] [210] VFR_HUD
[16:55:34.130565] [211] HEARTBEAT
[16:55:34.584486] [226] RADIO
[16:55:34.587478] [226] RADIO_STATUS
[16:55:35.173639] [213] HEARTBEAT
[16:55:35.181650] [214] ATTITUDE_TARGET
[16:55:35.503648] [227] RADIO
[16:55:35.506603] [227] RADIO_STATUS
[16:55:35.542756] [215] VFR_HUD
[16:55:36.079767] [216] HEARTBEAT
[16:55:36.314205] [217] VFR_HUD
[16:55:36.547922] [228] RADIO
[16:55:36.551312] [228] RADIO_STATUS
[16:55:37.131293] [218] HEARTBEAT
[16:55:37.139522] [219] SYS_STATUS
[16:55:37.294051] [222] VFR_HUD
[16:55:37.573020] [229] RADIO
[16:55:37.575965] [229] RADIO_STATUS
[16:55:37.923042] [223] VFR_HUD
[16:55:38.617086] [230] RADIO
[16:55:38.620099] [230] RADIO_STATUS
[16:55:38.733138] [225] VFR_HUD
[16:55:39.202240] [226] HEARTBEAT
[16:55:39.210216] [227] ATTITUDE_TARGET
[16:55:39.532262] [228] VFR_HUD
[16:55:39.564298] [231] RADIO
[16:55:39.567264] [231] RADIO_STATUS
[16:55:40.113731] [229] HEARTBEAT
[16:55:40.342459] [230] VFR_HUD
[16:55:40.561456] [232] RADIO
[16:55:40.564404] [232] RADIO_STATUS
[16:55:41.149603] [231] HEARTBEAT
[16:55:41.156592] [232] SYS_STATUS
[16:55:41.270571] [233] BATTERY_STATUS
[16:55:41.388994] [234] ATTITUDE_TARGET
[16:55:41.393576] [235] VFR_HUD
[16:55:41.710877] [233] RADIO
[16:55:41.713756] [233] RADIO_STATUS
[16:55:41.951720] [236] VFR_HUD
[16:55:42.181705] [237] HEARTBEAT
[16:55:42.630744] [234] RADIO
[16:55:42.633781] [234] RADIO_STATUS
[16:55:43.117857] [239] HEARTBEAT
[16:55:43.122851] [240] ATTITUDE_TARGET
[16:55:43.549887] [235] RADIO
[16:55:43.552891] [235] RADIO_STATUS
[16:55:43.587905] [241] VFR_HUD
[16:55:44.126009] [242] HEARTBEAT
[16:55:44.360112] [243] VFR_HUD
[16:55:44.589107] [236] RADIO
[16:55:44.592057] [236] RADIO_STATUS
[16:55:45.182196] [244] HEARTBEAT
[16:55:45.189157] [245] SYS_STATUS
[16:55:45.228237] [246] BATTERY_STATUS
[16:55:45.236182] [247] ATTITUDE_TARGET
[16:55:45.241212] [248] VFR_HUD
[16:55:45.618213] [237] RADIO
[16:55:45.621167] [237] RADIO_STATUS
[16:55:45.969288] [249] VFR_HUD
[16:55:46.089424] [250] HEARTBEAT
[16:55:46.538422] [238] RADIO
[16:55:46.541339] [238] RADIO_STATUS
[16:55:46.783652] [251] VFR_HUD
[16:55:47.127694] [252] HEARTBEAT
[16:55:47.135572] [253] ATTITUDE_TARGET
[16:55:47.578573] [254] VFR_HUD
[16:55:47.605565] [239] RADIO
[16:55:47.608569] [239] RADIO_STATUS
[16:55:48.158674] [255] HEARTBEAT
[16:55:48.387785] [0] VFR_HUD
[16:55:48.606762] [240] RADIO
[16:55:48.609745] [240] RADIO_STATUS
[16:55:49.195284] [1] HEARTBEAT
[16:55:49.201849] [2] SYS_STATUS
[16:55:49.324920] [3] BATTERY_STATUS
[16:55:49.326884] [4] EXTENDED_SYS_STATE
[16:55:49.358879] [5] ATTITUDE_TARGET
[16:55:49.363855] [6] VFR_HUD
[16:55:49.366910] [7] SYSTEM_TIME
[16:55:49.646963] [241] RADIO
[16:55:49.649829] [241] RADIO_STATUS
[16:55:49.998088] [8] VFR_HUD
[16:55:50.103046] [9] HEARTBEAT
[16:55:50.566160] [242] RADIO
[16:55:50.569122] [242] RADIO_STATUS
[16:55:50.692104] [10] VFR_HUD
[16:55:51.156152] [11] HEARTBEAT
[16:55:51.165953] [12] ATTITUDE_TARGET
[16:55:51.487209] [13] VFR_HUD
[16:55:51.596224] [243] RADIO
[16:55:51.599179] [243] RADIO_STATUS
[16:55:52.172336] [14] HEARTBEAT
[16:55:52.301369] [15] VFR_HUD
[16:55:52.635446] [244] RADIO
[16:55:52.638471] [244] RADIO_STATUS
[16:55:53.225538] [18] BATTERY_STATUS
[16:55:53.342559] [19] ATTITUDE_TARGET
[16:55:53.347597] [20] VFR_HUD
[16:55:53.588557] [245] RADIO
[16:55:53.591604] [245] RADIO_STATUS
[16:55:53.910970] [21] VFR_HUD
[16:55:54.130679] [22] HEARTBEAT
[16:55:54.584839] [246] RADIO
[16:55:54.587751] [246] RADIO_STATUS
[16:55:54.704766] [23] VFR_HUD
[16:55:55.173984] [24] HEARTBEAT
[16:55:55.181881] [25] ATTITUDE_TARGET
[16:55:55.515124] [26] VFR_HUD
[16:55:55.628953] [247] RADIO
[16:55:55.632181] [247] RADIO_STATUS
[16:55:56.080377] [27] HEARTBEAT
[16:55:56.314990] [28] VFR_HUD
[16:55:56.654070] [248] RADIO
[16:55:56.657033] [248] RADIO_STATUS
[16:55:57.132188] [29] HEARTBEAT
[16:55:57.138212] [30] SYS_STATUS
[16:55:57.257295] [31] BATTERY_STATUS
[16:55:57.265299] [32] ATTITUDE_TARGET
[16:55:57.295292] [33] VFR_HUD
[16:55:57.693544] [249] RADIO
[16:55:57.696240] [249] RADIO_STATUS
[16:55:57.924306] [34] VFR_HUD
[16:55:58.149386] [35] HEARTBEAT
[16:55:58.618424] [250] RADIO
[16:55:58.621469] [250] RADIO_STATUS
[16:55:58.733431] [36] VFR_HUD
[16:55:59.202519] [37] HEARTBEAT
[16:55:59.210541] [38] ATTITUDE_TARGET
[16:55:59.533571] [39] VFR_HUD
[16:55:59.642586] [251] RADIO
[16:55:59.645518] [251] RADIO_STATUS
[16:56:00.108765] [40] HEARTBEAT
[16:56:00.342682] [41] VFR_HUD
[16:56:00.686786] [252] RADIO
[16:56:00.689674] [252] RADIO_STATUS
[16:56:01.271829] [44] BATTERY_STATUS
[16:56:01.389085] [45] ATTITUDE_TARGET
[16:56:01.393907] [46] VFR_HUD
[16:56:01.634958] [253] RADIO
[16:56:01.637859] [253] RADIO_STATUS
[16:56:01.957067] [47] VFR_HUD
[16:56:02.177908] [48] HEARTBEAT
[16:56:02.631069] [254] RADIO
[16:56:02.634086] [254] RADIO_STATUS
[16:56:02.752052] [49] VFR_HUD
[16:56:03.116175] [50] HEARTBEAT
[16:56:03.124245] [51] ATTITUDE_TARGET
[16:56:03.567237] [52] VFR_HUD
[16:56:03.687247] [255] RADIO
[16:56:03.690202] [255] RADIO_STATUS
[16:56:04.127445] [53] HEARTBEAT
[16:56:04.361400] [54] VFR_HUD
[16:56:04.700444] [0] RADIO
[16:56:04.703370] [0] RADIO_STATUS
[16:56:05.183576] [55] HEARTBEAT
[16:56:05.190478] [56] SYS_STATUS
[16:56:05.230562] [57] BATTERY_STATUS
[16:56:05.238564] [58] ATTITUDE_TARGET
[16:56:05.242598] [59] VFR_HUD
[16:56:05.849820] [1] RADIO
[16:56:05.852727] [1] RADIO_STATUS
[16:56:06.101750] [60] VFR_HUD
[16:56:06.104623] [61] HEARTBEAT
[16:56:06.664711] [2] RADIO
[16:56:06.667716] [2] RADIO_STATUS
[16:56:06.780759] [62] VFR_HUD
[16:56:07.129909] [63] HEARTBEAT
[16:56:07.137934] [64] ATTITUDE_TARGET
[16:56:07.579892] [65] VFR_HUD
[16:56:07.689886] [3] RADIO
[16:56:07.691828] [3] RADIO_STATUS
[16:56:08.161001] [66] HEARTBEAT
[16:56:08.390119] [67] VFR_HUD
[16:56:08.734127] [4] RADIO
[16:56:08.737097] [4] RADIO_STATUS
[16:56:09.080226] [68] HEARTBEAT
[16:56:09.759222] [5] RADIO
[16:56:09.762170] [5] RADIO_STATUS
[16:56:10.001996] [75] VFR_HUD
[16:56:10.105245] [76] HEARTBEAT
[16:56:10.678376] [6] RADIO
[16:56:10.681351] [6] RADIO_STATUS
[16:56:10.717331] [77] VFR_HUD
[16:56:11.163447] [78] HEARTBEAT
[16:56:11.171571] [79] ATTITUDE_TARGET
[16:56:11.717462] [7] RADIO
[16:56:11.720505] [7] RADIO_STATUS
[16:56:12.173618] [81] HEARTBEAT
[16:56:12.303568] [82] VFR_HUD
[16:56:12.747621] [8] RADIO
[16:56:12.750623] [8] RADIO_STATUS
[16:56:13.105758] [83] HEARTBEAT
[16:56:13.111701] [84] SYS_STATUS
[16:56:13.231751] [85] BATTERY_STATUS
[16:56:13.343781] [86] ATTITUDE_TARGET
[16:56:13.348872] [87] VFR_HUD
[16:56:13.786990] [9] RADIO
[16:56:13.789937] [9] RADIO_STATUS
[16:56:13.907823] [88] VFR_HUD
[16:56:14.132907] [89] HEARTBEAT
[16:56:14.706951] [90] VFR_HUD
[16:56:14.733989] [10] RADIO
[16:56:14.736943] [10] RADIO_STATUS
[16:56:15.176054] [91] HEARTBEAT
[16:56:15.184032] [92] ATTITUDE_TARGET
[16:56:15.516187] [93] VFR_HUD
[16:56:15.736136] [11] RADIO
[16:56:15.739103] [11] RADIO_STATUS
[16:56:16.082228] [94] HEARTBEAT
[16:56:16.316231] [95] VFR_HUD
[16:56:16.775358] [12] RADIO
[16:56:16.778276] [12] RADIO_STATUS
[16:56:17.133412] [96] HEARTBEAT
[16:56:17.139442] [97] SYS_STATUS
[16:56:17.296436] [100] VFR_HUD
[16:56:17.711693] [13] RADIO
[16:56:17.714448] [13] RADIO_STATUS
[16:56:17.925481] [101] VFR_HUD
[16:56:18.150618] [102] HEARTBEAT
[16:56:18.724629] [14] RADIO
[16:56:18.727618] [14] RADIO_STATUS
[16:56:18.844645] [103] VFR_HUD
[16:56:19.075832] [104] HEARTBEAT
[16:56:19.097786] [105] ATTITUDE_TARGET
[16:56:19.545759] [106] VFR_HUD
[16:56:19.763917] [15] RADIO
[16:56:19.766754] [15] RADIO_STATUS
[16:56:20.109904] [107] HEARTBEAT
[16:56:20.348878] [108] VFR_HUD
[16:56:20.792929] [16] RADIO
[16:56:20.795924] [16] RADIO_STATUS
[16:56:21.151015] [109] HEARTBEAT
[16:56:21.158216] [110] SYS_STATUS
[16:56:21.273032] [111] BATTERY_STATUS
[16:56:21.390142] [112] ATTITUDE_TARGET
[16:56:21.395058] [113] VFR_HUD
[16:56:21.833171] [17] RADIO
[16:56:21.836093] [17] RADIO_STATUS
[16:56:21.959244] [114] VFR_HUD
[16:56:22.179201] [115] HEARTBEAT
[16:56:22.753275] [116] VFR_HUD
[16:56:22.780349] [18] RADIO
[16:56:22.783273] [18] RADIO_STATUS
[16:56:23.117354] [117] HEARTBEAT
[16:56:23.125355] [118] ATTITUDE_TARGET
[16:56:23.573736] [119] VFR_HUD
[16:56:23.782448] [19] RADIO
[16:56:23.785407] [19] RADIO_STATUS
[16:56:24.128623] [120] HEARTBEAT
[16:56:24.362685] [121] VFR_HUD
[16:56:24.821585] [20] RADIO
[16:56:24.824595] [20] RADIO_STATUS
[16:56:25.179904] [122] HEARTBEAT
[16:56:25.185912] [123] SYS_STATUS
[16:56:25.850879] [21] RADIO
[16:56:25.853748] [21] RADIO_STATUS
[16:56:25.971894] [127] VFR_HUD
[16:56:26.091950] [128] HEARTBEAT
[16:56:26.769875] [22] RADIO
[16:56:26.772890] [22] RADIO_STATUS
[16:56:26.890926] [129] VFR_HUD
[16:56:27.129966] [130] HEARTBEAT
[16:56:27.137967] [131] ATTITUDE_TARGET
[16:56:27.581086] [132] VFR_HUD
[16:56:27.815059] [23] RADIO
[16:56:27.818031] [23] RADIO_STATUS
[16:56:28.161208] [133] HEARTBEAT
[16:56:28.390194] [134] VFR_HUD
[16:56:28.839317] [24] RADIO
[16:56:28.842267] [24] RADIO_STATUS
[16:56:29.092403] [135] HEARTBEAT
[16:56:29.099338] [136] SYS_STATUS
[16:56:29.133333] [137] BATTERY_STATUS
[16:56:29.135272] [138] EXTENDED_SYS_STATE
[16:56:29.143362] [139] ATTITUDE_TARGET
[16:56:29.148282] [140] VFR_HUD
[16:56:29.151259] [141] SYSTEM_TIME
[16:56:29.884405] [142] VFR_HUD
[16:56:29.911440] [25] RADIO
[16:56:29.914423] [25] RADIO_STATUS
[16:56:30.105532] [143] HEARTBEAT
[16:56:30.694570] [144] VFR_HUD
[16:56:30.814557] [26] RADIO
[16:56:30.817542] [26] RADIO_STATUS
[16:56:31.163742] [145] HEARTBEAT
[16:56:31.171627] [146] ATTITUDE_TARGET
[16:56:31.488710] [147] VFR_HUD
[16:56:31.827737] [27] RADIO
[16:56:31.831249] [27] RADIO_STATUS
[16:56:32.173802] [148] HEARTBEAT
[16:56:32.303895] [149] VFR_HUD
[16:56:32.872907] [28] RADIO
[16:56:32.875839] [28] RADIO_STATUS
[16:56:33.105918] [150] HEARTBEAT
[16:56:33.111923] [151] SYS_STATUS
[16:56:33.233317] [152] BATTERY_STATUS
[16:56:33.791995] [29] RADIO
[16:56:33.795013] [29] RADIO_STATUS
[16:56:33.907094] [155] VFR_HUD
[16:56:34.138087] [156] HEARTBEAT
[16:56:34.707219] [157] VFR_HUD
[16:56:34.816290] [30] RADIO
[16:56:34.819226] [30] RADIO_STATUS
[16:56:35.176475] [158] HEARTBEAT
[16:56:35.184333] [159] ATTITUDE_TARGET
[16:56:35.516291] [160] VFR_HUD
[16:56:35.860724] [31] RADIO
[16:56:35.863322] [31] RADIO_STATUS
[16:56:36.081462] [161] HEARTBEAT
[16:56:36.316436] [162] VFR_HUD
[16:56:36.884606] [32] RADIO
[16:56:36.887491] [32] RADIO_STATUS
[16:56:37.132554] [163] HEARTBEAT
[16:56:37.139565] [164] SYS_STATUS
[16:56:37.261794] [165] BATTERY_STATUS
[16:56:37.265563] [166] ATTITUDE_TARGET
[16:56:37.296607] [167] VFR_HUD
[16:56:37.804672] [33] RADIO
[16:56:37.807692] [33] RADIO_STATUS
[16:56:38.150817] [169] HEARTBEAT
[16:56:38.739875] [170] VFR_HUD
[16:56:38.855828] [34] RADIO
[16:56:38.857839] [34] RADIO_STATUS
[16:56:39.074906] [171] HEARTBEAT
[16:56:39.203022] [172] ATTITUDE_TARGET
[16:56:39.533967] [173] VFR_HUD
[16:56:39.874045] [35] RADIO
[16:56:39.877155] [35] RADIO_STATUS
[16:56:40.110087] [174] HEARTBEAT
[16:56:40.349148] [175] VFR_HUD
[16:56:40.918254] [36] RADIO
[16:56:40.921261] [36] RADIO_STATUS
[16:56:41.151465] [176] HEARTBEAT
[16:56:41.158250] [177] SYS_STATUS
[16:56:41.272312] [178] BATTERY_STATUS
[16:56:41.619398] [179] ATTITUDE_TARGET
[16:56:41.624260] [180] VFR_HUD
[16:56:41.832360] [37] RADIO
[16:56:41.835288] [37] RADIO_STATUS
[16:56:41.958347] [181] VFR_HUD
[16:56:42.075447] [182] HEARTBEAT
[16:56:42.753460] [183] VFR_HUD
[16:56:42.862463] [38] RADIO
[16:56:42.865430] [38] RADIO_STATUS
[16:56:43.112528] [184] HEARTBEAT
[16:56:43.119541] [185] ATTITUDE_TARGET
[16:56:43.562725] [186] VFR_HUD
[16:56:43.901621] [39] RADIO
[16:56:43.904574] [39] RADIO_STATUS
[16:56:44.127703] [187] HEARTBEAT
[16:56:44.362829] [188] VFR_HUD
[16:56:44.930900] [40] RADIO
[16:56:44.933892] [40] RADIO_STATUS
[16:56:45.178914] [189] HEARTBEAT
[16:56:45.185880] [190] SYS_STATUS
[16:56:45.304940] [191] BATTERY_STATUS
[16:56:45.312841] [192] ATTITUDE_TARGET
[16:56:45.342904] [193] VFR_HUD
[16:56:45.850976] [41] RADIO
[16:56:45.853922] [41] RADIO_STATUS
[16:56:45.888950] [194] VFR_HUD
[16:56:46.087052] [195] HEARTBEAT
[16:56:46.781057] [196] VFR_HUD
[16:56:46.890085] [42] RADIO
[16:56:46.893038] [42] RADIO_STATUS
[16:56:47.250186] [197] HEARTBEAT
[16:56:47.257153] [198] ATTITUDE_TARGET
[16:56:47.581226] [199] VFR_HUD
[16:56:47.920234] [43] RADIO
[16:56:47.923173] [43] RADIO_STATUS
[16:56:48.156286] [200] HEARTBEAT
[16:56:48.390319] [201] VFR_HUD
[16:56:48.959393] [44] RADIO
[16:56:48.962357] [44] RADIO_STATUS
[16:56:49.093442] [202] HEARTBEAT
[16:56:49.100440] [203] SYS_STATUS
[16:56:49.134484] [204] BATTERY_STATUS
[16:56:49.135467] [205] EXTENDED_SYS_STATE
[16:56:49.143487] [206] ATTITUDE_TARGET
[16:56:49.148445] [207] VFR_HUD
[16:56:49.151491] [208] SYSTEM_TIME
[16:56:49.879614] [209] VFR_HUD
[16:56:49.907624] [45] RADIO
[16:56:49.909660] [45] RADIO_STATUS
[16:56:50.105608] [210] HEARTBEAT
[16:56:50.694677] [211] VFR_HUD
[16:56:50.908761] [46] RADIO
[16:56:50.911760] [46] RADIO_STATUS
[16:56:51.163789] [212] HEARTBEAT
[16:56:51.171804] [213] ATTITUDE_TARGET
[16:56:51.488885] [214] VFR_HUD
[16:56:51.947885] [47] RADIO
[16:56:51.950915] [47] RADIO_STATUS
[16:56:52.173901] [215] HEARTBEAT
[16:56:52.298896] [216] VFR_HUD
[16:56:52.873071] [48] RADIO
[16:56:52.875979] [48] RADIO_STATUS
[16:56:53.106124] [217] HEARTBEAT
[16:56:53.113056] [218] SYS_STATUS
[16:56:53.233101] [219] BATTERY_STATUS
[16:56:53.345167] [220] ATTITUDE_TARGET
[16:56:53.350082] [221] VFR_HUD
[16:56:53.897224] [49] RADIO
[16:56:53.900192] [49] RADIO_STATUS
[16:56:54.029316] [222] VFR_HUD
[16:56:54.138301] [223] HEARTBEAT
[16:56:54.707331] [224] VFR_HUD
[16:56:54.937337] [50] RADIO
[16:56:54.939272] [50] RADIO_STATUS
[16:56:55.301382] [225] HEARTBEAT
[16:56:55.309456] [226] ATTITUDE_TARGET
[16:56:55.517458] [227] VFR_HUD
[16:56:55.966514] [51] RADIO
[16:56:55.969497] [51] RADIO_STATUS
[16:56:56.082557] [228] HEARTBEAT
[16:56:56.328670] [229] VFR_HUD
[16:56:56.885747] [52] RADIO
[16:56:56.888720] [52] RADIO_STATUS
[16:56:57.138721] [230] HEARTBEAT
[16:56:57.145712] [231] SYS_STATUS
[16:56:57.185699] [232] BATTERY_STATUS
[16:56:57.193854] [233] ATTITUDE_TARGET
[16:56:57.197693] [234] VFR_HUD
[16:56:57.931011] [53] RADIO
[16:56:57.933822] [53] RADIO_STATUS
[16:56:58.161916] [235] VFR_HUD
[16:56:58.164905] [236] HEARTBEAT
[16:56:58.740964] [237] VFR_HUD
[16:56:58.955000] [54] RADIO
[16:56:58.958077] [54] RADIO_STATUS
[16:56:59.210088] [238] HEARTBEAT
[16:56:59.217995] [239] ATTITUDE_TARGET
[16:56:59.535040] [240] VFR_HUD
[16:57:00.000270] [55] RADIO
[16:57:00.003233] [55] RADIO_STATUS
[16:57:00.113891] [241] HEARTBEAT
[16:57:00.350190] [242] VFR_HUD
[16:57:00.919382] [56] RADIO
[16:57:00.922547] [56] RADIO_STATUS
[16:57:01.152406] [243] HEARTBEAT
[16:57:01.159356] [244] SYS_STATUS
[16:57:01.279468] [245] BATTERY_STATUS
[16:57:01.391473] [246] ATTITUDE_TARGET
[16:57:01.396385] [247] VFR_HUD
[16:57:01.943552] [57] RADIO
[16:57:01.946630] [57] RADIO_STATUS
[16:57:02.092519] [249] HEARTBEAT
[16:57:02.754592] [250] VFR_HUD
[16:57:02.989761] [58] RADIO
[16:57:02.991554] [58] RADIO_STATUS
[16:57:03.113678] [251] HEARTBEAT
[16:57:03.120673] [252] ATTITUDE_TARGET
[16:57:03.563681] [253] VFR_HUD
[16:57:04.012737] [59] RADIO
[16:57:04.015744] [59] RADIO_STATUS
[16:57:04.128717] [254] HEARTBEAT
[16:57:04.363726] [255] VFR_HUD
[16:57:04.932856] [60] RADIO
[16:57:04.935827] [60] RADIO_STATUS
[16:57:05.180934] [0] HEARTBEAT
[16:57:05.186901] [1] SYS_STATUS
[16:57:05.305923] [2] BATTERY_STATUS
[16:57:05.313878] [3] ATTITUDE_TARGET
[16:57:05.343872] [4] VFR_HUD
[16:57:05.972962] [5] VFR_HUD
[16:57:05.999983] [61] RADIO
[16:57:06.002892] [61] RADIO_STATUS
[16:57:06.087977] [6] HEARTBEAT
[16:57:06.782261] [7] VFR_HUD
[16:57:07.002141] [62] RADIO
[16:57:07.005182] [62] RADIO_STATUS
[16:57:07.131179] [8] HEARTBEAT
[16:57:07.139199] [9] ATTITUDE_TARGET
[16:57:07.582453] [10] VFR_HUD
[16:57:07.926322] [63] RADIO
[16:57:07.929272] [63] RADIO_STATUS
[16:57:08.157524] [11] HEARTBEAT
[16:57:08.397389] [12] VFR_HUD
[16:57:08.961458] [64] RADIO
[16:57:08.963486] [64] RADIO_STATUS
[16:57:09.082519] [13] HEARTBEAT
[16:57:09.214614] [14] SYS_STATUS
[16:57:09.222587] [15] BATTERY_STATUS
[16:57:09.224628] [16] EXTENDED_SYS_STATE
[16:57:09.247679] [17] ATTITUDE_TARGET
[16:57:09.252504] [18] VFR_HUD
[16:57:09.256524] [19] SYSTEM_TIME
[16:57:09.881652] [20] VFR_HUD
