[10:06:10.605810] [155] HEARTBEAT
[10:06:10.613859] [156] ATTITUDE_TARGET
[10:06:11.045872] [187] RADIO
[10:06:11.048840] [187] RADIO_STATUS
[10:06:11.084784] [157] VFR_HUD
[10:06:11.621897] [158] HEARTBEAT
[10:06:11.856941] [159] VFR_HUD
[10:06:12.090949] [188] RADIO
[10:06:12.093911] [188] RADIO_STATUS
[10:06:12.674027] [160] HEARTBEAT
[10:06:12.679966] [161] SYS_STATUS
[10:06:12.799036] [162] BATTERY_STATUS
[10:06:12.807060] [163] ATTITUDE_TARGET
[10:06:12.837216] [164] VFR_HUD
[10:06:13.115054] [189] RADIO
[10:06:13.118052] [189] RADIO_STATUS
[10:06:13.466103] [165] VFR_HUD
[10:06:13.586237] [166] HEARTBEAT
[10:06:14.035112] [190] RADIO
[10:06:14.038168] [190] RADIO_STATUS
[10:06:14.275233] [167] VFR_HUD
[10:06:14.625244] [168] HEARTBEAT
[10:06:14.632223] [169] ATTITUDE_TARGET
[10:06:15.075210] [170] VFR_HUD
[10:06:15.108245] [191] RADIO
[10:06:15.110260] [191] RADIO_STATUS
[10:06:15.657620] [171] HEARTBEAT
[10:06:15.885297] [172] VFR_HUD
[10:06:16.104396] [192] RADIO
[10:06:16.107338] [192] RADIO_STATUS
[10:06:16.576481] [173] HEARTBEAT
[10:06:16.708448] [174] SYS_STATUS
[10:06:16.715477] [175] BATTERY_STATUS
[10:06:16.717455] [176] EXTENDED_SYS_STATE
[10:06:16.741438] [177] ATTITUDE_TARGET
[10:06:16.746385] [178] VFR_HUD
[10:06:16.749345] [179] SYSTEM_TIME
[10:06:17.149458] [193] RADIO
[10:06:17.152540] [193] RADIO_STATUS
[10:06:17.494513] [180] VFR_HUD
[10:06:17.600527] [181] HEARTBEAT
[10:06:18.069523] [194] RADIO
[10:06:18.072507] [194] RADIO_STATUS
[10:06:18.189574] [182] VFR_HUD
[10:06:18.658609] [183] HEARTBEAT
[10:06:18.666626] [184] ATTITUDE_TARGET
[10:06:18.984624] [185] VFR_HUD
[10:06:19.093738] [195] RADIO
[10:06:19.096718] [195] RADIO_STATUS
[10:06:19.669670] [186] HEARTBEAT
[10:06:19.793669] [187] VFR_HUD
[10:06:20.137790] [196] RADIO
[10:06:20.140773] [196] RADIO_STATUS
[10:06:20.600882] [188] HEARTBEAT
[10:06:20.607737] [189] SYS_STATUS
[10:06:20.727804] [190] BATTERY_STATUS
[10:06:20.840373] [191] ATTITUDE_TARGET
[10:06:20.844686] [192] VFR_HUD
[10:06:21.162756] [197] RADIO
[10:06:21.165783] [197] RADIO_STATUS
[10:06:21.402821] [193] VFR_HUD
[10:06:21.633820] [194] HEARTBEAT
[10:06:22.085898] [198] RADIO
[10:06:22.088869] [198] RADIO_STATUS
[10:06:22.202876] [195] VFR_HUD
[10:06:22.671950] [196] HEARTBEAT
[10:06:22.679943] [197] ATTITUDE_TARGET
[10:06:23.012924] [198] VFR_HUD
[10:06:23.122028] [199] RADIO
[10:06:23.125031] [199] RADIO_STATUS
[10:06:23.578077] [199] HEARTBEAT
[10:06:23.812085] [200] VFR_HUD
[10:06:24.152104] [200] RADIO
[10:06:24.155109] [200] RADIO_STATUS
[10:06:24.630244] [201] HEARTBEAT
[10:06:24.636069] [202] SYS_STATUS
[10:06:24.755148] [203] BATTERY_STATUS
[10:06:24.763121] [204] ATTITUDE_TARGET
[10:06:24.793153] [205] VFR_HUD
[10:06:25.191182] [201] RADIO
[10:06:25.194245] [201] RADIO_STATUS
[10:06:25.423592] [206] VFR_HUD
[10:06:25.647245] [207] HEARTBEAT
[10:06:26.111373] [202] RADIO
[10:06:26.114249] [202] RADIO_STATUS
[10:06:26.237281] [208] VFR_HUD
[10:06:26.701442] [209] HEARTBEAT
[10:06:26.708384] [210] ATTITUDE_TARGET
[10:06:27.031393] [211] VFR_HUD
[10:06:27.140929] [203] RADIO
[10:06:27.143364] [203] RADIO_STATUS
[10:06:27.606483] [212] HEARTBEAT
[10:06:27.846512] [213] VFR_HUD
[10:06:28.180534] [204] RADIO
[10:06:28.183496] [204] RADIO_STATUS
[10:06:28.648702] [214] HEARTBEAT
[10:06:28.659469] [215] SYS_STATUS
[10:06:28.775612] [216] BATTERY_STATUS
[10:06:28.887625] [217] ATTITUDE_TARGET
[10:06:28.892607] [218] VFR_HUD
[10:06:29.209601] [205] RADIO
[10:06:29.212531] [205] RADIO_STATUS
[10:06:29.455763] [219] VFR_HUD
[10:06:29.675764] [220] HEARTBEAT
[10:06:30.129746] [206] RADIO
[10:06:30.132697] [206] RADIO_STATUS
[10:06:30.250865] [221] VFR_HUD
[10:06:30.609823] [222] HEARTBEAT
[10:06:30.617780] [223] ATTITUDE_TARGET
[10:06:31.059853] [224] VFR_HUD
[10:06:31.168992] [207] RADIO
[10:06:31.171802] [207] RADIO_STATUS
[10:06:31.624998] [225] HEARTBEAT
[10:06:31.859993] [226] VFR_HUD
[10:06:32.198887] [208] RADIO
[10:06:32.201856] [208] RADIO_STATUS
[10:06:32.676962] [227] HEARTBEAT
[10:06:32.684041] [228] SYS_STATUS
[10:06:32.801981] [229] BATTERY_STATUS
[10:06:32.810041] [230] ATTITUDE_TARGET
[10:06:32.840014] [231] VFR_HUD
[10:06:33.245315] [209] RADIO
[10:06:33.245459] [209] RADIO_STATUS
[10:06:33.469180] [232] VFR_HUD
[10:06:33.584082] [233] HEARTBEAT
[10:06:34.163077] [210] RADIO
[10:06:34.166087] [210] RADIO_STATUS
[10:06:34.279065] [234] VFR_HUD
[10:06:34.628121] [235] HEARTBEAT
[10:06:34.636103] [236] ATTITUDE_TARGET
[10:06:35.078189] [237] VFR_HUD
[10:06:35.194418] [211] RADIO
[10:06:35.194564] [211] RADIO_STATUS
[10:06:35.654307] [238] HEARTBEAT
[10:06:35.888349] [239] VFR_HUD
[10:06:36.227361] [212] RADIO
[10:06:36.230187] [212] RADIO_STATUS
[10:06:36.591418] [240] HEARTBEAT
[10:06:36.597320] [241] SYS_STATUS
[10:06:36.632343] [242] BATTERY_STATUS
[10:06:36.633255] [243] EXTENDED_SYS_STATE
[10:06:36.641337] [244] ATTITUDE_TARGET
[10:06:36.646247] [245] VFR_HUD
[10:06:36.650263] [246] SYSTEM_TIME
[10:06:37.152333] [213] RADIO
[10:06:37.155378] [213] RADIO_STATUS
[10:06:37.503370] [247] VFR_HUD
[10:06:37.614477] [248] HEARTBEAT
[10:06:38.176469] [214] RADIO
[10:06:38.179458] [214] RADIO_STATUS
[10:06:38.297580] [249] VFR_HUD
[10:06:38.661519] [250] HEARTBEAT
[10:06:38.669502] [251] ATTITUDE_TARGET
[10:06:38.986525] [252] VFR_HUD
[10:06:39.223659] [215] RADIO
[10:06:39.224446] [215] RADIO_STATUS
[10:06:39.672603] [253] HEARTBEAT
[10:06:39.796516] [254] VFR_HUD
[10:06:40.245598] [216] RADIO
[10:06:40.248626] [216] RADIO_STATUS
[10:06:40.603885] [255] HEARTBEAT
[10:06:40.610680] [0] SYS_STATUS
[10:06:40.730700] [1] BATTERY_STATUS
[10:06:40.842720] [2] ATTITUDE_TARGET
[10:06:40.847625] [3] VFR_HUD
[10:06:41.170820] [217] RADIO
[10:06:41.173731] [217] RADIO_STATUS
[10:06:41.405849] [4] VFR_HUD
[10:06:41.636788] [5] HEARTBEAT
[10:06:42.205797] [6] VFR_HUD
[10:06:42.237867] [218] RADIO
[10:06:42.240753] [218] RADIO_STATUS
[10:06:42.674901] [7] HEARTBEAT
[10:06:42.682839] [8] ATTITUDE_TARGET
[10:06:43.015962] [9] VFR_HUD
[10:06:43.234897] [219] RADIO
[10:06:43.237865] [219] RADIO_STATUS
[10:06:43.580903] [10] HEARTBEAT
[10:06:43.814917] [11] VFR_HUD
[10:06:44.279077] [220] RADIO
[10:06:44.282018] [220] RADIO_STATUS
[10:06:44.637357] [12] HEARTBEAT
[10:06:44.644057] [13] SYS_STATUS
[10:06:44.684036] [14] BATTERY_STATUS
[10:06:44.693036] [15] ATTITUDE_TARGET
[10:06:44.695953] [16] VFR_HUD
[10:06:45.194008] [221] RADIO
[10:06:45.196997] [221] RADIO_STATUS
[10:06:45.660100] [17] VFR_HUD
[10:06:45.663209] [18] HEARTBEAT
[10:06:46.223153] [222] RADIO
[10:06:46.226130] [222] RADIO_STATUS
[10:06:46.262113] [19] VFR_HUD
[10:06:46.570244] [20] HEARTBEAT
[10:06:46.592217] [21] ATTITUDE_TARGET
[10:06:47.034355] [22] VFR_HUD
[10:06:47.268219] [223] RADIO
[10:06:47.271145] [223] RADIO_STATUS
[10:06:47.609410] [23] HEARTBEAT
[10:06:47.849253] [24] VFR_HUD
[10:06:48.292344] [224] RADIO
[10:06:48.295260] [224] RADIO_STATUS
[10:06:48.650378] [25] HEARTBEAT
[10:06:48.657404] [26] SYS_STATUS
[10:06:48.777375] [27] BATTERY_STATUS
[10:06:49.213762] [225] RADIO
[10:06:49.215285] [225] RADIO_STATUS
[10:06:49.678485] [31] HEARTBEAT
[10:06:50.252585] [32] VFR_HUD
[10:06:50.280497] [226] RADIO
[10:06:50.282502] [226] RADIO_STATUS
[10:06:50.721654] [33] HEARTBEAT
[10:06:50.729629] [34] ATTITUDE_TARGET
[10:06:51.062625] [35] VFR_HUD
[10:06:51.281732] [227] RADIO
[10:06:51.284795] [227] RADIO_STATUS
[10:06:51.627789] [36] HEARTBEAT
[10:06:51.861792] [37] VFR_HUD
[10:06:52.321770] [228] RADIO
[10:06:52.324739] [228] RADIO_STATUS
[10:06:52.679794] [38] HEARTBEAT
[10:06:52.685793] [39] SYS_STATUS
[10:06:52.804819] [40] BATTERY_STATUS
[10:06:52.812783] [41] ATTITUDE_TARGET
[10:06:52.842943] [42] VFR_HUD
[10:06:53.241012] [229] RADIO
[10:06:53.243872] [229] RADIO_STATUS
[10:06:53.471891] [43] VFR_HUD
[10:06:53.586891] [44] HEARTBEAT
[10:06:54.270985] [230] RADIO
[10:06:54.273931] [230] RADIO_STATUS
[10:06:54.309030] [45] VFR_HUD
[10:06:54.630962] [46] HEARTBEAT
[10:06:54.638945] [47] ATTITUDE_TARGET
[10:06:55.081017] [48] VFR_HUD
[10:06:55.311054] [231] RADIO
[10:06:55.314011] [231] RADIO_STATUS
[10:06:55.657187] [49] HEARTBEAT
[10:06:55.896108] [50] VFR_HUD
[10:06:56.340142] [232] RADIO
[10:06:56.343189] [232] RADIO_STATUS
[10:06:56.588228] [51] HEARTBEAT
[10:06:56.601729] [52] SYS_STATUS
[10:06:56.717146] [53] BATTERY_STATUS
[10:06:56.718093] [54] EXTENDED_SYS_STATE
[10:06:56.726142] [55] ATTITUDE_TARGET
[10:06:56.731364] [56] VFR_HUD
[10:06:56.734107] [57] SYSTEM_TIME
[10:06:57.260190] [233] RADIO
[10:06:57.263138] [233] RADIO_STATUS
[10:06:57.380215] [58] VFR_HUD
[10:06:57.606302] [59] HEARTBEAT
[10:06:58.190422] [60] VFR_HUD
[10:06:58.299262] [234] RADIO
[10:06:58.302206] [234] RADIO_STATUS
[10:06:58.768318] [61] HEARTBEAT
[10:06:58.776336] [62] ATTITUDE_TARGET
[10:06:58.990335] [63] VFR_HUD
[10:06:59.329371] [235] RADIO
[10:06:59.332369] [235] RADIO_STATUS
[10:06:59.675441] [64] HEARTBEAT
[10:07:00.368438] [236] RADIO
[10:07:00.371465] [236] RADIO_STATUS
[10:07:00.607521] [66] HEARTBEAT
[10:07:00.613526] [67] SYS_STATUS
[10:07:00.728488] [68] BATTERY_STATUS
[10:07:00.846512] [69] ATTITUDE_TARGET
[10:07:00.850463] [70] VFR_HUD
[10:07:01.293536] [237] RADIO
[10:07:01.296469] [237] RADIO_STATUS
[10:07:01.409728] [71] VFR_HUD
[10:07:01.639654] [72] HEARTBEAT
[10:07:02.209960] [73] VFR_HUD
[10:07:02.317570] [238] RADIO
[10:07:02.320627] [238] RADIO_STATUS
[10:07:02.606357] JAMMING_START
[10:07:02.677696] [74] HEARTBEAT
[10:07:02.685659] [75] ATTITUDE_TARGET
[10:07:03.023790] [76] VFR_HUD
[10:07:03.357690] [239] RADIO
[10:07:03.360707] [239] RADIO_STATUS
[10:07:03.583767] [77] HEARTBEAT
[10:07:03.817790] [78] VFR_HUD
[10:07:04.386755] [240] RADIO
[10:07:04.389765] [240] RADIO_STATUS
[10:07:04.640832] [79] HEARTBEAT
[10:07:04.646818] [80] SYS_STATUS
[10:07:04.686807] [81] BATTERY_STATUS
[10:07:04.694815] [82] ATTITUDE_TARGET
[10:07:04.699802] [83] VFR_HUD
[10:07:05.306948] [241] RADIO
[10:07:05.309970] [241] RADIO_STATUS
[10:07:05.663157] [84] VFR_HUD
[10:07:05.665922] [85] HEARTBEAT
[10:07:06.242006] [86] VFR_HUD
[10:07:06.362982] [242] RADIO
[10:07:06.365954] [242] RADIO_STATUS
[10:07:06.573012] [87] HEARTBEAT
[10:07:06.815080] [88] ATTITUDE_TARGET
[10:07:07.037033] [89] VFR_HUD
[10:07:07.376089] [243] RADIO
[10:07:07.379010] [243] RADIO_STATUS
[10:07:07.617146] [90] HEARTBEAT
[10:07:08.421431] [244] RADIO
[10:07:08.424264] [244] RADIO_STATUS
[10:07:08.654238] [92] HEARTBEAT
[10:07:08.660215] [93] SYS_STATUS
[10:07:08.780256] [94] BATTERY_STATUS
[10:07:08.897798] [95] ATTITUDE_TARGET
[10:07:08.897959] [96] VFR_HUD
[10:07:09.340207] [245] RADIO
[10:07:09.343233] [245] RADIO_STATUS
[10:07:09.460458] [97] VFR_HUD
[10:07:09.686295] [98] HEARTBEAT
[10:07:10.255363] [99] VFR_HUD
[10:07:10.365355] [246] RADIO
[10:07:10.368338] [246] RADIO_STATUS
[10:07:10.614378] [100] HEARTBEAT
[10:07:10.622345] [101] ATTITUDE_TARGET
[10:07:11.065366] [102] VFR_HUD
[10:07:11.409456] [247] RADIO
[10:07:11.412427] [247] RADIO_STATUS
[10:07:11.630489] [103] HEARTBEAT
[10:07:11.865490] [104] VFR_HUD
[10:07:12.434543] [248] RADIO
[10:07:12.437497] [248] RADIO_STATUS
[10:07:12.682611] [105] HEARTBEAT
[10:07:12.689548] [106] SYS_STATUS
[10:07:12.807605] [107] BATTERY_STATUS
[10:07:12.815556] [108] ATTITUDE_TARGET
[10:07:12.845605] [109] VFR_HUD
[10:07:13.354659] [249] RADIO
[10:07:13.357596] [249] RADIO_STATUS
[10:07:13.392602] [110] VFR_HUD
[10:07:14.289706] [112] VFR_HUD
[10:07:14.410716] [250] RADIO
[10:07:14.414154] [250] RADIO_STATUS
[10:07:14.633802] [113] HEARTBEAT
[10:07:14.641907] [114] ATTITUDE_TARGET
[10:07:14.979830] [115] VFR_HUD
[10:07:15.423775] [251] RADIO
[10:07:15.426722] [251] RADIO_STATUS
[10:07:15.659830] [116] HEARTBEAT
[10:07:16.003841] [117] VFR_HUD
[10:07:16.467870] [252] RADIO
[10:07:16.470910] [252] RADIO_STATUS
[10:07:16.590890] [118] HEARTBEAT
[10:07:16.597893] [119] SYS_STATUS
[10:07:16.720016] [120] BATTERY_STATUS
[10:07:16.720858] [121] EXTENDED_SYS_STATE
[10:07:16.728893] [122] ATTITUDE_TARGET
[10:07:16.733868] [123] VFR_HUD
[10:07:16.737929] [124] SYSTEM_TIME
[10:07:17.384091] [125] VFR_HUD
[10:07:17.410907] [253] RADIO
[10:07:17.413917] [253] RADIO_STATUS
[10:07:17.608959] [126] HEARTBEAT
[10:07:18.411974] [254] RADIO
[10:07:18.414965] [254] RADIO_STATUS
[10:07:18.662064] [128] HEARTBEAT
[10:07:18.670032] [129] ATTITUDE_TARGET
[10:07:18.993061] [130] VFR_HUD
[10:07:19.452152] [255] RADIO
[10:07:19.455088] [255] RADIO_STATUS
[10:07:19.574095] [131] HEARTBEAT
[10:07:19.803172] [132] VFR_HUD
[10:07:20.482460] [0] RADIO
[10:07:20.485121] [0] RADIO_STATUS
[10:07:20.610237] [133] HEARTBEAT
[10:07:20.617260] [134] SYS_STATUS
[10:07:20.731322] [135] BATTERY_STATUS
[10:07:20.849307] [136] ATTITUDE_TARGET
[10:07:20.854314] [137] VFR_HUD
[10:07:21.401270] [1] RADIO
[10:07:21.404264] [1] RADIO_STATUS
[10:07:21.440277] [138] VFR_HUD
[10:07:22.212364] [140] VFR_HUD
[10:07:22.441400] [2] RADIO
[10:07:22.444429] [2] RADIO_STATUS
[10:07:22.681413] [141] HEARTBEAT
[10:07:22.689394] [142] ATTITUDE_TARGET
[10:07:23.026468] [143] VFR_HUD
[10:07:23.470458] [3] RADIO
[10:07:23.473471] [3] RADIO_STATUS
[10:07:23.586531] [144] HEARTBEAT
[10:07:23.821514] [145] VFR_HUD
[10:07:24.510537] [4] RADIO
[10:07:24.513919] [4] RADIO_STATUS
[10:07:24.643577] [146] HEARTBEAT
[10:07:24.650601] [147] SYS_STATUS
[10:07:24.689557] [148] BATTERY_STATUS
[10:07:24.697611] [149] ATTITUDE_TARGET
[10:07:24.702547] [150] VFR_HUD
[10:07:25.429676] [5] RADIO
[10:07:25.432615] [5] RADIO_STATUS
[10:07:25.666737] [151] VFR_HUD
[10:07:25.669696] [152] HEARTBEAT
[10:07:26.459788] [6] RADIO
[10:07:26.462708] [6] RADIO_STATUS
[10:07:26.575843] [154] HEARTBEAT
[10:07:26.598767] [155] ATTITUDE_TARGET
[10:07:27.039830] [156] VFR_HUD
[10:07:27.498840] [7] RADIO
[10:07:27.501988] [7] RADIO_STATUS
[10:07:27.620872] [157] HEARTBEAT
[10:07:27.849848] [158] VFR_HUD
[10:07:28.528918] [8] RADIO
[10:07:28.531871] [8] RADIO_STATUS
[10:07:28.656901] [159] HEARTBEAT
[10:07:28.663916] [160] SYS_STATUS
[10:07:28.778975] [161] BATTERY_STATUS
[10:07:28.896008] [162] ATTITUDE_TARGET
[10:07:28.900934] [163] VFR_HUD
[10:07:29.449099] [9] RADIO
[10:07:29.451977] [9] RADIO_STATUS
[10:07:29.569075] [164] VFR_HUD
[10:07:30.259348] [166] VFR_HUD
[10:07:30.488136] [10] RADIO
[10:07:30.491102] [10] RADIO_STATUS
[10:07:30.625831] [167] HEARTBEAT
[10:07:30.631427] [168] ATTITUDE_TARGET
[10:07:31.068141] [169] VFR_HUD
[10:07:31.517159] [11] RADIO
[10:07:31.520161] [11] RADIO_STATUS
[10:07:31.633211] [170] HEARTBEAT
[10:07:31.868239] [171] VFR_HUD
[10:07:32.437268] [12] RADIO
[10:07:32.439284] [12] RADIO_STATUS
[10:07:32.690345] [172] HEARTBEAT
[10:07:32.697333] [173] SYS_STATUS
[10:07:32.736301] [174] BATTERY_STATUS
[10:07:32.744332] [175] ATTITUDE_TARGET
[10:07:32.749283] [176] VFR_HUD
[10:07:33.481406] [13] RADIO
[10:07:33.484370] [13] RADIO_STATUS
[10:07:33.602393] [177] VFR_HUD
[10:07:33.605410] [178] HEARTBEAT
[10:07:34.396428] [179] VFR_HUD
[10:07:34.506632] [14] RADIO
[10:07:34.509462] [14] RADIO_STATUS
[10:07:34.636538] [180] HEARTBEAT
[10:07:34.643553] [181] ATTITUDE_TARGET
[10:07:34.976567] [182] VFR_HUD
[10:07:35.551636] [15] RADIO
[10:07:35.553685] [15] RADIO_STATUS
[10:07:35.662606] [183] HEARTBEAT
[10:07:35.901624] [184] VFR_HUD
[10:07:36.470856] [16] RADIO
[10:07:36.473761] [16] RADIO_STATUS
[10:07:36.722838] [187] BATTERY_STATUS
[10:07:36.723766] [188] EXTENDED_SYS_STATE
[10:07:36.731782] [189] ATTITUDE_TARGET
[10:07:36.736896] [190] VFR_HUD
[10:07:36.740750] [191] SYSTEM_TIME
[10:07:37.385860] [192] VFR_HUD
[10:07:37.494764] [17] RADIO
[10:07:37.497787] [17] RADIO_STATUS
[10:07:37.611855] [193] HEARTBEAT
[10:07:38.195840] [194] VFR_HUD
[10:07:38.539900] [18] RADIO
[10:07:38.542854] [18] RADIO_STATUS
[10:07:38.664902] [195] HEARTBEAT
[10:07:38.672945] [196] ATTITUDE_TARGET
[10:07:38.994986] [197] VFR_HUD
[10:07:39.564004] [19] RADIO
[10:07:39.567089] [19] RADIO_STATUS
[10:07:39.680088] [198] HEARTBEAT
[10:07:39.810030] [199] VFR_HUD
[10:07:40.484112] [20] RADIO
[10:07:40.487104] [20] RADIO_STATUS
[10:07:40.613898] [200] HEARTBEAT
[10:07:40.619092] [201] SYS_STATUS
[10:07:40.734124] [202] BATTERY_STATUS
[10:07:40.851242] [203] ATTITUDE_TARGET
[10:07:40.856111] [204] VFR_HUD
[10:07:41.419188] [205] VFR_HUD
[10:07:41.540218] [21] RADIO
[10:07:41.543184] [21] RADIO_STATUS
[10:07:41.640174] [206] HEARTBEAT
[10:07:42.214282] [207] VFR_HUD
[10:07:42.553298] [22] RADIO
[10:07:42.556282] [22] RADIO_STATUS
[10:07:42.601276] [208] HEARTBEAT
[10:07:42.608365] [209] ATTITUDE_TARGET
[10:07:43.029289] [210] VFR_HUD
[10:07:43.589364] [211] HEARTBEAT
[10:07:43.620362] [23] RADIO
[10:07:43.623373] [23] RADIO_STATUS
[10:07:43.823426] [212] VFR_HUD
[10:07:44.512526] [24] RADIO
[10:07:44.515425] [24] RADIO_STATUS
[10:07:44.766504] [215] BATTERY_STATUS
[10:07:44.773505] [216] ATTITUDE_TARGET
[10:07:44.804473] [217] VFR_HUD
[10:07:45.432534] [218] VFR_HUD
[10:07:45.541560] [25] RADIO
[10:07:45.544512] [25] RADIO_STATUS
[10:07:45.575567] [219] HEARTBEAT
[10:07:46.242652] [220] VFR_HUD
[10:07:46.577668] [221] HEARTBEAT
[10:07:46.600742] [222] ATTITUDE_TARGET
[10:07:46.630668] [26] RADIO
[10:07:46.633658] [26] RADIO_STATUS
[10:07:47.041765] [223] VFR_HUD
[10:07:47.610817] [27] RADIO
[10:07:47.613760] [27] RADIO_STATUS
[10:07:47.644768] [224] HEARTBEAT
[10:07:47.851809] [225] VFR_HUD
[10:07:48.530959] [28] RADIO
[10:07:48.534492] [28] RADIO_STATUS
[10:07:48.564880] [226] HEARTBEAT
[10:07:48.585096] [227] SYS_STATUS
[10:07:48.616930] [228] BATTERY_STATUS
[10:07:48.624870] [229] ATTITUDE_TARGET
[10:07:48.684872] [230] VFR_HUD
[10:07:49.460954] [231] VFR_HUD
[10:07:49.567107] [232] HEARTBEAT
[10:07:49.680962] [29] RADIO
[10:07:49.682917] [29] RADIO_STATUS
[10:07:50.261002] [233] VFR_HUD
[10:07:50.600062] [30] RADIO
[10:07:50.603030] [30] RADIO_STATUS
[10:07:50.648056] [234] HEARTBEAT
[10:07:50.656055] [235] ATTITUDE_TARGET
[10:07:51.076078] [236] VFR_HUD
[10:07:51.636169] [237] HEARTBEAT
[10:07:51.749212] [31] RADIO
[10:07:51.752143] [31] RADIO_STATUS
[10:07:51.788283] [238] VFR_HUD
[10:07:52.559269] [32] RADIO
[10:07:52.562221] [32] RADIO_STATUS
[10:07:53.589316] [33] RADIO
[10:07:53.592498] [33] RADIO_STATUS
[10:07:53.633312] [244] VFR_HUD
[10:07:53.636280] [245] HEARTBEAT
[10:07:54.294448] [246] VFR_HUD
[10:07:54.638503] [247] HEARTBEAT
[10:07:54.646468] [248] ATTITUDE_TARGET
[10:07:54.739777] [34] RADIO
[10:07:54.741486] [34] RADIO_STATUS
[10:07:55.658606] [35] RADIO
[10:07:55.661500] [35] RADIO_STATUS
[10:07:55.692586] [250] HEARTBEAT
[10:07:55.779579] [251] VFR_HUD
[10:07:56.596677] [252] HEARTBEAT
[10:07:56.603721] [253] SYS_STATUS
[10:07:56.724623] [254] BATTERY_STATUS
[10:07:56.726608] [255] EXTENDED_SYS_STATE
[10:07:56.734640] [0] ATTITUDE_TARGET
[10:07:56.738620] [1] VFR_HUD
[10:07:56.742590] [2] SYSTEM_TIME
[10:07:56.765622] [36] RADIO
[10:07:56.768623] [36] RADIO_STATUS
[10:07:57.388869] [3] VFR_HUD
[10:07:57.613805] [4] HEARTBEAT
[10:07:57.727742] [37] RADIO
[10:07:57.730715] [37] RADIO_STATUS
[10:07:58.202766] [5] VFR_HUD
[10:07:58.646798] [38] RADIO
[10:07:58.649977] [38] RADIO_STATUS
[10:07:58.776867] [6] HEARTBEAT
[10:07:58.785017] [7] ATTITUDE_TARGET
[10:07:58.997839] [8] VFR_HUD
[10:07:59.686914] [39] RADIO
[10:07:59.689895] [39] RADIO_STATUS
[10:07:59.811988] [10] VFR_HUD
[10:08:00.615178] [11] HEARTBEAT
[10:08:00.621146] [12] SYS_STATUS
[10:08:00.634025] [40] RADIO
[10:08:00.637128] [40] RADIO_STATUS
[10:08:00.854084] [14] ATTITUDE_TARGET
[10:08:00.858122] [15] VFR_HUD
[10:08:01.422157] [16] VFR_HUD
[10:08:01.636134] [41] RADIO
[10:08:01.638200] [41] RADIO_STATUS
[10:08:01.752201] [17] HEARTBEAT
[10:08:02.216177] [18] VFR_HUD
[10:08:02.685309] [19] HEARTBEAT
[10:08:02.693265] [20] ATTITUDE_TARGET
[10:08:02.703233] [42] RADIO
[10:08:02.706269] [42] RADIO_STATUS
[10:08:03.591361] [22] HEARTBEAT
[10:08:03.704377] [43] RADIO
[10:08:03.707317] [43] RADIO_STATUS
[10:08:03.825381] [23] VFR_HUD
[10:08:04.642466] [24] HEARTBEAT
[10:08:04.649447] [25] SYS_STATUS
[10:08:04.767504] [26] BATTERY_STATUS
[10:08:04.775567] [27] ATTITUDE_TARGET
[10:08:04.805559] [28] VFR_HUD
[10:08:04.828473] [44] RADIO
[10:08:04.831464] [44] RADIO_STATUS
[10:08:05.434539] [29] VFR_HUD
[10:08:05.660521] [30] HEARTBEAT
[10:08:05.691506] [45] RADIO
[10:08:05.694482] [45] RADIO_STATUS
[10:08:06.244543] [31] VFR_HUD
[10:08:06.593638] [32] HEARTBEAT
[10:08:06.601610] [33] ATTITUDE_TARGET
[10:08:06.693655] [46] RADIO
[10:08:06.696569] [46] RADIO_STATUS
[10:08:07.043642] [34] VFR_HUD
[10:08:07.738923] [47] RADIO
[10:08:07.740760] [47] RADIO_STATUS
[10:08:07.853854] [36] VFR_HUD
[10:08:08.660850] [37] HEARTBEAT
[10:08:08.667852] [38] SYS_STATUS
[10:08:08.680837] [48] RADIO
[10:08:08.683809] [48] RADIO_STATUS
[10:08:08.900028] [40] ATTITUDE_TARGET
[10:08:08.904845] [41] VFR_HUD
[10:08:09.467921] [42] VFR_HUD
[10:08:09.579900] [43] HEARTBEAT
[10:08:09.681924] [49] RADIO
[10:08:09.684875] [49] RADIO_STATUS
[10:08:10.262966] [44] VFR_HUD
[10:08:10.627063] [45] HEARTBEAT
[10:08:10.635005] [46] ATTITUDE_TARGET
[10:08:10.727034] [50] RADIO
[10:08:10.729955] [50] RADIO_STATUS
[10:08:11.182149] [47] VFR_HUD
[10:08:11.638204] [48] HEARTBEAT
[10:08:11.751165] [51] RADIO
[10:08:11.754103] [51] RADIO_STATUS
[10:08:11.872191] [49] VFR_HUD
[10:08:12.694301] [50] HEARTBEAT
[10:08:12.701223] [51] SYS_STATUS
[10:08:12.741237] [52] BATTERY_STATUS
[10:08:12.749233] [53] ATTITUDE_TARGET
[10:08:12.753217] [54] VFR_HUD
[10:08:12.796249] [52] RADIO
[10:08:12.799270] [52] RADIO_STATUS
[10:08:13.612300] [55] VFR_HUD
[10:08:13.615280] [56] HEARTBEAT
[10:08:13.727326] [53] RADIO
[10:08:13.729293] [53] RADIO_STATUS
[10:08:14.291387] [57] VFR_HUD
[10:08:14.640427] [58] HEARTBEAT
[10:08:14.648412] [59] ATTITUDE_TARGET
[10:08:14.740398] [54] RADIO
[10:08:14.743401] [54] RADIO_STATUS
[10:08:15.090580] [60] VFR_HUD
[10:08:15.780570] [62] VFR_HUD
[10:08:15.807673] [55] RADIO
[10:08:15.810785] [55] RADIO_STATUS
[10:08:16.602641] [63] HEARTBEAT
[10:08:16.609645] [64] SYS_STATUS
[10:08:16.643674] [65] BATTERY_STATUS
[10:08:16.645717] [66] EXTENDED_SYS_STATE
[10:08:16.653711] [67] ATTITUDE_TARGET
[10:08:16.658659] [68] VFR_HUD
[10:08:16.661688] [69] SYSTEM_TIME
[10:08:16.699596] [56] RADIO
[10:08:16.702628] [56] RADIO_STATUS
[10:08:17.389701] [70] VFR_HUD
[10:08:17.615824] [71] HEARTBEAT
[10:08:17.728775] [57] RADIO
[10:08:17.731726] [57] RADIO_STATUS
[10:08:18.204816] [72] VFR_HUD
[10:08:18.673862] [73] HEARTBEAT
[10:08:18.681861] [74] ATTITUDE_TARGET
[10:08:18.768834] [58] RADIO
[10:08:18.771867] [58] RADIO_STATUS
[10:08:18.999928] [75] VFR_HUD
[10:08:19.574945] [76] HEARTBEAT
[10:08:19.798968] [59] RADIO
[10:08:19.800960] [59] RADIO_STATUS
[10:08:19.837183] [77] VFR_HUD
[10:08:20.617195] [78] HEARTBEAT
[10:08:20.623043] [79] SYS_STATUS
[10:08:20.723010] [60] RADIO
[10:08:20.726023] [60] RADIO_STATUS
[10:08:20.788047] [80] BATTERY_STATUS
[10:08:20.796021] [81] ATTITUDE_TARGET
[10:08:20.801050] [82] VFR_HUD
[10:08:21.654135] [83] VFR_HUD
[10:08:21.657114] [84] HEARTBEAT
[10:08:21.774151] [61] RADIO
[10:08:21.777109] [61] RADIO_STATUS
[10:08:22.218251] [85] VFR_HUD
[10:08:22.687277] [86] HEARTBEAT
[10:08:22.695398] [87] ATTITUDE_TARGET
[10:08:22.787219] [62] RADIO
[10:08:22.790229] [62] RADIO_STATUS
[10:08:23.028269] [88] VFR_HUD
[10:08:23.593328] [89] HEARTBEAT
[10:08:23.828315] [90] VFR_HUD
[10:08:23.855287] [63] RADIO
[10:08:23.858235] [63] RADIO_STATUS
[10:08:24.645460] [91] HEARTBEAT
[10:08:24.651459] [92] SYS_STATUS
[10:08:24.770441] [93] BATTERY_STATUS
[10:08:24.778402] [94] ATTITUDE_TARGET
[10:08:24.809991] [95] VFR_HUD
[10:08:24.830410] [64] RADIO
[10:08:24.833397] [64] RADIO_STATUS
[10:08:25.437501] [96] VFR_HUD
[10:08:25.662546] [97] HEARTBEAT
[10:08:25.776533] [65] RADIO
[10:08:25.779443] [65] RADIO_STATUS
[10:08:26.246569] [98] VFR_HUD
[10:08:26.596618] [99] HEARTBEAT
[10:08:26.603589] [100] ATTITUDE_TARGET
[10:08:26.816612] [66] RADIO
[10:08:26.819653] [66] RADIO_STATUS
[10:08:27.046641] [101] VFR_HUD
[10:08:27.622673] [102] HEARTBEAT
[10:08:27.845743] [67] RADIO
[10:08:27.850808] [67] RADIO_STATUS
[10:08:27.884725] [103] VFR_HUD
[10:08:28.663835] [104] HEARTBEAT
[10:08:28.671207] [105] SYS_STATUS
[10:08:28.785814] [106] BATTERY_STATUS
[10:08:28.902807] [107] ATTITUDE_TARGET
[10:08:28.907745] [108] VFR_HUD
[10:08:28.913758] [68] RADIO
[10:08:28.916773] [68] RADIO_STATUS
[10:08:29.575905] [109] VFR_HUD
[10:08:29.582871] [110] HEARTBEAT
[10:08:29.810888] [69] RADIO
[10:08:29.813896] [69] RADIO_STATUS
[10:08:30.266306] [111] VFR_HUD
[10:08:30.735070] [112] HEARTBEAT
[10:08:30.742046] [113] ATTITUDE_TARGET
[10:08:30.835009] [70] RADIO
[10:08:30.838450] [70] RADIO_STATUS
[10:08:31.081038] [114] VFR_HUD
[10:08:31.641130] [115] HEARTBEAT
[10:08:31.876840] [116] VFR_HUD
[10:08:31.908122] [71] RADIO
[10:08:31.911116] [71] RADIO_STATUS
[10:08:32.692262] [117] HEARTBEAT
[10:08:32.699246] [118] SYS_STATUS
[10:08:32.818309] [119] BATTERY_STATUS
[10:08:32.826720] [120] ATTITUDE_TARGET
[10:08:32.856255] [121] VFR_HUD
[10:08:32.883181] [72] RADIO
[10:08:32.886228] [72] RADIO_STATUS
[10:08:33.375249] [122] VFR_HUD
[10:08:33.605341] [123] HEARTBEAT
[10:08:33.824305] [73] RADIO
[10:08:33.827235] [73] RADIO_STATUS
[10:08:34.294334] [124] VFR_HUD
[10:08:34.643423] [125] HEARTBEAT
[10:08:34.651454] [126] ATTITUDE_TARGET
[10:08:34.869384] [74] RADIO
[10:08:34.871357] [74] RADIO_STATUS
[10:08:34.989440] [127] VFR_HUD
[10:08:35.674513] [128] HEARTBEAT
[10:08:35.784511] [129] VFR_HUD
[10:08:35.816486] [75] RADIO
[10:08:35.819465] [75] RADIO_STATUS
[10:08:36.606551] [130] HEARTBEAT
[10:08:36.613554] [131] SYS_STATUS
[10:08:36.647543] [132] BATTERY_STATUS
[10:08:36.649573] [133] EXTENDED_SYS_STATE
[10:08:36.657694] [134] ATTITUDE_TARGET
[10:08:36.662574] [135] VFR_HUD
[10:08:36.665593] [136] SYSTEM_TIME
[10:08:36.813585] [76] RADIO
[10:08:36.815537] [76] RADIO_STATUS
[10:08:37.393626] [137] VFR_HUD
[10:08:37.619662] [138] HEARTBEAT
[10:08:37.857746] [77] RADIO
[10:08:37.860660] [77] RADIO_STATUS
[10:08:38.208759] [139] VFR_HUD
[10:08:38.882764] [78] RADIO
[10:08:38.884763] [78] RADIO_STATUS
[10:08:39.002854] [142] VFR_HUD
[10:08:39.583853] [143] HEARTBEAT
[10:08:39.926850] [79] RADIO
[10:08:39.929855] [79] RADIO_STATUS
[10:08:40.619943] [145] HEARTBEAT
[10:08:40.626905] [146] SYS_STATUS
[10:08:40.746966] [147] BATTERY_STATUS
[10:08:40.858941] [148] ATTITUDE_TARGET
[10:08:40.863929] [149] VFR_HUD
[10:08:40.869902] [80] RADIO
[10:08:40.872910] [80] RADIO_STATUS
[10:08:41.423118] [150] VFR_HUD
[10:08:41.653001] [151] HEARTBEAT
[10:08:41.871015] [81] RADIO
[10:08:41.874031] [81] RADIO_STATUS
[10:08:42.222211] [152] VFR_HUD
[10:08:42.567148] [153] HEARTBEAT
[10:08:42.590162] [154] ATTITUDE_TARGET
[10:08:42.911169] [82] RADIO
[10:08:42.914198] [82] RADIO_STATUS
[10:08:43.031233] [155] VFR_HUD
[10:08:43.597287] [156] HEARTBEAT
[10:08:43.831329] [157] VFR_HUD
[10:08:43.858231] [83] RADIO
[10:08:43.861216] [83] RADIO_STATUS
[10:08:44.648334] [158] HEARTBEAT
[10:08:44.655293] [159] SYS_STATUS
[10:08:44.774340] [160] BATTERY_STATUS
[10:08:44.781291] [161] ATTITUDE_TARGET
[10:08:44.812311] [162] VFR_HUD
[10:08:44.860330] [84] RADIO
[10:08:44.863248] [84] RADIO_STATUS
[10:08:45.440395] [163] VFR_HUD
[10:08:45.666396] [164] HEARTBEAT
[10:08:45.899426] [85] RADIO
[10:08:45.902425] [85] RADIO_STATUS
[10:08:46.257689] [165] VFR_HUD
[10:08:46.599532] [166] HEARTBEAT
[10:08:46.607459] [167] ATTITUDE_TARGET
[10:08:46.929515] [86] RADIO
[10:08:46.932464] [86] RADIO_STATUS
[10:08:47.050519] [168] VFR_HUD
[10:08:47.625660] [169] HEARTBEAT
[10:08:47.969593] [170] VFR_HUD
[10:08:47.980631] [87] RADIO
[10:08:47.983612] [87] RADIO_STATUS
[10:08:48.667692] [171] HEARTBEAT
[10:08:48.673705] [172] SYS_STATUS
[10:08:48.793713] [173] BATTERY_STATUS
[10:08:48.906732] [174] ATTITUDE_TARGET
[10:08:48.910663] [175] VFR_HUD
[10:08:48.916642] [88] RADIO
[10:08:48.921872] [88] RADIO_STATUS
[10:08:49.474859] [176] VFR_HUD
[10:08:49.586804] [177] HEARTBEAT
[10:08:49.919064] [89] RADIO
[10:08:49.921790] [89] RADIO_STATUS
[10:08:50.268860] [178] VFR_HUD
[10:08:50.628931] [179] HEARTBEAT
[10:08:50.635982] [180] ATTITUDE_TARGET
[10:08:50.957944] [90] RADIO
[10:08:50.963757] [90] RADIO_STATUS
[10:08:51.078933] [181] VFR_HUD
[10:08:51.644053] [182] HEARTBEAT
[10:08:51.879027] [183] VFR_HUD
[10:08:51.906080] [91] RADIO
[10:08:51.909029] [91] RADIO_STATUS
[10:08:52.564136] [184] HEARTBEAT
[10:08:52.589895] [185] SYS_STATUS
[10:08:52.698104] [186] BATTERY_STATUS
[10:08:52.815110] [187] ATTITUDE_TARGET
[10:08:52.820085] [188] VFR_HUD
[10:08:52.907171] [92] RADIO
[10:08:52.910119] [92] RADIO_STATUS
[10:08:53.383148] [189] VFR_HUD
[10:08:53.947227] [93] RADIO
[10:08:53.950197] [93] RADIO_STATUS
[10:08:54.177637] [191] VFR_HUD
[10:08:54.647232] [192] HEARTBEAT
[10:08:54.654303] [193] ATTITUDE_TARGET
[10:08:54.976238] [94] RADIO
[10:08:54.979274] [94] RADIO_STATUS
[10:08:55.015251] [194] VFR_HUD
[10:08:55.672305] [195] HEARTBEAT
[10:08:55.787313] [196] VFR_HUD
[10:08:56.016345] [95] RADIO
[10:08:56.019772] [95] RADIO_STATUS
[10:08:56.609387] [197] HEARTBEAT
[10:08:56.616399] [198] SYS_STATUS
[10:08:56.650394] [199] BATTERY_STATUS
[10:08:56.652351] [200] EXTENDED_SYS_STATE
[10:08:56.660867] [201] ATTITUDE_TARGET
[10:08:56.665351] [202] VFR_HUD
[10:08:56.668292] [203] SYSTEM_TIME
[10:08:56.941369] [96] RADIO
[10:08:56.944363] [96] RADIO_STATUS
[10:08:57.396436] [204] VFR_HUD
[10:08:57.621491] [205] HEARTBEAT
[10:08:57.965517] [97] RADIO
[10:08:57.968432] [97] RADIO_STATUS
[10:08:58.680608] [207] HEARTBEAT
[10:08:58.688735] [208] ATTITUDE_TARGET
[10:08:59.005610] [209] VFR_HUD
[10:08:59.032486] [98] RADIO
[10:08:59.035567] [98] RADIO_STATUS
[10:08:59.586650] [210] HEARTBEAT
[10:08:59.815606] [211] VFR_HUD
[10:08:59.929696] [99] RADIO
[10:08:59.932640] [99] RADIO_STATUS
[10:09:00.622740] [212] HEARTBEAT
[10:09:00.629704] [213] SYS_STATUS
[10:09:00.749746] [214] BATTERY_STATUS
[10:09:00.861751] [215] ATTITUDE_TARGET
[10:09:00.866685] [216] VFR_HUD
[10:09:00.954705] [100] RADIO
[10:09:00.957967] [100] RADIO_STATUS
[10:09:01.424808] [217] VFR_HUD
[10:09:01.999844] [101] RADIO
[10:09:02.001759] [101] RADIO_STATUS
[10:09:02.224893] [219] VFR_HUD
[10:09:02.574886] [220] HEARTBEAT
[10:09:02.692895] [221] ATTITUDE_TARGET
[10:09:03.022930] [102] RADIO
[10:09:03.026121] [102] RADIO_STATUS
[10:09:03.144841] [222] VFR_HUD
[10:09:03.601120] [223] HEARTBEAT
[10:09:03.833984] [224] VFR_HUD
[10:09:03.943002] [103] RADIO
[10:09:03.946066] [103] RADIO_STATUS
[10:09:04.656100] [225] HEARTBEAT
[10:09:04.663072] [226] SYS_STATUS
[10:09:04.702063] [227] BATTERY_STATUS
[10:09:04.710064] [228] ATTITUDE_TARGET
[10:09:04.715055] [229] VFR_HUD
[10:09:04.988090] [104] RADIO
[10:09:04.991135] [104] RADIO_STATUS
[10:09:05.679169] [230] VFR_HUD
[10:09:05.681197] [231] HEARTBEAT
[10:09:06.012257] [105] RADIO
[10:09:06.017740] [105] RADIO_STATUS
[10:09:06.362229] [232] VFR_HUD
[10:09:06.602266] [233] HEARTBEAT
[10:09:06.609248] [234] ATTITUDE_TARGET
[10:09:07.052369] [235] VFR_HUD
[10:09:07.088376] [106] RADIO
[10:09:07.091238] [106] RADIO_STATUS
[10:09:07.628313] [236] HEARTBEAT
[10:09:07.867373] [237] VFR_HUD
[10:09:07.988445] [107] RADIO
[10:09:07.991472] [107] RADIO_STATUS
[10:09:08.669462] [238] HEARTBEAT
[10:09:08.676578] [239] SYS_STATUS
[10:09:08.796455] [240] BATTERY_STATUS
[10:09:08.908455] [241] ATTITUDE_TARGET
[10:09:08.913428] [242] VFR_HUD
[10:09:09.001430] [108] RADIO
[10:09:09.004474] [108] RADIO_STATUS
[10:09:09.471546] [243] VFR_HUD
[10:09:09.577532] [244] HEARTBEAT
[10:09:10.046566] [109] RADIO
[10:09:10.049548] [109] RADIO_STATUS
[10:09:10.271605] [245] VFR_HUD
[10:09:10.630801] [246] HEARTBEAT
[10:09:10.638611] [247] ATTITUDE_TARGET
[10:09:11.070643] [110] RADIO
[10:09:11.077162] [110] RADIO_STATUS
[10:09:11.191604] [248] VFR_HUD
[10:09:11.646877] [249] HEARTBEAT
[10:09:11.776625] [250] VFR_HUD
[10:09:11.990746] [111] RADIO
[10:09:11.993739] [111] RADIO_STATUS
[10:09:12.578844] [251] HEARTBEAT
[10:09:12.584801] [252] SYS_STATUS
[10:09:12.699862] [253] BATTERY_STATUS
[10:09:12.817868] [254] ATTITUDE_TARGET
[10:09:12.821811] [255] VFR_HUD
[10:09:13.057840] [112] RADIO
[10:09:13.060893] [112] RADIO_STATUS
[10:09:13.385832] [0] VFR_HUD
[10:09:13.605851] [1] HEARTBEAT
[10:09:14.059871] [113] RADIO
[10:09:14.061856] [113] RADIO_STATUS
[10:09:14.180054] [2] VFR_HUD
[10:09:14.648928] [3] HEARTBEAT
[10:09:14.656911] [4] ATTITUDE_TARGET
[10:09:14.994957] [5] VFR_HUD
[10:09:15.109976] [114] RADIO
[10:09:15.112917] [114] RADIO_STATUS
[10:09:15.675046] [6] HEARTBEAT
[10:09:15.789010] [7] VFR_HUD
[10:09:16.018099] [115] RADIO
[10:09:16.021040] [115] RADIO_STATUS
[10:09:16.734997] [10] BATTERY_STATUS
[10:09:16.736075] [11] EXTENDED_SYS_STATE
[10:09:16.744097] [12] ATTITUDE_TARGET
[10:09:16.749267] [13] VFR_HUD
[10:09:16.752101] [14] SYSTEM_TIME
[10:09:17.048118] [116] RADIO
[10:09:17.051066] [116] RADIO_STATUS
[10:09:17.399111] [15] VFR_HUD
[10:09:17.624383] [16] HEARTBEAT
[10:09:18.088235] [117] RADIO
[10:09:18.091258] [117] RADIO_STATUS
[10:09:18.208244] [17] VFR_HUD
[10:09:18.677353] [18] HEARTBEAT
[10:09:18.685808] [19] ATTITUDE_TARGET
[10:09:19.008300] [20] VFR_HUD
[10:09:19.035293] [118] RADIO
[10:09:19.038339] [118] RADIO_STATUS
[10:09:19.588354] [21] HEARTBEAT
[10:09:19.818401] [22] VFR_HUD
[10:09:20.037433] [119] RADIO
[10:09:20.040404] [119] RADIO_STATUS
[10:09:20.625531] [23] HEARTBEAT
[10:09:20.632451] [24] SYS_STATUS
[10:09:20.746467] [25] BATTERY_STATUS
[10:09:20.864466] [26] ATTITUDE_TARGET
[10:09:20.869531] [27] VFR_HUD
[10:09:21.076464] [120] RADIO
[10:09:21.079491] [120] RADIO_STATUS
[10:09:21.427704] [28] VFR_HUD
[10:09:21.658530] [29] HEARTBEAT
[10:09:22.109552] [121] RADIO
[10:09:22.112487] [121] RADIO_STATUS
[10:09:22.227624] [30] VFR_HUD
[10:09:22.591611] [31] HEARTBEAT
[10:09:22.599583] [32] ATTITUDE_TARGET
[10:09:23.026592] [122] RADIO
[10:09:23.029575] [122] RADIO_STATUS
[10:09:23.064645] [33] VFR_HUD
[10:09:23.602670] [34] HEARTBEAT
[10:09:23.836696] [35] VFR_HUD
[10:09:24.065713] [123] RADIO
[10:09:24.068696] [123] RADIO_STATUS
[10:09:25.095867] [124] RADIO
[10:09:25.098763] [124] RADIO_STATUS
[10:09:25.164845] [38] BATTERY_STATUS
[10:09:25.171930] [39] ATTITUDE_TARGET
[10:09:25.176804] [40] VFR_HUD
[10:09:25.446817] [41] VFR_HUD
[10:09:25.566803] [42] HEARTBEAT
[10:09:26.135838] [125] RADIO
[10:09:26.138775] [125] RADIO_STATUS
[10:09:26.261853] [43] VFR_HUD
[10:09:26.605904] [44] HEARTBEAT
[10:09:26.612996] [45] ATTITUDE_TARGET
[10:09:27.055882] [46] VFR_HUD
[10:09:27.087928] [126] RADIO
[10:09:27.090877] [126] RADIO_STATUS
[10:09:27.637098] [47] HEARTBEAT
[10:09:27.865998] [48] VFR_HUD
[10:09:28.085029] [127] RADIO
[10:09:28.088044] [127] RADIO_STATUS
[10:09:28.673425] [49] HEARTBEAT
[10:09:28.680023] [50] SYS_STATUS
[10:09:28.799095] [51] BATTERY_STATUS
[10:09:28.912106] [52] ATTITUDE_TARGET
[10:09:28.917054] [53] VFR_HUD
[10:09:29.130105] [128] RADIO
[10:09:29.132051] [128] RADIO_STATUS
[10:09:29.475111] [54] VFR_HUD
[10:09:29.580115] [55] HEARTBEAT
[10:09:30.154209] [129] RADIO
[10:09:30.157237] [129] RADIO_STATUS
[10:09:30.192458] [56] VFR_HUD
[10:09:30.634205] [57] HEARTBEAT
[10:09:30.641280] [58] ATTITUDE_TARGET
[10:09:31.084271] [59] VFR_HUD
[10:09:31.200278] [130] RADIO
[10:09:31.202384] [130] RADIO_STATUS
[10:09:31.649344] [60] HEARTBEAT
[10:09:31.779348] [61] VFR_HUD
[10:09:32.118330] [131] RADIO
[10:09:32.123737] [131] RADIO_STATUS
[10:09:32.569414] [62] HEARTBEAT
[10:09:32.589401] [63] SYS_STATUS
[10:09:32.637457] [64] BATTERY_STATUS
[10:09:32.645349] [65] ATTITUDE_TARGET
[10:09:32.650323] [66] VFR_HUD
[10:09:33.144387] [132] RADIO
[10:09:33.147446] [132] RADIO_STATUS
[10:09:33.620503] [67] VFR_HUD
[10:09:33.623543] [68] HEARTBEAT
[10:09:34.184608] [69] VFR_HUD
[10:09:34.216609] [133] RADIO
[10:09:34.219600] [133] RADIO_STATUS
[10:09:34.653645] [70] HEARTBEAT
[10:09:34.661562] [71] ATTITUDE_TARGET
[10:09:35.108724] [134] RADIO
[10:09:35.111662] [134] RADIO_STATUS
[10:09:35.679738] [73] HEARTBEAT
[10:09:35.794726] [74] VFR_HUD
[10:09:36.133772] [135] RADIO
[10:09:36.136711] [135] RADIO_STATUS
[10:09:36.611854] [75] HEARTBEAT
[10:09:36.617806] [76] SYS_STATUS
[10:09:36.739760] [77] BATTERY_STATUS
[10:09:36.741809] [78] EXTENDED_SYS_STATE
[10:09:36.749830] [79] ATTITUDE_TARGET
[10:09:36.753964] [80] VFR_HUD
[10:09:36.757826] [81] SYSTEM_TIME
[10:09:37.181962] [136] RADIO
[10:09:37.184934] [136] RADIO_STATUS
[10:09:37.403977] [82] VFR_HUD
[10:09:37.628976] [83] HEARTBEAT
[10:09:38.202956] [137] RADIO
[10:09:38.205960] [137] RADIO_STATUS
[10:09:38.323947] [84] VFR_HUD
[10:09:38.683174] [85] HEARTBEAT
[10:09:38.691046] [86] ATTITUDE_TARGET
[10:09:39.013018] [87] VFR_HUD
[10:09:39.123035] [138] RADIO
[10:09:39.126082] [138] RADIO_STATUS
[10:09:39.823169] [89] VFR_HUD
[10:09:40.162091] [139] RADIO
[10:09:40.165092] [139] RADIO_STATUS
[10:09:40.630147] [90] HEARTBEAT
[10:09:40.637173] [91] SYS_STATUS
[10:09:40.869246] [93] ATTITUDE_TARGET
[10:09:40.874214] [94] VFR_HUD
[10:09:41.192231] [140] RADIO
[10:09:41.195212] [140] RADIO_STATUS
[10:09:41.437317] [95] VFR_HUD
[10:09:41.658305] [96] HEARTBEAT
[10:09:42.232374] [97] VFR_HUD
[10:09:42.264330] [141] RADIO
[10:09:42.267287] [141] RADIO_STATUS
[10:09:42.596422] [98] HEARTBEAT
[10:09:42.604345] [99] ATTITUDE_TARGET
[10:09:43.151416] [100] VFR_HUD
[10:09:43.162332] [142] RADIO
[10:09:43.165335] [142] RADIO_STATUS
[10:09:43.607506] [101] HEARTBEAT
[10:09:43.841518] [102] VFR_HUD
[10:09:44.180472] [143] RADIO
[10:09:44.183527] [143] RADIO_STATUS
[10:09:44.663598] [103] HEARTBEAT
[10:09:44.670597] [104] SYS_STATUS
[10:09:44.710535] [105] BATTERY_STATUS
[10:09:44.717565] [106] ATTITUDE_TARGET
[10:09:44.724803] [107] VFR_HUD
[10:09:45.220635] [144] RADIO
[10:09:45.224752] [144] RADIO_STATUS
[10:09:45.581742] [108] VFR_HUD
[10:09:45.584833] [109] HEARTBEAT
[10:09:46.249660] [145] RADIO
[10:09:46.252710] [145] RADIO_STATUS
[10:09:46.370715] [110] VFR_HUD
[10:09:46.609768] [111] HEARTBEAT
[10:09:46.617754] [112] ATTITUDE_TARGET
[10:09:47.059925] [113] VFR_HUD
[10:09:47.169891] [146] RADIO
[10:09:47.173760] [146] RADIO_STATUS
[10:09:47.869947] [115] VFR_HUD
[10:09:48.208917] [147] RADIO
[10:09:48.211883] [147] RADIO_STATUS
[10:09:48.676975] [116] HEARTBEAT
[10:09:48.683997] [117] SYS_STATUS
[10:09:48.916062] [119] ATTITUDE_TARGET
[10:09:48.920992] [120] VFR_HUD
[10:09:49.240638] [148] RADIO
[10:09:49.242138] [148] RADIO_STATUS
[10:09:49.480011] [121] VFR_HUD
[10:09:49.585048] [122] HEARTBEAT
[10:09:50.279075] [123] VFR_HUD
[10:09:50.306373] [149] RADIO
[10:09:50.309087] [149] RADIO_STATUS
[10:09:50.643141] [124] HEARTBEAT
[10:09:50.651096] [125] ATTITUDE_TARGET
[10:09:50.969574] [126] VFR_HUD
[10:09:51.198226] [150] RADIO
[10:09:51.201169] [150] RADIO_STATUS
[10:09:51.654238] [127] HEARTBEAT
[10:09:51.784220] [128] VFR_HUD
[10:09:52.228228] [151] RADIO
[10:09:52.231220] [151] RADIO_STATUS
[10:09:52.586349] [129] HEARTBEAT
[10:09:52.593295] [130] SYS_STATUS
[10:09:52.713797] [131] BATTERY_STATUS
[10:09:52.825377] [132] ATTITUDE_TARGET
[10:09:52.830373] [133] VFR_HUD
[10:09:53.267319] [152] RADIO
[10:09:53.270326] [152] RADIO_STATUS
[10:09:53.613407] [135] HEARTBEAT
[10:09:54.188908] [136] VFR_HUD
[10:09:54.220448] [153] RADIO
[10:09:54.223407] [153] RADIO_STATUS
[10:09:54.657523] [137] HEARTBEAT
[10:09:54.665489] [138] ATTITUDE_TARGET
[10:09:54.998547] [139] VFR_HUD
[10:09:55.217532] [154] RADIO
[10:09:55.220532] [154] RADIO_STATUS
[10:09:55.563590] [140] HEARTBEAT
[10:09:55.797546] [141] VFR_HUD
[10:09:56.257774] [155] RADIO
[10:09:56.259590] [155] RADIO_STATUS
[10:09:56.614731] [142] HEARTBEAT
[10:09:56.621888] [143] SYS_STATUS
[10:09:56.743686] [144] BATTERY_STATUS
[10:09:56.744681] [145] EXTENDED_SYS_STATE
[10:09:56.752786] [146] ATTITUDE_TARGET
[10:09:56.760421] [147] VFR_HUD
[10:09:56.760717] [148] SYSTEM_TIME
[10:09:57.286777] [156] RADIO
[10:09:57.289734] [156] RADIO_STATUS
[10:09:57.406792] [149] VFR_HUD
[10:09:57.633034] [150] HEARTBEAT
[10:09:58.216882] [151] VFR_HUD
[10:09:58.325905] [157] RADIO
[10:09:58.328909] [157] RADIO_STATUS
[10:09:58.685948] [152] HEARTBEAT
[10:09:58.694104] [153] ATTITUDE_TARGET
[10:09:59.016958] [154] VFR_HUD
[10:09:59.250979] [158] RADIO
[10:09:59.253982] [158] RADIO_STATUS
[10:09:59.592043] [155] HEARTBEAT
[10:09:59.831019] [156] VFR_HUD
[10:10:00.275080] [159] RADIO
[10:10:00.278060] [159] RADIO_STATUS
[10:10:00.633145] [157] HEARTBEAT
[10:10:00.640248] [158] SYS_STATUS
[10:10:00.755152] [159] BATTERY_STATUS
[10:10:00.872167] [160] ATTITUDE_TARGET
[10:10:00.877120] [161] VFR_HUD
[10:10:01.320222] [160] RADIO
[10:10:01.323221] [160] RADIO_STATUS
[10:10:01.545210] [162] VFR_HUD
[10:10:01.661237] [163] HEARTBEAT
[10:10:02.235310] [164] VFR_HUD
[10:10:02.267266] [161] RADIO
[10:10:02.270264] [161] RADIO_STATUS
[10:10:02.705410] [165] HEARTBEAT
[10:10:02.712351] [166] ATTITUDE_TARGET
[10:10:03.050422] [167] VFR_HUD
[10:10:03.264377] [162] RADIO
[10:10:03.267391] [162] RADIO_STATUS
[10:10:03.610495] [168] HEARTBEAT
[10:10:03.844438] [169] VFR_HUD
[10:10:04.309543] [163] RADIO
[10:10:04.312494] [163] RADIO_STATUS
[10:10:04.662819] [170] HEARTBEAT
[10:10:04.668613] [171] SYS_STATUS
[10:10:04.787560] [172] BATTERY_STATUS
[10:10:04.795565] [173] ATTITUDE_TARGET
[10:10:04.825627] [174] VFR_HUD
[10:10:05.333613] [164] RADIO
[10:10:05.336605] [164] RADIO_STATUS
[10:10:05.454630] [175] VFR_HUD
[10:10:05.577180] [176] HEARTBEAT
[10:10:06.264721] [177] VFR_HUD
[10:10:06.378677] [165] RADIO
[10:10:06.381671] [165] RADIO_STATUS
[10:10:06.613786] [178] HEARTBEAT
[10:10:06.621612] [179] ATTITUDE_TARGET
[10:10:07.063793] [180] VFR_HUD
[10:10:07.297958] [166] RADIO
[10:10:07.300705] [166] RADIO_STATUS
[10:10:07.644818] [181] HEARTBEAT
[10:10:07.873755] [182] VFR_HUD
[10:10:08.322866] [167] RADIO
[10:10:08.325885] [167] RADIO_STATUS
[10:10:08.563908] [183] HEARTBEAT
[10:10:08.694076] [184] SYS_STATUS
[10:10:08.700898] [185] BATTERY_STATUS
[10:10:08.809896] [186] ATTITUDE_TARGET
[10:10:08.814884] [187] VFR_HUD
[10:10:09.367973] [168] RADIO
[10:10:09.370997] [168] RADIO_STATUS
[10:10:09.589061] [189] HEARTBEAT
[10:10:10.179059] [190] VFR_HUD
[10:10:10.294056] [169] RADIO
[10:10:10.297043] [169] RADIO_STATUS
[10:10:10.978160] [193] VFR_HUD
[10:10:11.312118] [170] RADIO
[10:10:11.315154] [170] RADIO_STATUS
[10:10:11.658186] [194] HEARTBEAT
[10:10:12.351304] [171] RADIO
[10:10:12.354615] [171] RADIO_STATUS
[10:10:12.590647] [196] HEARTBEAT
[10:10:12.597306] [197] SYS_STATUS
[10:10:12.716312] [198] BATTERY_STATUS
[10:10:12.828298] [199] ATTITUDE_TARGET
[10:10:12.833287] [200] VFR_HUD
[10:10:13.381300] [172] RADIO
[10:10:13.384273] [172] RADIO_STATUS
[10:10:13.502268] [201] VFR_HUD
[10:10:13.622339] [202] HEARTBEAT
[10:10:14.191372] [203] VFR_HUD
[10:10:14.300351] [173] RADIO
[10:10:14.303364] [173] RADIO_STATUS
[10:10:14.660426] [204] HEARTBEAT
[10:10:14.668389] [205] ATTITUDE_TARGET
[10:10:15.001488] [206] VFR_HUD
[10:10:15.340456] [174] RADIO
[10:10:15.343439] [174] RADIO_STATUS
[10:10:15.566508] [207] HEARTBEAT
[10:10:15.800519] [208] VFR_HUD
[10:10:16.369549] [175] RADIO
[10:10:16.372561] [175] RADIO_STATUS
[10:10:16.617651] [209] HEARTBEAT
[10:10:16.624604] [210] SYS_STATUS
[10:10:16.746610] [211] BATTERY_STATUS
[10:10:16.748591] [212] EXTENDED_SYS_STATE
[10:10:16.756063] [213] ATTITUDE_TARGET
[10:10:16.760680] [214] VFR_HUD
[10:10:16.764642] [215] SYSTEM_TIME
[10:10:17.410720] [216] VFR_HUD
[10:10:17.437812] [176] RADIO
[10:10:17.440644] [176] RADIO_STATUS
[10:10:17.635702] [217] HEARTBEAT
[10:10:18.226017] [218] VFR_HUD
[10:10:18.341333] [177] RADIO
[10:10:18.343842] [177] RADIO_STATUS
[10:10:18.560804] [219] HEARTBEAT
[10:10:18.582739] [220] ATTITUDE_TARGET
[10:10:19.019854] [221] VFR_HUD
[10:10:19.358849] [178] RADIO
[10:10:19.361895] [178] RADIO_STATUS
[10:10:19.594903] [222] HEARTBEAT
[10:10:19.938875] [223] VFR_HUD
[10:10:20.397917] [179] RADIO
[10:10:20.400881] [179] RADIO_STATUS
[10:10:20.635949] [224] HEARTBEAT
[10:10:20.642979] [225] SYS_STATUS
[10:10:20.763043] [226] BATTERY_STATUS
[10:10:20.875100] [227] ATTITUDE_TARGET
[10:10:20.879941] [228] VFR_HUD
[10:10:21.427979] [180] RADIO
[10:10:21.430959] [180] RADIO_STATUS
[10:10:21.466010] [229] VFR_HUD
[10:10:21.669978] [230] HEARTBEAT
[10:10:22.239982] [231] VFR_HUD
[10:10:22.347174] [181] RADIO
[10:10:22.350053] [181] RADIO_STATUS
[10:10:22.600945] [232] HEARTBEAT
[10:10:22.605963] [233] ATTITUDE_TARGET
[10:10:23.048152] [234] VFR_HUD
[10:10:23.387216] [182] RADIO
[10:10:23.390116] [182] RADIO_STATUS
[10:10:23.613204] [235] HEARTBEAT
[10:10:23.848204] [236] VFR_HUD
[10:10:24.417393] [183] RADIO
[10:10:24.419271] [183] RADIO_STATUS
[10:10:24.665328] [237] HEARTBEAT
[10:10:24.671391] [238] SYS_STATUS
[10:10:24.790339] [239] BATTERY_STATUS
[10:10:24.798322] [240] ATTITUDE_TARGET
[10:10:24.828292] [241] VFR_HUD
[10:10:25.336402] [184] RADIO
[10:10:25.339280] [184] RADIO_STATUS
[10:10:25.375346] [242] VFR_HUD
[10:10:26.267712] [244] VFR_HUD
[10:10:26.381373] [185] RADIO
[10:10:26.384448] [185] RADIO_STATUS
[10:10:26.616506] [245] HEARTBEAT
[10:10:26.624506] [246] ATTITUDE_TARGET
[10:10:27.066515] [247] VFR_HUD
[10:10:27.405521] [186] RADIO
[10:10:27.408560] [186] RADIO_STATUS
[10:10:27.641547] [248] HEARTBEAT
[10:10:28.450599] [187] RADIO
[10:10:28.453603] [187] RADIO_STATUS
[10:10:28.578753] [250] HEARTBEAT
[10:10:28.585609] [251] SYS_STATUS
[10:10:28.625633] [252] BATTERY_STATUS
[10:10:28.632618] [253] ATTITUDE_TARGET
[10:10:28.637975] [254] VFR_HUD
[10:10:29.370670] [188] RADIO
[10:10:29.373695] [188] RADIO_STATUS
[10:10:29.601663] [255] VFR_HUD
[10:10:29.604703] [0] HEARTBEAT
[10:10:30.394960] [189] RADIO
[10:10:30.397719] [189] RADIO_STATUS
[10:10:30.649778] [2] HEARTBEAT
[10:10:30.658191] [3] ATTITUDE_TARGET
[10:10:30.975784] [4] VFR_HUD
[10:10:31.439839] [190] RADIO
[10:10:31.442853] [190] RADIO_STATUS
[10:10:31.660898] [5] HEARTBEAT
[10:10:31.784819] [6] VFR_HUD
[10:10:32.463907] [191] RADIO
[10:10:32.466906] [191] RADIO_STATUS
[10:10:32.591934] [7] HEARTBEAT
[10:10:32.598958] [8] SYS_STATUS
[10:10:32.713980] [9] BATTERY_STATUS
[10:10:32.830959] [10] ATTITUDE_TARGET
[10:10:32.835940] [11] VFR_HUD
[10:10:33.384008] [192] RADIO
[10:10:33.387258] [192] RADIO_STATUS
[10:10:33.503973] [12] VFR_HUD
[10:10:34.194120] [14] VFR_HUD
[10:10:34.428119] [193] RADIO
[10:10:34.431104] [193] RADIO_STATUS
[10:10:34.663118] [15] HEARTBEAT
[10:10:34.671151] [16] ATTITUDE_TARGET
[10:10:35.004195] [17] VFR_HUD
[10:10:35.453188] [194] RADIO
[10:10:35.457737] [194] RADIO_STATUS
[10:10:35.569187] [18] HEARTBEAT
[10:10:35.803262] [19] VFR_HUD
[10:10:36.497250] [195] RADIO
[10:10:36.500219] [195] RADIO_STATUS
[10:10:36.626430] [20] HEARTBEAT
[10:10:36.632254] [21] SYS_STATUS
[10:10:36.667347] [22] BATTERY_STATUS
[10:10:36.668308] [23] EXTENDED_SYS_STATE
[10:10:36.677180] [24] ATTITUDE_TARGET
[10:10:36.681214] [25] VFR_HUD
[10:10:36.685276] [26] SYSTEM_TIME
[10:10:37.413889] [27] VFR_HUD
[10:10:37.440367] [196] RADIO
[10:10:37.443284] [196] RADIO_STATUS
[10:10:37.639363] [28] HEARTBEAT
[10:10:38.332449] [29] VFR_HUD
[10:10:38.442437] [197] RADIO
[10:10:38.444584] [197] RADIO_STATUS
[10:10:38.558430] [30] HEARTBEAT
[10:10:38.580469] [31] ATTITUDE_TARGET
[10:10:39.022430] [32] VFR_HUD
[10:10:39.481528] [198] RADIO
[10:10:39.484509] [198] RADIO_STATUS
[10:10:39.597537] [33] HEARTBEAT
[10:10:39.837449] [34] VFR_HUD
[10:10:40.511592] [199] RADIO
[10:10:40.514547] [199] RADIO_STATUS
[10:10:40.639658] [35] HEARTBEAT
[10:10:40.646556] [36] SYS_STATUS
[10:10:40.766606] [37] BATTERY_STATUS
[10:10:40.878596] [38] ATTITUDE_TARGET
[10:10:40.883643] [39] VFR_HUD
[10:10:41.430656] [200] RADIO
[10:10:41.433658] [200] RADIO_STATUS
[10:10:41.551690] [40] VFR_HUD
[10:10:41.579698] [41] HEARTBEAT
[10:10:42.241696] [42] VFR_HUD
[10:10:42.470749] [201] RADIO
[10:10:42.473667] [201] RADIO_STATUS
[10:10:42.600736] [43] HEARTBEAT
[10:10:42.608681] [44] ATTITUDE_TARGET
[10:10:43.050827] [45] VFR_HUD
[10:10:43.501231] [202] RADIO
[10:10:43.502877] [202] RADIO_STATUS
[10:10:43.616796] [46] HEARTBEAT
[10:10:43.851021] [47] VFR_HUD
[10:10:44.419967] [203] RADIO
[10:10:44.422863] [203] RADIO_STATUS
[10:10:44.667910] [48] HEARTBEAT
[10:10:44.674936] [49] SYS_STATUS
[10:10:44.794019] [50] BATTERY_STATUS
[10:10:44.800910] [51] ATTITUDE_TARGET
[10:10:44.831866] [52] VFR_HUD
[10:10:45.460035] [53] VFR_HUD
[10:10:45.491035] [204] RADIO
[10:10:45.491171] [204] RADIO_STATUS
[10:10:45.576007] [54] HEARTBEAT
[10:10:46.489006] [205] RADIO
[10:10:46.493748] [205] RADIO_STATUS
[10:10:46.619123] [56] HEARTBEAT
[10:10:46.629194] [57] ATTITUDE_TARGET
[10:10:47.070116] [58] VFR_HUD
[10:10:47.529181] [206] RADIO
[10:10:47.532180] [206] RADIO_STATUS
[10:10:47.645199] [59] HEARTBEAT
[10:10:47.885251] [60] VFR_HUD
[10:10:48.448258] [207] RADIO
[10:10:48.451243] [207] RADIO_STATUS
[10:10:48.702314] [63] BATTERY_STATUS
[10:10:48.710265] [64] ATTITUDE_TARGET
[10:10:48.740263] [65] VFR_HUD
[10:10:49.369358] [66] VFR_HUD
[10:10:49.478357] [208] RADIO
[10:10:49.481448] [208] RADIO_STATUS
[10:10:49.595360] [67] HEARTBEAT
[10:10:50.179444] [68] VFR_HUD
[10:10:50.518512] [209] RADIO
[10:10:50.521434] [209] RADIO_STATUS
[10:10:50.648507] [69] HEARTBEAT
[10:10:50.656529] [70] ATTITUDE_TARGET
[10:10:50.979565] [71] VFR_HUD
[10:10:51.548518] [210] RADIO
[10:10:51.551581] [210] RADIO_STATUS
[10:10:51.582663] [72] HEARTBEAT
[10:10:51.789864] [73] VFR_HUD
[10:10:52.467628] [211] RADIO
[10:10:52.470837] [211] RADIO_STATUS
[10:10:52.596659] [74] HEARTBEAT
[10:10:52.602664] [75] SYS_STATUS
[10:10:52.717709] [76] BATTERY_STATUS
[10:10:52.835688] [77] ATTITUDE_TARGET
[10:10:52.840894] [78] VFR_HUD
[10:10:53.398695] [79] VFR_HUD
[10:10:53.512744] [212] RADIO
[10:10:53.515737] [212] RADIO_STATUS
[10:10:53.628795] [80] HEARTBEAT
[10:10:54.197778] [81] VFR_HUD
[10:10:54.537122] [213] RADIO
[10:10:54.541730] [213] RADIO_STATUS
[10:10:54.584935] [82] HEARTBEAT
[10:10:54.592924] [83] ATTITUDE_TARGET
[10:10:55.012942] [84] VFR_HUD
[10:10:55.572898] [85] HEARTBEAT
[10:10:55.604956] [214] RADIO
[10:10:55.607956] [214] RADIO_STATUS
[10:10:55.808010] [86] VFR_HUD
[10:10:56.502056] [215] RADIO
[10:10:56.505039] [215] RADIO_STATUS
[10:10:57.417182] [94] VFR_HUD
[10:10:57.526117] [216] RADIO
[10:10:57.529095] [216] RADIO_STATUS
[10:10:57.560154] [95] HEARTBEAT
[10:10:58.232196] [96] VFR_HUD
[10:10:58.562228] [97] HEARTBEAT
[10:10:58.585223] [98] ATTITUDE_TARGET
[10:10:58.615291] [217] RADIO
[10:10:58.618262] [217] RADIO_STATUS
[10:10:59.027275] [99] VFR_HUD
[10:10:59.595373] [218] RADIO
[10:10:59.598407] [218] RADIO_STATUS
[10:10:59.629370] [100] HEARTBEAT
[10:10:59.836374] [101] VFR_HUD
[10:11:00.515450] [219] RADIO
[10:11:00.518392] [219] RADIO_STATUS
[10:11:00.643428] [102] HEARTBEAT
[10:11:00.650469] [103] SYS_STATUS
[10:11:00.770434] [104] BATTERY_STATUS
[10:11:00.882494] [105] ATTITUDE_TARGET
[10:11:00.887450] [106] VFR_HUD
[10:11:01.445537] [107] VFR_HUD
[10:11:01.560511] [220] RADIO
[10:11:01.563494] [220] RADIO_STATUS
[10:11:01.676539] [108] HEARTBEAT
[10:11:02.245627] [109] VFR_HUD
[10:11:02.584683] [221] RADIO
[10:11:02.587586] [221] RADIO_STATUS
[10:11:02.714660] [110] HEARTBEAT
[10:11:02.722667] [111] ATTITUDE_TARGET
[10:11:03.055694] [112] VFR_HUD
[10:11:03.620768] [113] HEARTBEAT
[10:11:03.652708] [222] RADIO
[10:11:03.656676] [222] RADIO_STATUS
[10:11:03.854927] [114] VFR_HUD
[10:11:04.543851] [223] RADIO
[10:11:04.546954] [223] RADIO_STATUS
[10:11:04.798156] [117] BATTERY_STATUS
[10:11:04.805939] [118] ATTITUDE_TARGET
[10:11:04.835948] [119] VFR_HUD
[10:11:05.464935] [120] VFR_HUD
[10:11:05.573866] [224] RADIO
[10:11:05.576930] [224] RADIO_STATUS
[10:11:05.689897] [121] HEARTBEAT
[10:11:06.279989] [122] VFR_HUD
[10:11:06.623960] [123] HEARTBEAT
[10:11:06.631024] [124] ATTITUDE_TARGET
[10:11:06.722925] [225] RADIO
[10:11:06.725919] [225] RADIO_STATUS
[10:11:07.074044] [125] VFR_HUD
[10:11:07.643084] [226] RADIO
[10:11:07.645993] [226] RADIO_STATUS
[10:11:07.759082] [126] HEARTBEAT
[10:11:07.782064] [127] VFR_HUD
[10:11:08.562110] [227] RADIO
[10:11:08.565152] [227] RADIO_STATUS
[10:11:08.692589] [128] HEARTBEAT
[10:11:08.697216] [129] SYS_STATUS
[10:11:08.817352] [130] BATTERY_STATUS
[10:11:08.930501] [131] ATTITUDE_TARGET
[10:11:08.934192] [132] VFR_HUD
[10:11:09.373359] [133] VFR_HUD
[10:11:09.598370] [134] HEARTBEAT
[10:11:09.712326] [228] RADIO
[10:11:09.715200] [228] RADIO_STATUS
[10:11:10.182305] [135] VFR_HUD
[10:11:10.631357] [229] RADIO
[10:11:10.634375] [229] RADIO_STATUS
[10:11:10.761368] [136] HEARTBEAT
[10:11:10.769331] [137] ATTITUDE_TARGET
[10:11:10.982375] [138] VFR_HUD
[10:11:11.671479] [230] RADIO
[10:11:11.674460] [230] RADIO_STATUS
[10:11:11.792551] [140] VFR_HUD
[10:11:12.599557] [141] HEARTBEAT
[10:11:12.606495] [142] SYS_STATUS
[10:11:12.701515] [231] RADIO
[10:11:12.704506] [231] RADIO_STATUS
[10:11:13.406621] [146] VFR_HUD
[10:11:13.620629] [232] RADIO
[10:11:13.623633] [232] RADIO_STATUS
[10:11:13.736649] [147] HEARTBEAT
[10:11:14.200741] [148] VFR_HUD
[10:11:14.669753] [149] HEARTBEAT
[10:11:14.677715] [150] ATTITUDE_TARGET
[10:11:14.769710] [233] RADIO
[10:11:14.773535] [233] RADIO_STATUS
[10:11:15.120887] [151] VFR_HUD
[10:11:15.575902] [152] HEARTBEAT
[10:11:15.607870] [234] RADIO
[10:11:15.612756] [234] RADIO_STATUS
[10:11:15.810857] [153] VFR_HUD
[10:11:16.609899] [235] RADIO
[10:11:16.612891] [235] RADIO_STATUS
[10:11:16.672918] [154] HEARTBEAT
[10:11:16.679987] [155] SYS_STATUS
[10:11:16.686929] [156] BATTERY_STATUS
[10:11:16.690762] [157] EXTENDED_SYS_STATE
[10:11:16.705925] [158] ATTITUDE_TARGET
[10:11:16.711297] [159] VFR_HUD
[10:11:16.713882] [160] SYSTEM_TIME
[10:11:17.420023] [161] VFR_HUD
[10:11:17.645035] [162] HEARTBEAT
[10:11:17.759031] [236] RADIO
[10:11:17.762032] [236] RADIO_STATUS
[10:11:18.229084] [163] VFR_HUD
[10:11:18.565201] [164] HEARTBEAT
[10:11:18.588165] [165] ATTITUDE_TARGET
[10:11:18.618083] [237] RADIO
[10:11:18.621555] [237] RADIO_STATUS
[10:11:19.029181] [166] VFR_HUD
[10:11:19.603225] [238] RADIO
[10:11:19.606185] [238] RADIO_STATUS
[10:11:19.844166] [168] VFR_HUD
[10:11:20.646307] [169] HEARTBEAT
[10:11:20.653312] [170] SYS_STATUS
[10:11:20.666271] [239] RADIO
[10:11:20.669231] [239] RADIO_STATUS
[10:11:20.885303] [172] ATTITUDE_TARGET
[10:11:20.890250] [173] VFR_HUD
[10:11:21.448318] [174] VFR_HUD
[10:11:21.559371] [175] HEARTBEAT
[10:11:21.667377] [240] RADIO
[10:11:21.670345] [240] RADIO_STATUS
[10:11:22.248457] [176] VFR_HUD
[10:11:22.612502] [177] HEARTBEAT
[10:11:22.620502] [178] ATTITUDE_TARGET
[10:11:22.712522] [241] RADIO
[10:11:22.715515] [241] RADIO_STATUS
[10:11:23.623587] [180] HEARTBEAT
[10:11:23.654685] [242] RADIO
[10:11:23.658659] [242] RADIO_STATUS
[10:11:23.857917] [181] VFR_HUD
[10:11:24.656615] [243] RADIO
[10:11:24.659578] [243] RADIO_STATUS
[10:11:24.716650] [182] HEARTBEAT
[10:11:24.722702] [183] SYS_STATUS
[10:11:24.730660] [184] BATTERY_STATUS
[10:11:24.742639] [185] ATTITUDE_TARGET
[10:11:24.747689] [186] VFR_HUD
[10:11:25.466766] [187] VFR_HUD
[10:11:25.582824] [188] HEARTBEAT
[10:11:25.704163] [244] RADIO
[10:11:25.704917] [244] RADIO_STATUS
[10:11:26.281917] [189] VFR_HUD
[10:11:26.625978] [190] HEARTBEAT
[10:11:26.633939] [191] ATTITUDE_TARGET
[10:11:26.643878] [245] RADIO
[10:11:26.646901] [245] RADIO_STATUS
[10:11:26.966925] [192] VFR_HUD
[10:11:27.645893] [246] RADIO
[10:11:27.648962] [246] RADIO_STATUS
[10:11:27.772010] [194] VFR_HUD
[10:11:28.584068] [195] HEARTBEAT
[10:11:28.590019] [196] SYS_STATUS
[10:11:28.709030] [197] BATTERY_STATUS
[10:11:28.717046] [198] ATTITUDE_TARGET
[10:11:28.747046] [199] VFR_HUD
[10:11:28.774046] [247] RADIO
[10:11:28.777027] [247] RADIO_STATUS
[10:11:29.376169] [200] VFR_HUD
[10:11:29.601277] [201] HEARTBEAT
[10:11:29.715330] [248] RADIO
[10:11:29.718134] [248] RADIO_STATUS
[10:11:30.185199] [202] VFR_HUD
[10:11:30.654944] [203] HEARTBEAT
[10:11:30.662274] [204] ATTITUDE_TARGET
[10:11:30.782387] [249] RADIO
[10:11:30.785209] [249] RADIO_STATUS
[10:11:30.985304] [205] VFR_HUD
[10:11:31.560313] [206] HEARTBEAT
[10:11:31.674355] [250] RADIO
[10:11:31.677320] [250] RADIO_STATUS
[10:11:31.800376] [207] VFR_HUD
[10:11:32.601512] [208] HEARTBEAT
[10:11:32.608701] [209] SYS_STATUS
[10:11:32.703465] [251] RADIO
[10:11:32.707578] [251] RADIO_STATUS
[10:11:32.744431] [210] BATTERY_STATUS
[10:11:32.773768] [211] ATTITUDE_TARGET
[10:11:32.776430] [212] VFR_HUD
[10:11:33.513541] [213] VFR_HUD
[10:11:33.629553] [214] HEARTBEAT
[10:11:33.743485] [252] RADIO
[10:11:33.745502] [252] RADIO_STATUS
[10:11:34.203559] [215] VFR_HUD
[10:11:34.672639] [216] HEARTBEAT
[10:11:34.680639] [217] ATTITUDE_TARGET
[10:11:34.772621] [253] RADIO
[10:11:34.775625] [253] RADIO_STATUS
[10:11:35.018688] [218] VFR_HUD
[10:11:35.578731] [219] HEARTBEAT
[10:11:35.691664] [254] RADIO
[10:11:35.694639] [254] RADIO_STATUS
[10:11:35.812755] [220] VFR_HUD
[10:11:36.629797] [221] HEARTBEAT
[10:11:36.637326] [222] SYS_STATUS
[10:11:36.757755] [223] BATTERY_STATUS
[10:11:36.759724] [224] EXTENDED_SYS_STATE
[10:11:36.767767] [225] ATTITUDE_TARGET
[10:11:36.773915] [226] VFR_HUD
[10:11:36.775839] [227] SYSTEM_TIME
[10:11:36.798727] [255] RADIO
[10:11:36.801831] [255] RADIO_STATUS
[10:11:37.421960] [228] VFR_HUD
[10:11:37.647923] [229] HEARTBEAT
[10:11:37.760862] [0] RADIO
[10:11:37.765291] [0] RADIO_STATUS
[10:11:38.233771] [230] VFR_HUD
[10:11:38.566968] [231] HEARTBEAT
[10:11:38.589910] [232] ATTITUDE_TARGET
[10:11:38.800945] [1] RADIO
[10:11:38.803956] [1] RADIO_STATUS
[10:11:39.032873] [233] VFR_HUD
[10:11:39.612020] [234] HEARTBEAT
[10:11:39.720994] [2] RADIO
[10:11:39.722978] [2] RADIO_STATUS
[10:11:39.841017] [235] VFR_HUD
[10:11:40.648164] [236] HEARTBEAT
[10:11:40.657130] [237] SYS_STATUS
[10:11:40.750162] [3] RADIO
[10:11:40.753199] [3] RADIO_STATUS
[10:11:40.791145] [238] BATTERY_STATUS
[10:11:40.818190] [239] ATTITUDE_TARGET
[10:11:40.823114] [240] VFR_HUD
[10:11:41.556275] [242] HEARTBEAT
[10:11:41.790249] [4] RADIO
[10:11:41.793259] [4] RADIO_STATUS
[10:11:42.250329] [243] VFR_HUD
[10:11:42.709268] [5] RADIO
[10:11:42.712298] [5] RADIO_STATUS
[10:11:43.065329] [246] VFR_HUD
[10:11:43.625448] [247] HEARTBEAT
[10:11:43.739452] [6] RADIO
[10:11:43.742427] [6] RADIO_STATUS
[10:11:43.859453] [248] VFR_HUD
[10:11:44.682599] [249] HEARTBEAT
[10:11:44.688531] [250] SYS_STATUS
[10:11:44.728537] [251] BATTERY_STATUS
[10:11:44.736532] [252] ATTITUDE_TARGET
[10:11:44.741442] [253] VFR_HUD
[10:11:44.778477] [7] RADIO
[10:11:44.781465] [7] RADIO_STATUS
[10:11:45.600541] [254] VFR_HUD
[10:11:45.603580] [255] HEARTBEAT
[10:11:45.808582] [8] RADIO
[10:11:45.811529] [8] RADIO_STATUS
[10:11:46.284623] [0] VFR_HUD
[10:11:46.628650] [1] HEARTBEAT
[10:11:46.636660] [2] ATTITUDE_TARGET
[10:11:46.728697] [9] RADIO
[10:11:46.731626] [9] RADIO_STATUS
[10:11:46.968662] [3] VFR_HUD
[10:11:47.659749] [4] HEARTBEAT
[10:11:47.768773] [5] VFR_HUD
[10:11:47.800731] [10] RADIO
[10:11:47.803907] [10] RADIO_STATUS
[10:11:48.585904] [6] HEARTBEAT
[10:11:48.592922] [7] SYS_STATUS
[10:11:48.710927] [8] BATTERY_STATUS
[10:11:48.718906] [9] ATTITUDE_TARGET
[10:11:48.749928] [10] VFR_HUD
[10:11:48.776879] [11] RADIO
[10:11:48.779895] [11] RADIO_STATUS
[10:11:49.377944] [11] VFR_HUD
[10:11:49.602997] [12] HEARTBEAT
[10:11:49.837054] [12] RADIO
[10:11:49.840001] [12] RADIO_STATUS
[10:11:50.193049] [13] VFR_HUD
[10:11:50.766101] [14] HEARTBEAT
[10:11:50.774087] [15] ATTITUDE_TARGET
[10:11:50.785067] [13] RADIO
[10:11:50.788243] [13] RADIO_STATUS
[10:11:50.987144] [16] VFR_HUD
[10:11:51.562224] [17] HEARTBEAT
[10:11:51.786146] [14] RADIO
[10:11:51.789175] [14] RADIO_STATUS
[10:11:52.604318] [19] HEARTBEAT
[10:11:52.611257] [20] SYS_STATUS
[10:11:52.731228] [21] BATTERY_STATUS
[10:11:52.843296] [22] ATTITUDE_TARGET
[10:11:52.848213] [23] VFR_HUD
[10:11:52.882311] [15] RADIO
[10:11:52.885329] [15] RADIO_STATUS
[10:11:53.412445] [24] VFR_HUD
[10:11:53.632351] [25] HEARTBEAT
[10:11:53.857780] [16] RADIO
[10:11:53.858271] [16] RADIO_STATUS
[10:11:54.206425] [26] VFR_HUD
[10:11:54.675488] [27] HEARTBEAT
[10:11:54.684713] [28] ATTITUDE_TARGET
[10:11:54.775405] [17] RADIO
[10:11:54.778465] [17] RADIO_STATUS
[10:11:55.016488] [29] VFR_HUD
[10:11:55.581524] [30] HEARTBEAT
[10:11:55.815480] [31] VFR_HUD
[10:11:55.848514] [18] RADIO
[10:11:55.851535] [18] RADIO_STATUS
