[20:05:55.377296] [79] HEARTBEAT
[20:05:55.606201] [80] VFR_HUD
[20:05:55.715302] [195] RADIO
[20:05:55.718261] [195] RADIO_STATUS
[20:05:56.413383] [81] HEARTBEAT
[20:05:56.420397] [82] SYS_STATUS
[20:05:56.535437] [83] BATTERY_STATUS
[20:05:56.652437] [84] ATTITUDE_TARGET
[20:05:56.657422] [85] VFR_HUD
[20:05:56.691397] [196] RADIO
[20:05:56.694506] [196] RADIO_STATUS
[20:05:57.215495] [86] VFR_HUD
[20:05:57.446566] [87] HEARTBEAT
[20:05:57.784609] [197] RADIO
[20:05:57.787614] [197] RADIO_STATUS
[20:05:58.015655] [88] VFR_HUD
[20:05:58.379702] [89] HEARTBEAT
[20:05:58.387709] [90] ATTITUDE_TARGET
[20:05:58.709728] [198] RADIO
[20:05:58.712723] [198] RADIO_STATUS
[20:05:58.824772] [91] VFR_HUD
[20:05:59.391417] [92] HEARTBEAT
[20:05:59.624971] [93] VFR_HUD
[20:05:59.733957] [199] RADIO
[20:05:59.736932] [199] RADIO_STATUS
[20:06:00.447159] [94] HEARTBEAT
[20:06:00.454200] [95] SYS_STATUS
[20:06:00.493231] [96] BATTERY_STATUS
[20:06:00.501235] [97] ATTITUDE_TARGET
[20:06:00.506107] [98] VFR_HUD
[20:06:00.779206] [200] RADIO
[20:06:00.782248] [200] RADIO_STATUS
[20:06:01.360230] [99] VFR_HUD
[20:06:01.362533] [100] HEARTBEAT
[20:06:01.803301] [201] RADIO
[20:06:01.806374] [201] RADIO_STATUS
[20:06:02.049368] [101] VFR_HUD
[20:06:02.392426] [102] HEARTBEAT
[20:06:02.400440] [103] ATTITUDE_TARGET
[20:06:02.722508] [202] RADIO
[20:06:02.725446] [202] RADIO_STATUS
[20:06:02.843576] [104] VFR_HUD
[20:06:03.418671] [105] HEARTBEAT
[20:06:03.658652] [106] VFR_HUD
[20:06:03.778680] [203] RADIO
[20:06:03.781652] [203] RADIO_STATUS
[20:06:04.350976] [107] HEARTBEAT
[20:06:04.356757] [108] SYS_STATUS
[20:06:04.475920] [109] BATTERY_STATUS
[20:06:04.483803] [110] ATTITUDE_TARGET
[20:06:04.524794] [111] VFR_HUD
[20:06:04.791887] [204] RADIO
[20:06:04.795031] [204] RADIO_STATUS
[20:06:05.367010] [113] HEARTBEAT
[20:06:05.836072] [205] RADIO
[20:06:05.839004] [205] RADIO_STATUS
[20:06:05.951248] [114] VFR_HUD
[20:06:06.420201] [115] HEARTBEAT
[20:06:06.428152] [116] ATTITUDE_TARGET
[20:06:06.751232] [117] VFR_HUD
[20:06:06.783156] [206] RADIO
[20:06:06.786150] [206] RADIO_STATUS
[20:06:07.566370] [119] VFR_HUD
[20:06:07.779355] [207] RADIO
[20:06:07.782390] [207] RADIO_STATUS
[20:06:08.367459] [120] HEARTBEAT
[20:06:08.374493] [121] SYS_STATUS
[20:06:08.489467] [122] BATTERY_STATUS
[20:06:08.835516] [123] ATTITUDE_TARGET
[20:06:08.840502] [124] VFR_HUD
[20:06:08.852694] [208] RADIO
[20:06:08.854532] [208] RADIO_STATUS
[20:06:09.174550] [125] VFR_HUD
[20:06:09.394619] [126] HEARTBEAT
[20:06:09.679512] JAMMING_START
[20:06:09.848721] [209] RADIO
[20:06:09.851661] [209] RADIO_STATUS
[20:06:09.968746] [127] VFR_HUD
[20:06:10.437913] [128] HEARTBEAT
[20:06:10.445864] [129] ATTITUDE_TARGET
[20:06:10.767825] [210] RADIO
[20:06:10.770761] [210] RADIO_STATUS
[20:06:10.806946] [130] VFR_HUD
[20:06:11.343972] [131] HEARTBEAT
[20:06:11.577986] [132] VFR_HUD
[20:06:11.808213] [211] RADIO
[20:06:11.809945] [211] RADIO_STATUS
[20:06:12.395225] [133] HEARTBEAT
[20:06:12.402187] [134] SYS_STATUS
[20:06:12.524240] [135] BATTERY_STATUS
[20:06:12.525240] [136] EXTENDED_SYS_STATE
[20:06:12.533290] [137] ATTITUDE_TARGET
[20:06:12.538383] [138] VFR_HUD
[20:06:12.542112] [139] SYSTEM_TIME
[20:06:12.837178] [212] RADIO
[20:06:12.840202] [212] RADIO_STATUS
[20:06:13.412319] [141] HEARTBEAT
[20:06:13.876363] [213] RADIO
[20:06:13.879386] [213] RADIO_STATUS
[20:06:13.997365] [142] VFR_HUD
[20:06:14.464481] [144] ATTITUDE_TARGET
[20:06:14.796521] [145] VFR_HUD
[20:06:14.823512] [214] RADIO
[20:06:14.826540] [214] RADIO_STATUS
[20:06:15.376644] [146] HEARTBEAT
[20:06:15.605675] [147] VFR_HUD
[20:06:15.825751] [215] RADIO
[20:06:15.827714] [215] RADIO_STATUS
[20:06:16.412948] [148] HEARTBEAT
[20:06:16.419842] [149] SYS_STATUS
[20:06:16.534940] [150] BATTERY_STATUS
[20:06:16.865000] [216] RADIO
[20:06:16.867901] [216] RADIO_STATUS
[20:06:17.214911] [153] VFR_HUD
[20:06:17.445948] [154] HEARTBEAT
[20:06:17.894075] [217] RADIO
[20:06:17.896981] [217] RADIO_STATUS
[20:06:18.015051] [155] VFR_HUD
[20:06:18.379141] [156] HEARTBEAT
[20:06:18.387122] [157] ATTITUDE_TARGET
[20:06:18.814189] [218] RADIO
[20:06:18.817182] [218] RADIO_STATUS
[20:06:18.852241] [158] VFR_HUD
[20:06:19.389975] [159] HEARTBEAT
[20:06:19.624345] [160] VFR_HUD
[20:06:19.853382] [219] RADIO
[20:06:19.856326] [219] RADIO_STATUS
[20:06:20.446523] [161] HEARTBEAT
[20:06:20.453501] [162] SYS_STATUS
[20:06:20.492500] [163] BATTERY_STATUS
[20:06:20.500525] [164] ATTITUDE_TARGET
[20:06:20.505522] [165] VFR_HUD
[20:06:20.882543] [220] RADIO
[20:06:20.885498] [220] RADIO_STATUS
[20:06:21.353963] [167] HEARTBEAT
[20:06:21.801660] [221] RADIO
[20:06:21.804616] [221] RADIO_STATUS
[20:06:22.042920] [168] VFR_HUD
[20:06:22.516779] [169] HEARTBEAT
[20:06:22.523780] [170] ATTITUDE_TARGET
[20:06:22.845010] [171] VFR_HUD
[20:06:22.869861] [222] RADIO
[20:06:22.872819] [222] RADIO_STATUS
[20:06:23.422962] [172] HEARTBEAT
[20:06:23.652083] [173] VFR_HUD
[20:06:23.871154] [223] RADIO
[20:06:23.874101] [223] RADIO_STATUS
[20:06:24.349112] [174] HEARTBEAT
[20:06:24.356092] [175] SYS_STATUS
[20:06:24.475161] [176] BATTERY_STATUS
[20:06:24.482156] [177] ATTITUDE_TARGET
[20:06:24.513295] [178] VFR_HUD
[20:06:24.911265] [224] RADIO
[20:06:24.913188] [224] RADIO_STATUS
[20:06:25.141300] [179] VFR_HUD
[20:06:25.366356] [180] HEARTBEAT
[20:06:25.940402] [225] RADIO
[20:06:25.943309] [225] RADIO_STATUS
[20:06:25.978503] [181] VFR_HUD
[20:06:26.421819] [182] HEARTBEAT
[20:06:26.427463] [183] ATTITUDE_TARGET
[20:06:26.750525] [184] VFR_HUD
[20:06:26.859518] [226] RADIO
[20:06:26.862504] [226] RADIO_STATUS
[20:06:27.435680] [185] HEARTBEAT
[20:06:27.564673] [186] VFR_HUD
[20:06:27.904741] [227] RADIO
[20:06:27.906695] [227] RADIO_STATUS
[20:06:28.366961] [187] HEARTBEAT
[20:06:28.373912] [188] SYS_STATUS
[20:06:28.493887] [189] BATTERY_STATUS
[20:06:28.724885] [190] ATTITUDE_TARGET
[20:06:28.729819] [191] VFR_HUD
[20:06:28.927907] [228] RADIO
[20:06:28.930967] [228] RADIO_STATUS
[20:06:29.173944] [192] VFR_HUD
[20:06:29.393981] [193] HEARTBEAT
[20:06:29.848137] [229] RADIO
[20:06:29.851109] [229] RADIO_STATUS
[20:06:29.969127] [194] VFR_HUD
[20:06:30.562235] [195] HEARTBEAT
[20:06:30.570168] [196] ATTITUDE_TARGET
[20:06:30.778238] [197] VFR_HUD
[20:06:30.892186] [230] RADIO
[20:06:30.895252] [230] RADIO_STATUS
[20:06:31.343303] [198] HEARTBEAT
[20:06:31.917350] [231] RADIO
[20:06:31.920310] [231] RADIO_STATUS
[20:06:32.395466] [200] HEARTBEAT
[20:06:32.401384] [201] SYS_STATUS
[20:06:32.523389] [202] BATTERY_STATUS
[20:06:32.525347] [203] EXTENDED_SYS_STATE
[20:06:32.532441] [204] ATTITUDE_TARGET
[20:06:32.537394] [205] VFR_HUD
[20:06:32.541363] [206] SYSTEM_TIME
[20:06:32.961690] [232] RADIO
[20:06:32.964465] [232] RADIO_STATUS
[20:06:33.187509] [207] VFR_HUD
[20:06:33.412570] [208] HEARTBEAT
[20:06:33.985639] [233] RADIO
[20:06:33.988613] [233] RADIO_STATUS
[20:06:34.106640] [209] VFR_HUD
[20:06:34.331801] [210] HEARTBEAT
[20:06:34.464753] [211] ATTITUDE_TARGET
[20:06:34.796831] [212] VFR_HUD
[20:06:34.905897] [234] RADIO
[20:06:34.908775] [234] RADIO_STATUS
[20:06:35.371886] [213] HEARTBEAT
[20:06:35.605841] [214] VFR_HUD
[20:06:35.949988] [235] RADIO
[20:06:35.952934] [235] RADIO_STATUS
[20:06:36.413018] [215] HEARTBEAT
[20:06:36.420154] [216] SYS_STATUS
[20:06:36.552089] [217] BATTERY_STATUS
[20:06:36.580990] [218] ATTITUDE_TARGET
[20:06:36.585979] [219] VFR_HUD
[20:06:36.974092] [236] RADIO
[20:06:36.977269] [236] RADIO_STATUS
[20:06:37.221870] [220] VFR_HUD
[20:06:37.894244] [237] RADIO
[20:06:37.897574] [237] RADIO_STATUS
[20:06:38.014270] [222] VFR_HUD
[20:06:38.379368] [223] HEARTBEAT
[20:06:38.386344] [224] ATTITUDE_TARGET
[20:06:38.829364] [225] VFR_HUD
[20:06:38.948719] [238] RADIO
[20:06:38.948851] [238] RADIO_STATUS
[20:06:39.389540] [226] HEARTBEAT
[20:06:39.962610] [239] RADIO
[20:06:39.965599] [239] RADIO_STATUS
[20:06:40.445758] [228] HEARTBEAT
[20:06:40.452629] [229] SYS_STATUS
[20:06:40.492665] [230] BATTERY_STATUS
[20:06:40.500640] [231] ATTITUDE_TARGET
[20:06:40.504666] [232] VFR_HUD
[20:06:41.002830] [240] RADIO
[20:06:41.005684] [240] RADIO_STATUS
[20:06:41.365271] [233] VFR_HUD
[20:06:41.366725] [234] HEARTBEAT
[20:06:42.032022] [241] RADIO
[20:06:42.034909] [241] RADIO_STATUS
[20:06:42.151883] [235] VFR_HUD
[20:06:42.391023] [236] HEARTBEAT
[20:06:42.398950] [237] ATTITUDE_TARGET
[20:06:42.842058] [238] VFR_HUD
[20:06:42.951102] [242] RADIO
[20:06:42.954035] [242] RADIO_STATUS
[20:06:43.422120] [239] HEARTBEAT
[20:06:43.652325] [240] VFR_HUD
[20:06:43.991191] [243] RADIO
[20:06:43.994235] [243] RADIO_STATUS
[20:06:44.342410] [241] HEARTBEAT
[20:06:44.471299] [242] SYS_STATUS
[20:06:44.479292] [243] BATTERY_STATUS
[20:06:44.589914] [244] ATTITUDE_TARGET
[20:06:44.593630] [245] VFR_HUD
[20:06:45.020398] [244] RADIO
[20:06:45.023320] [244] RADIO_STATUS
[20:06:45.141449] [246] VFR_HUD
[20:06:45.940530] [245] RADIO
[20:06:45.943501] [245] RADIO_STATUS
[20:06:45.978559] [248] VFR_HUD
[20:06:46.425685] [249] HEARTBEAT
[20:06:46.432655] [250] ATTITUDE_TARGET
[20:06:46.750688] [251] VFR_HUD
[20:06:46.979717] [246] RADIO
[20:06:46.982697] [246] RADIO_STATUS
[20:06:47.435768] [252] HEARTBEAT
[20:06:47.565800] [253] VFR_HUD
[20:06:48.008881] [247] RADIO
[20:06:48.011879] [247] RADIO_STATUS
[20:06:48.367920] [254] HEARTBEAT
[20:06:48.373992] [255] SYS_STATUS
[20:06:48.493998] [0] BATTERY_STATUS
[20:06:48.606016] [1] ATTITUDE_TARGET
[20:06:48.610952] [2] VFR_HUD
[20:06:49.049128] [248] RADIO
[20:06:49.052080] [248] RADIO_STATUS
[20:06:49.169139] [3] VFR_HUD
[20:06:49.395110] [4] HEARTBEAT
[20:06:50.078253] [249] RADIO
[20:06:50.081223] [249] RADIO_STATUS
[20:06:50.438341] [6] HEARTBEAT
[20:06:50.446290] [7] ATTITUDE_TARGET
[20:06:50.779354] [8] VFR_HUD
[20:06:51.000260] [250] RADIO
[20:06:51.001332] [250] RADIO_STATUS
[20:06:51.344542] [9] HEARTBEAT
[20:06:51.578496] [10] VFR_HUD
[20:06:52.037549] [251] RADIO
[20:06:52.040514] [251] RADIO_STATUS
[20:06:52.397506] [11] HEARTBEAT
[20:06:52.402625] [12] SYS_STATUS
[20:06:52.523800] [13] BATTERY_STATUS
[20:06:52.525585] [14] EXTENDED_SYS_STATE
[20:06:52.533694] [15] ATTITUDE_TARGET
[20:06:52.538961] [16] VFR_HUD
[20:06:52.541635] [17] SYSTEM_TIME
[20:06:53.067897] [252] RADIO
[20:06:53.070705] [252] RADIO_STATUS
[20:06:53.187699] [18] VFR_HUD
[20:06:53.987091] [253] RADIO
[20:06:53.989729] [253] RADIO_STATUS
[20:06:54.024825] [20] VFR_HUD
[20:06:54.338205] [21] HEARTBEAT
[20:06:54.360871] [22] ATTITUDE_TARGET
[20:06:54.797773] [23] VFR_HUD
[20:06:55.026920] [254] RADIO
[20:06:55.029977] [254] RADIO_STATUS
[20:06:55.373052] [24] HEARTBEAT
[20:06:55.611995] [25] VFR_HUD
[20:06:56.056257] [255] RADIO
[20:06:56.059398] [255] RADIO_STATUS
[20:06:56.414196] [26] HEARTBEAT
[20:06:56.421363] [27] SYS_STATUS
[20:06:56.535357] [28] BATTERY_STATUS
[20:06:56.653301] [29] ATTITUDE_TARGET
[20:06:56.658207] [30] VFR_HUD
[20:06:57.095295] [0] RADIO
[20:06:57.098247] [0] RADIO_STATUS
[20:06:57.221306] [31] VFR_HUD
[20:06:57.333418] [32] HEARTBEAT
[20:06:58.124451] [1] RADIO
[20:06:58.129120] [1] RADIO_STATUS
[20:06:58.374704] [34] HEARTBEAT
[20:06:58.382505] [35] ATTITUDE_TARGET
[20:06:58.830610] [36] VFR_HUD
[20:06:59.044654] [2] RADIO
[20:06:59.047610] [2] RADIO_STATUS
[20:06:59.390780] [37] HEARTBEAT
[20:06:59.635902] [38] VFR_HUD
[20:07:00.088789] [3] RADIO
[20:07:00.091764] [3] RADIO_STATUS
[20:07:00.441891] [39] HEARTBEAT
[20:07:00.448983] [40] SYS_STATUS
[20:07:00.566976] [41] BATTERY_STATUS
[20:07:00.574921] [42] ATTITUDE_TARGET
[20:07:00.604859] [43] VFR_HUD
[20:07:01.112975] [4] RADIO
[20:07:01.116130] [4] RADIO_STATUS
[20:07:01.233972] [44] VFR_HUD
[20:07:01.355074] [45] HEARTBEAT
[20:07:02.033141] [5] RADIO
[20:07:02.036063] [5] RADIO_STATUS
[20:07:02.153139] [46] VFR_HUD
[20:07:02.392167] [47] HEARTBEAT
[20:07:02.400212] [48] ATTITUDE_TARGET
[20:07:02.738209] [49] VFR_HUD
[20:07:03.077282] [6] RADIO
[20:07:03.080280] [6] RADIO_STATUS
[20:07:03.423342] [50] HEARTBEAT
[20:07:03.653763] [51] VFR_HUD
[20:07:04.101471] [7] RADIO
[20:07:04.104380] [7] RADIO_STATUS
[20:07:04.354500] [52] HEARTBEAT
[20:07:04.361578] [53] SYS_STATUS
[20:07:04.401524] [54] BATTERY_STATUS
[20:07:04.408515] [55] ATTITUDE_TARGET
[20:07:04.413562] [56] VFR_HUD
[20:07:05.145743] [8] RADIO
[20:07:05.148610] [8] RADIO_STATUS
[20:07:05.376736] [57] VFR_HUD
[20:07:05.379787] [58] HEARTBEAT
[20:07:05.955718] [59] VFR_HUD
[20:07:06.169851] [9] RADIO
[20:07:06.172759] [9] RADIO_STATUS
[20:07:06.424924] [60] HEARTBEAT
[20:07:06.432965] [61] ATTITUDE_TARGET
[20:07:06.750969] [62] VFR_HUD
[20:07:07.088951] [10] RADIO
[20:07:07.091953] [10] RADIO_STATUS
[20:07:07.331034] [63] HEARTBEAT
[20:07:07.560026] [64] VFR_HUD
[20:07:08.134112] [11] RADIO
[20:07:08.137076] [11] RADIO_STATUS
[20:07:08.493358] [67] BATTERY_STATUS
[20:07:08.606247] [68] ATTITUDE_TARGET
[20:07:08.611157] [69] VFR_HUD
[20:07:09.158263] [12] RADIO
[20:07:09.161281] [12] RADIO_STATUS
[20:07:09.279305] [70] VFR_HUD
[20:07:09.399311] [71] HEARTBEAT
[20:07:09.968455] [72] VFR_HUD
[20:07:10.077469] [13] RADIO
[20:07:10.080451] [13] RADIO_STATUS
[20:07:10.437589] [73] HEARTBEAT
[20:07:10.445466] [74] ATTITUDE_TARGET
[20:07:10.778469] [75] VFR_HUD
[20:07:11.117643] [14] RADIO
[20:07:11.120528] [14] RADIO_STATUS
[20:07:11.343588] [76] HEARTBEAT
[20:07:11.577680] [77] VFR_HUD
[20:07:12.146797] [15] RADIO
[20:07:12.149713] [15] RADIO_STATUS
[20:07:12.394924] [78] HEARTBEAT
[20:07:12.401877] [79] SYS_STATUS
[20:07:12.522818] [80] BATTERY_STATUS
[20:07:12.524738] [81] EXTENDED_SYS_STATE
[20:07:12.532957] [82] ATTITUDE_TARGET
[20:07:12.537826] [83] VFR_HUD
[20:07:12.540776] [84] SYSTEM_TIME
[20:07:13.065926] [16] RADIO
[20:07:13.068965] [16] RADIO_STATUS
[20:07:13.186918] [85] VFR_HUD
[20:07:13.412058] [86] HEARTBEAT
[20:07:14.002019] [87] VFR_HUD
[20:07:14.215117] [17] RADIO
[20:07:14.218289] [17] RADIO_STATUS
[20:07:14.337200] [88] HEARTBEAT
[20:07:14.359093] [89] ATTITUDE_TARGET
[20:07:14.796126] [90] VFR_HUD
[20:07:15.135322] [18] RADIO
[20:07:15.138274] [18] RADIO_STATUS
[20:07:15.372663] [91] HEARTBEAT
[20:07:15.611286] [92] VFR_HUD
[20:07:16.174495] [19] RADIO
[20:07:16.177468] [19] RADIO_STATUS
[20:07:16.539553] [95] BATTERY_STATUS
[20:07:16.651509] [96] ATTITUDE_TARGET
[20:07:16.656462] [97] VFR_HUD
[20:07:17.094817] [20] RADIO
[20:07:17.097583] [20] RADIO_STATUS
[20:07:17.220627] [98] VFR_HUD
[20:07:17.331611] [99] HEARTBEAT
[20:07:18.014863] [100] VFR_HUD
[20:07:18.123717] [21] RADIO
[20:07:18.127615] [21] RADIO_STATUS
[20:07:18.373817] [101] HEARTBEAT
[20:07:18.381744] [102] ATTITUDE_TARGET
[20:07:18.823842] [103] VFR_HUD
[20:07:19.162872] [22] RADIO
[20:07:19.165861] [22] RADIO_STATUS
[20:07:19.389943] [104] HEARTBEAT
[20:07:19.623978] [105] VFR_HUD
[20:07:20.193108] [23] RADIO
[20:07:20.195167] [23] RADIO_STATUS
[20:07:20.440153] [106] HEARTBEAT
[20:07:20.447138] [107] SYS_STATUS
[20:07:20.566167] [108] BATTERY_STATUS
[20:07:20.574143] [109] ATTITUDE_TARGET
[20:07:20.604206] [110] VFR_HUD
[20:07:21.112295] [24] RADIO
[20:07:21.115247] [24] RADIO_STATUS
[20:07:21.150357] [111] VFR_HUD
[20:07:21.348349] [112] HEARTBEAT
[20:07:22.042433] [113] VFR_HUD
[20:07:22.261481] [25] RADIO
[20:07:22.264440] [25] RADIO_STATUS
[20:07:22.391454] [114] HEARTBEAT
[20:07:22.399465] [115] ATTITUDE_TARGET
[20:07:22.737498] [116] VFR_HUD
[20:07:23.180591] [26] RADIO
[20:07:23.183492] [26] RADIO_STATUS
[20:07:23.416750] [117] HEARTBEAT
[20:07:23.656642] [118] VFR_HUD
[20:07:24.219732] [27] RADIO
[20:07:24.222688] [27] RADIO_STATUS
[20:07:24.353763] [119] HEARTBEAT
[20:07:24.360864] [120] SYS_STATUS
[20:07:24.399758] [121] BATTERY_STATUS
[20:07:24.407783] [122] ATTITUDE_TARGET
[20:07:24.412753] [123] VFR_HUD
[20:07:25.146915] [28] RADIO
[20:07:25.148890] [28] RADIO_STATUS
[20:07:25.376990] [124] VFR_HUD
[20:07:25.379957] [125] HEARTBEAT
[20:07:25.951007] [126] VFR_HUD
[20:07:26.170223] [29] RADIO
[20:07:26.173010] [29] RADIO_STATUS
[20:07:26.420199] [127] HEARTBEAT
[20:07:26.428148] [128] ATTITUDE_TARGET
[20:07:27.215303] [30] RADIO
[20:07:27.218207] [30] RADIO_STATUS
[20:07:27.331249] [130] HEARTBEAT
[20:07:27.560276] [131] VFR_HUD
[20:07:28.239328] [31] RADIO
[20:07:28.242302] [31] RADIO_STATUS
[20:07:28.367385] [132] HEARTBEAT
[20:07:28.374387] [133] SYS_STATUS
[20:07:28.489991] [134] BATTERY_STATUS
[20:07:28.606434] [135] ATTITUDE_TARGET
[20:07:28.611444] [136] VFR_HUD
[20:07:29.159560] [32] RADIO
[20:07:29.162498] [32] RADIO_STATUS
[20:07:29.279511] [137] VFR_HUD
[20:07:29.400920] [138] HEARTBEAT
[20:07:29.969624] [139] VFR_HUD
[20:07:30.308768] [33] RADIO
[20:07:30.311818] [33] RADIO_STATUS
[20:07:30.357802] [140] HEARTBEAT
[20:07:30.364801] [141] ATTITUDE_TARGET
[20:07:30.778772] [142] VFR_HUD
[20:07:31.228871] [34] RADIO
[20:07:31.231022] [34] RADIO_STATUS
[20:07:31.579033] [144] VFR_HUD
[20:07:32.273105] [35] RADIO
[20:07:32.276071] [35] RADIO_STATUS
[20:07:32.401977] [145] HEARTBEAT
[20:07:32.408119] [146] SYS_STATUS
[20:07:32.442082] [147] BATTERY_STATUS
[20:07:32.446022] [148] EXTENDED_SYS_STATE
[20:07:32.452081] [149] ATTITUDE_TARGET
[20:07:32.457190] [150] VFR_HUD
[20:07:32.461759] [151] SYSTEM_TIME
[20:07:33.188155] [152] VFR_HUD
[20:07:33.215208] [36] RADIO
[20:07:33.218319] [36] RADIO_STATUS
[20:07:33.413319] [153] HEARTBEAT
[20:07:34.002875] [154] VFR_HUD
[20:07:34.216361] [37] RADIO
[20:07:34.219332] [37] RADIO_STATUS
[20:07:34.338392] [155] HEARTBEAT
[20:07:34.360384] [156] ATTITUDE_TARGET
[20:07:35.256529] [38] RADIO
[20:07:35.258519] [38] RADIO_STATUS
[20:07:35.372682] [158] HEARTBEAT
[20:07:35.611612] [159] VFR_HUD
[20:07:36.286182] [39] RADIO
[20:07:36.288743] [39] RADIO_STATUS
[20:07:36.413971] [160] HEARTBEAT
[20:07:36.420863] [161] SYS_STATUS
[20:07:36.539714] [162] BATTERY_STATUS
[20:07:36.652791] [163] ATTITUDE_TARGET
[20:07:36.657687] [164] VFR_HUD
[20:07:37.204767] [40] RADIO
[20:07:37.207785] [40] RADIO_STATUS
[20:07:37.325797] [165] VFR_HUD
[20:07:37.343879] [166] HEARTBEAT
[20:07:38.014965] [167] VFR_HUD
[20:07:38.353995] [41] RADIO
[20:07:38.356971] [41] RADIO_STATUS
[20:07:38.484060] [168] HEARTBEAT
[20:07:38.492135] [169] ATTITUDE_TARGET
[20:07:38.824118] [170] VFR_HUD
[20:07:39.274189] [42] RADIO
[20:07:39.276178] [42] RADIO_STATUS
[20:07:39.624257] [172] VFR_HUD
[20:07:40.193368] [43] RADIO
[20:07:40.196369] [43] RADIO_STATUS
[20:07:40.441432] [173] HEARTBEAT
[20:07:40.448417] [174] SYS_STATUS
[20:07:41.233552] [178] VFR_HUD
[20:07:41.260555] [44] RADIO
[20:07:41.263524] [44] RADIO_STATUS
[20:07:41.348535] [179] HEARTBEAT
[20:07:42.047656] [180] VFR_HUD
[20:07:42.261718] [45] RADIO
[20:07:42.264646] [45] RADIO_STATUS
[20:07:42.391689] [181] HEARTBEAT
[20:07:42.399741] [182] ATTITUDE_TARGET
[20:07:43.301883] [46] RADIO
[20:07:43.303816] [46] RADIO_STATUS
[20:07:43.417961] [184] HEARTBEAT
[20:07:43.536915] [185] VFR_HUD
[20:07:44.221081] [47] RADIO
[20:07:44.224001] [47] RADIO_STATUS
[20:07:44.337186] [186] HEARTBEAT
[20:07:44.357752] [187] SYS_STATUS
[20:07:44.400171] [188] BATTERY_STATUS
[20:07:44.408172] [189] ATTITUDE_TARGET
[20:07:44.413231] [190] VFR_HUD
[20:07:45.250959] [48] RADIO
[20:07:45.253172] [48] RADIO_STATUS
[20:07:45.324193] [191] VFR_HUD
[20:07:45.342302] [192] HEARTBEAT
[20:07:45.951377] [193] VFR_HUD
[20:07:46.399373] [49] RADIO
[20:07:46.402444] [49] RADIO_STATUS
[20:07:46.529469] [194] HEARTBEAT
[20:07:46.537430] [195] ATTITUDE_TARGET
[20:07:46.761503] [196] VFR_HUD
[20:07:47.319561] [50] RADIO
[20:07:47.322649] [50] RADIO_STATUS
[20:07:47.353585] [197] HEARTBEAT
[20:07:47.559571] [198] VFR_HUD
[20:07:48.238783] [51] RADIO
[20:07:48.241678] [51] RADIO_STATUS
[20:07:48.366736] [199] HEARTBEAT
[20:07:48.373720] [200] SYS_STATUS
[20:07:48.488691] [201] BATTERY_STATUS
[20:07:49.168895] [204] VFR_HUD
[20:07:49.283840] [52] RADIO
[20:07:49.286900] [52] RADIO_STATUS
[20:07:49.401771] [205] HEARTBEAT
[20:07:49.968965] [206] VFR_HUD
[20:07:50.308264] [53] RADIO
[20:07:50.311060] [53] RADIO_STATUS
[20:07:50.356057] [207] HEARTBEAT
[20:07:50.364029] [208] ATTITUDE_TARGET
[20:07:50.783295] [209] VFR_HUD
[20:07:51.343283] [210] HEARTBEAT
[20:07:51.457367] [54] RADIO
[20:07:51.460254] [54] RADIO_STATUS
[20:07:51.578309] [211] VFR_HUD
[20:07:52.271368] [55] RADIO
[20:07:52.274348] [55] RADIO_STATUS
[20:07:52.399424] [212] HEARTBEAT
[20:07:52.406874] [213] SYS_STATUS
[20:07:52.441439] [214] BATTERY_STATUS
[20:07:52.442520] [215] EXTENDED_SYS_STATE
[20:07:52.450684] [216] ATTITUDE_TARGET
[20:07:52.455431] [217] VFR_HUD
[20:07:52.459423] [218] SYSTEM_TIME
[20:07:53.295570] [56] RADIO
[20:07:53.298570] [56] RADIO_STATUS
[20:07:53.411634] [220] HEARTBEAT
[20:07:54.001651] [221] VFR_HUD
[20:07:54.444723] [57] RADIO
[20:07:54.447922] [57] RADIO_STATUS
[20:07:54.795819] [224] VFR_HUD
[20:07:55.364884] [58] RADIO
[20:07:55.367821] [58] RADIO_STATUS
[20:07:55.398878] [225] HEARTBEAT
[20:07:55.604910] [226] VFR_HUD
[20:07:56.284010] [59] RADIO
[20:07:56.287056] [59] RADIO_STATUS
[20:07:56.412090] [227] HEARTBEAT
[20:07:56.419106] [228] SYS_STATUS
[20:07:56.539205] [229] BATTERY_STATUS
[20:07:56.771209] [230] ATTITUDE_TARGET
[20:07:56.775322] [231] VFR_HUD
[20:07:57.214348] [232] VFR_HUD
[20:07:57.329229] [60] RADIO
[20:07:57.332214] [60] RADIO_STATUS
[20:07:57.445315] [233] HEARTBEAT
[20:07:58.014358] [234] VFR_HUD
[20:07:58.353513] [61] RADIO
[20:07:58.356399] [61] RADIO_STATUS
[20:07:58.401471] [235] HEARTBEAT
[20:07:58.408473] [236] ATTITUDE_TARGET
[20:07:58.823529] [237] VFR_HUD
[20:07:59.388629] [238] HEARTBEAT
[20:07:59.420604] [62] RADIO
[20:07:59.423570] [62] RADIO_STATUS
[20:07:59.623632] [239] VFR_HUD
[20:08:00.317946] [63] RADIO
[20:08:00.319733] [63] RADIO_STATUS
[20:08:00.445894] [240] HEARTBEAT
[20:08:00.451800] [241] SYS_STATUS
[20:08:00.491946] [242] BATTERY_STATUS
[20:08:00.499805] [243] ATTITUDE_TARGET
[20:08:00.504746] [244] VFR_HUD
[20:08:01.341968] [64] RADIO
[20:08:01.344004] [64] RADIO_STATUS
[20:08:01.467924] [245] VFR_HUD
[20:08:01.470963] [246] HEARTBEAT
[20:08:02.047052] [247] VFR_HUD
[20:08:02.491164] [65] RADIO
[20:08:02.494116] [65] RADIO_STATUS
[20:08:02.538146] [248] HEARTBEAT
[20:08:02.546139] [249] ATTITUDE_TARGET
[20:08:02.841095] [250] VFR_HUD
[20:08:03.410230] [66] RADIO
[20:08:03.413255] [66] RADIO_STATUS
[20:08:04.330361] [67] RADIO
[20:08:04.333334] [67] RADIO_STATUS
[20:08:04.458418] [253] HEARTBEAT
[20:08:04.464383] [254] SYS_STATUS
[20:08:04.584419] [255] BATTERY_STATUS
[20:08:04.816567] [0] ATTITUDE_TARGET
[20:08:04.821534] [1] VFR_HUD
[20:08:05.139529] [2] VFR_HUD
[20:08:05.365631] [3] HEARTBEAT
[20:08:05.478609] [68] RADIO
[20:08:05.481597] [68] RADIO_STATUS
[20:08:05.949727] [4] VFR_HUD
[20:08:06.398790] [69] RADIO
[20:08:06.401720] [69] RADIO_STATUS
[20:08:06.528818] [5] HEARTBEAT
[20:08:06.535876] [6] ATTITUDE_TARGET
[20:08:06.749020] [7] VFR_HUD
[20:08:07.433988] [8] HEARTBEAT
[20:08:07.548075] [70] RADIO
[20:08:07.551211] [70] RADIO_STATUS
[20:08:07.585986] [9] VFR_HUD
[20:08:08.366216] [10] HEARTBEAT
[20:08:08.372216] [11] SYS_STATUS
[20:08:08.467217] [71] RADIO
[20:08:08.470167] [71] RADIO_STATUS
[20:08:08.508191] [12] BATTERY_STATUS
[20:08:08.535838] [13] ATTITUDE_TARGET
[20:08:08.540220] [14] VFR_HUD
[20:08:09.173292] [15] VFR_HUD
[20:08:09.387333] [72] RADIO
[20:08:09.389324] [72] RADIO_STATUS
[20:08:09.503470] [16] HEARTBEAT
[20:08:09.967437] [17] VFR_HUD
[20:08:10.536548] [73] RADIO
[20:08:10.539552] [73] RADIO_STATUS
[20:08:10.665577] [18] HEARTBEAT
[20:08:10.673966] [19] ATTITUDE_TARGET
[20:08:10.781553] [20] VFR_HUD
[20:08:11.341695] [21] HEARTBEAT
[20:08:11.455671] [74] RADIO
[20:08:11.458600] [74] RADIO_STATUS
[20:08:12.374781] [75] RADIO
[20:08:12.377781] [75] RADIO_STATUS
[20:08:12.438985] [23] HEARTBEAT
[20:08:12.445881] [24] SYS_STATUS
[20:08:12.453060] [25] BATTERY_STATUS
[20:08:12.454840] [26] EXTENDED_SYS_STATE
[20:08:12.471971] [27] ATTITUDE_TARGET
[20:08:12.475774] [28] VFR_HUD
[20:08:12.479803] [29] SYSTEM_TIME
[20:08:13.185927] [30] VFR_HUD
[20:08:13.414025] [31] HEARTBEAT
[20:08:13.524983] [76] RADIO
[20:08:13.526946] [76] RADIO_STATUS
[20:08:13.995130] [32] VFR_HUD
[20:08:14.330173] [33] HEARTBEAT
[20:08:14.353632] [34] ATTITUDE_TARGET
[20:08:14.383165] [77] RADIO
[20:08:14.386139] [77] RADIO_STATUS
[20:08:14.794258] [35] VFR_HUD
[20:08:15.375317] [36] HEARTBEAT
[20:08:15.485878] [78] RADIO
[20:08:15.486431] [78] RADIO_STATUS
[20:08:15.604375] [37] VFR_HUD
[20:08:16.411576] [38] HEARTBEAT
[20:08:16.418880] [39] SYS_STATUS
[20:08:16.513564] [79] RADIO
[20:08:16.516517] [79] RADIO_STATUS
[20:08:16.553561] [40] BATTERY_STATUS
[20:08:16.580708] [41] ATTITUDE_TARGET
[20:08:16.585556] [42] VFR_HUD
[20:08:17.213668] [43] VFR_HUD
[20:08:17.432719] [80] RADIO
[20:08:17.435778] [80] RADIO_STATUS
[20:08:17.466724] [44] HEARTBEAT
[20:08:18.012783] [45] VFR_HUD
[20:08:18.377880] [46] HEARTBEAT
[20:08:18.384836] [47] ATTITUDE_TARGET
[20:08:18.581822] [81] RADIO
[20:08:18.584853] [81] RADIO_STATUS
[20:08:18.827961] [48] VFR_HUD
[20:08:19.387983] [49] HEARTBEAT
[20:08:19.419969] [82] RADIO
[20:08:19.421921] [82] RADIO_STATUS
[20:08:20.421255] [83] RADIO
[20:08:20.424128] [83] RADIO_STATUS
[20:08:20.480257] [51] HEARTBEAT
[20:08:20.487172] [52] SYS_STATUS
[20:08:20.495222] [53] BATTERY_STATUS
[20:08:20.507178] [54] ATTITUDE_TARGET
[20:08:20.512890] [55] VFR_HUD
[20:08:21.231268] [56] VFR_HUD
[20:08:21.346256] [57] HEARTBEAT
[20:08:21.465257] [84] RADIO
[20:08:21.468198] [84] RADIO_STATUS
[20:08:22.046317] [58] VFR_HUD
[20:08:22.389466] [59] HEARTBEAT
[20:08:22.397398] [60] ATTITUDE_TARGET
[20:08:22.409719] [85] RADIO
[20:08:22.410382] [85] RADIO_STATUS
[20:08:22.840438] [61] VFR_HUD
[20:08:23.409588] [86] RADIO
[20:08:23.412787] [86] RADIO_STATUS
[20:08:23.443674] [62] HEARTBEAT
[20:08:23.535701] [63] VFR_HUD
[20:08:24.347743] [64] HEARTBEAT
[20:08:24.353760] [65] SYS_STATUS
[20:08:24.472756] [66] BATTERY_STATUS
[20:08:24.480731] [67] ATTITUDE_TARGET
[20:08:24.510745] [68] VFR_HUD
[20:08:24.537708] [87] RADIO
[20:08:24.540754] [87] RADIO_STATUS
[20:08:25.139876] [69] VFR_HUD
[20:08:25.478957] [88] RADIO
[20:08:25.480983] [88] RADIO_STATUS
[20:08:25.949066] [71] VFR_HUD
[20:08:26.418374] [72] HEARTBEAT
[20:08:26.426175] [73] ATTITUDE_TARGET
[20:08:26.628174] [89] RADIO
[20:08:26.631120] [89] RADIO_STATUS
[20:08:26.749993] [74] VFR_HUD
[20:08:27.434279] [75] HEARTBEAT
[20:08:27.465248] [90] RADIO
[20:08:27.468221] [90] RADIO_STATUS
[20:08:27.563324] [76] VFR_HUD
[20:08:28.365427] [77] HEARTBEAT
[20:08:28.372584] [78] SYS_STATUS
[20:08:28.467369] [91] RADIO
[20:08:28.470335] [91] RADIO_STATUS
[20:08:28.507360] [79] BATTERY_STATUS
[20:08:28.534378] [80] ATTITUDE_TARGET
[20:08:28.539423] [81] VFR_HUD
[20:08:29.172455] [82] VFR_HUD
[20:08:29.392577] [83] HEARTBEAT
[20:08:29.511529] [92] RADIO
[20:08:29.514531] [92] RADIO_STATUS
[20:08:30.435794] [85] HEARTBEAT
[20:08:30.443838] [86] ATTITUDE_TARGET
[20:08:30.535725] [93] RADIO
[20:08:30.538647] [93] RADIO_STATUS
[20:08:30.777017] [87] VFR_HUD
[20:08:31.341848] [88] HEARTBEAT
[20:08:31.454845] [94] RADIO
[20:08:31.457838] [94] RADIO_STATUS
[20:08:31.576008] [89] VFR_HUD
[20:08:32.393004] [90] HEARTBEAT
[20:08:32.400025] [91] SYS_STATUS
[20:08:32.520988] [92] BATTERY_STATUS
[20:08:32.522940] [93] EXTENDED_SYS_STATE
[20:08:32.531176] [94] ATTITUDE_TARGET
[20:08:32.534999] [95] VFR_HUD
[20:08:32.538945] [96] SYSTEM_TIME
[20:08:32.566972] [95] RADIO
[20:08:32.569985] [95] RADIO_STATUS
[20:08:33.185136] [97] VFR_HUD
[20:08:33.524445] [96] RADIO
[20:08:33.527184] [96] RADIO_STATUS
[20:08:33.994244] [99] VFR_HUD
[20:08:34.330412] [100] HEARTBEAT
[20:08:34.352328] [101] ATTITUDE_TARGET
[20:08:34.673302] [97] RADIO
[20:08:34.676284] [97] RADIO_STATUS
[20:08:34.793332] [102] VFR_HUD
[20:08:35.374428] [103] HEARTBEAT
[20:08:35.482517] [98] RADIO
[20:08:35.485376] [98] RADIO_STATUS
[20:08:35.603489] [104] VFR_HUD
[20:08:36.410627] [105] HEARTBEAT
[20:08:36.417870] [106] SYS_STATUS
[20:08:36.511650] [99] RADIO
[20:08:36.514529] [99] RADIO_STATUS
[20:08:36.552598] [107] BATTERY_STATUS
[20:08:36.579623] [108] ATTITUDE_TARGET
[20:08:36.584566] [109] VFR_HUD
[20:08:37.217873] [110] VFR_HUD
[20:08:37.334718] [111] HEARTBEAT
[20:08:37.551770] [100] RADIO
[20:08:37.554789] [100] RADIO_STATUS
[20:08:38.376043] [113] HEARTBEAT
[20:08:38.384194] [114] ATTITUDE_TARGET
[20:08:38.580948] [101] RADIO
[20:08:38.583913] [101] RADIO_STATUS
[20:08:38.827037] [115] VFR_HUD
[20:08:39.387082] [116] HEARTBEAT
[20:08:39.500075] [102] RADIO
[20:08:39.503015] [102] RADIO_STATUS
[20:08:39.632144] [117] VFR_HUD
[20:08:40.443261] [118] HEARTBEAT
[20:08:40.450250] [119] SYS_STATUS
[20:08:40.489308] [120] BATTERY_STATUS
[20:08:40.497318] [121] ATTITUDE_TARGET
[20:08:40.502270] [122] VFR_HUD
[20:08:40.539261] [103] RADIO
[20:08:40.542249] [103] RADIO_STATUS
[20:08:41.360474] [123] VFR_HUD
[20:08:41.363398] [124] HEARTBEAT
[20:08:41.568658] [104] RADIO
[20:08:41.571409] [104] RADIO_STATUS
[20:08:42.040010] [125] VFR_HUD
[20:08:42.388692] [126] HEARTBEAT
[20:08:42.396605] [127] ATTITUDE_TARGET
[20:08:42.718806] [105] RADIO
[20:08:42.721625] [105] RADIO_STATUS
[20:08:42.838667] [128] VFR_HUD
[20:08:43.419750] [129] HEARTBEAT
[20:08:43.527742] [106] RADIO
[20:08:43.530711] [106] RADIO_STATUS
[20:08:43.648754] [130] VFR_HUD
[20:08:44.345922] [131] HEARTBEAT
[20:08:44.353117] [132] SYS_STATUS
[20:08:44.470900] [133] BATTERY_STATUS
[20:08:44.479549] [134] ATTITUDE_TARGET
[20:08:44.508905] [135] VFR_HUD
[20:08:44.536945] [107] RADIO
[20:08:44.540029] [107] RADIO_STATUS
[20:08:45.138030] [136] VFR_HUD
[20:08:45.363085] [137] HEARTBEAT
[20:08:45.598004] [108] RADIO
[20:08:45.600187] [108] RADIO_STATUS
[20:08:45.953261] [138] VFR_HUD
[20:08:46.421273] [139] HEARTBEAT
[20:08:46.429277] [140] ATTITUDE_TARGET
[20:08:46.626409] [109] RADIO
[20:08:46.629295] [109] RADIO_STATUS
[20:08:46.747353] [141] VFR_HUD
[20:08:47.432630] [142] HEARTBEAT
[20:08:47.545529] [110] RADIO
[20:08:47.548660] [110] RADIO_STATUS
[20:08:47.584483] [143] VFR_HUD
[20:08:48.490678] [146] BATTERY_STATUS
[20:08:48.602675] [147] ATTITUDE_TARGET
[20:08:48.607631] [148] VFR_HUD
[20:08:48.612844] [111] RADIO
[20:08:48.615682] [111] RADIO_STATUS
[20:08:49.170819] [149] VFR_HUD
[20:08:49.390801] [150] HEARTBEAT
[20:08:49.614987] [112] RADIO
[20:08:49.617869] [112] RADIO_STATUS
[20:08:49.965973] [151] VFR_HUD
[20:08:50.434965] [152] HEARTBEAT
[20:08:50.441966] [153] ATTITUDE_TARGET
[20:08:50.540015] [113] RADIO
[20:08:50.543125] [113] RADIO_STATUS
[20:08:50.775003] [154] VFR_HUD
[20:08:51.340177] [155] HEARTBEAT
[20:08:51.575197] [156] VFR_HUD
[20:08:51.610145] [114] RADIO
[20:08:51.613122] [114] RADIO_STATUS
[20:08:52.392332] [157] HEARTBEAT
[20:08:52.398367] [158] SYS_STATUS
[20:08:52.520358] [159] BATTERY_STATUS
[20:08:52.522279] [160] EXTENDED_SYS_STATE
[20:08:52.529404] [161] ATTITUDE_TARGET
[20:08:52.534339] [162] VFR_HUD
[20:08:52.538370] [163] SYSTEM_TIME
[20:08:52.565310] [115] RADIO
[20:08:52.568258] [115] RADIO_STATUS
[20:08:53.183498] [164] VFR_HUD
[20:08:53.409512] [165] HEARTBEAT
[20:08:53.648549] [116] RADIO
[20:08:53.652184] [116] RADIO_STATUS
[20:08:53.993647] [166] VFR_HUD
[20:08:54.328725] [167] HEARTBEAT
[20:08:54.351711] [168] ATTITUDE_TARGET
[20:08:54.567724] [117] RADIO
[20:08:54.570722] [117] RADIO_STATUS
[20:08:54.792786] [169] VFR_HUD
[20:08:55.367930] [170] HEARTBEAT
[20:08:55.591956] [118] RADIO
[20:08:55.594997] [118] RADIO_STATUS
[20:08:55.630001] [171] VFR_HUD
[20:08:56.531226] [174] BATTERY_STATUS
[20:08:56.648165] [175] ATTITUDE_TARGET
[20:08:56.653108] [176] VFR_HUD
[20:08:56.687184] [119] RADIO
[20:08:56.690372] [119] RADIO_STATUS
[20:08:57.217310] [177] VFR_HUD
[20:08:57.328217] [178] HEARTBEAT
[20:08:57.660235] [120] RADIO
[20:08:57.663262] [120] RADIO_STATUS
[20:08:58.011370] [179] VFR_HUD
[20:08:58.375418] [180] HEARTBEAT
[20:08:58.383388] [181] ATTITUDE_TARGET
[20:08:58.579454] [121] RADIO
[20:08:58.582542] [121] RADIO_STATUS
[20:08:58.825527] [182] VFR_HUD
[20:08:59.385635] [183] HEARTBEAT
[20:08:59.619596] [184] VFR_HUD
[20:08:59.646615] [122] RADIO
[20:08:59.649579] [122] RADIO_STATUS
[20:09:00.436739] [185] HEARTBEAT
[20:09:00.443713] [186] SYS_STATUS
[20:09:00.562066] [187] BATTERY_STATUS
[20:09:00.569770] [188] ATTITUDE_TARGET
[20:09:00.599888] [189] VFR_HUD
[20:09:00.622838] [123] RADIO
[20:09:00.625787] [123] RADIO_STATUS
[20:09:01.228956] [190] VFR_HUD
[20:09:01.348891] [191] HEARTBEAT
[20:09:01.687970] [124] RADIO
[20:09:01.690953] [124] RADIO_STATUS
[20:09:02.038002] [192] VFR_HUD
[20:09:02.387105] [193] HEARTBEAT
[20:09:02.395175] [194] ATTITUDE_TARGET
[20:09:02.607174] [125] RADIO
[20:09:02.610115] [125] RADIO_STATUS
[20:09:02.838288] [195] VFR_HUD
[20:09:03.418205] [196] HEARTBEAT
[20:09:03.637257] [126] RADIO
[20:09:03.640198] [126] RADIO_STATUS
[20:09:03.757382] [197] VFR_HUD
[20:09:04.350343] [198] HEARTBEAT
[20:09:04.357890] [199] SYS_STATUS
[20:09:04.396348] [200] BATTERY_STATUS
[20:09:04.405604] [201] ATTITUDE_TARGET
[20:09:04.409380] [202] VFR_HUD
[20:09:04.678386] [127] RADIO
[20:09:04.681340] [127] RADIO_STATUS
[20:09:05.374495] [203] VFR_HUD
[20:09:05.377511] [204] HEARTBEAT
[20:09:05.707611] [128] RADIO
[20:09:05.710488] [128] RADIO_STATUS
[20:09:05.953694] [205] VFR_HUD
[20:09:06.422666] [206] HEARTBEAT
[20:09:06.430707] [207] ATTITUDE_TARGET
[20:09:06.630682] [129] RADIO
[20:09:06.633750] [129] RADIO_STATUS
[20:09:07.433024] [209] HEARTBEAT
[20:09:07.562836] [210] VFR_HUD
[20:09:07.677960] [130] RADIO
[20:09:07.681086] [130] RADIO_STATUS
[20:09:08.365080] [211] HEARTBEAT
[20:09:08.370990] [212] SYS_STATUS
[20:09:08.491017] [213] BATTERY_STATUS
[20:09:08.603041] [214] ATTITUDE_TARGET
[20:09:08.608054] [215] VFR_HUD
[20:09:08.613983] [131] RADIO
[20:09:08.616960] [131] RADIO_STATUS
[20:09:09.166200] [216] VFR_HUD
[20:09:09.397224] [217] HEARTBEAT
[20:09:09.735193] [132] RADIO
[20:09:09.738436] [132] RADIO_STATUS
[20:09:09.966306] [218] VFR_HUD
[20:09:10.435372] [219] HEARTBEAT
[20:09:10.442384] [220] ATTITUDE_TARGET
[20:09:10.654333] [133] RADIO
[20:09:10.657352] [133] RADIO_STATUS
[20:09:10.775401] [221] VFR_HUD
[20:09:11.577926] [223] VFR_HUD
[20:09:11.684475] [134] RADIO
[20:09:11.687490] [134] RADIO_STATUS
[20:09:12.394813] [224] HEARTBEAT
[20:09:12.398688] [225] SYS_STATUS
[20:09:12.723710] [135] RADIO
[20:09:12.726658] [135] RADIO_STATUS
[20:09:13.184877] [231] VFR_HUD
[20:09:13.409843] [232] HEARTBEAT
[20:09:13.752934] [136] RADIO
[20:09:13.755871] [136] RADIO_STATUS
[20:09:13.998942] [233] VFR_HUD
[20:09:14.329042] [234] HEARTBEAT
[20:09:14.351986] [235] ATTITUDE_TARGET
[20:09:14.673159] [137] RADIO
[20:09:14.676050] [137] RADIO_STATUS
[20:09:15.368212] [237] HEARTBEAT
[20:09:15.608155] [238] VFR_HUD
[20:09:15.729242] [138] RADIO
[20:09:15.731150] [138] RADIO_STATUS
[20:09:16.410317] [239] HEARTBEAT
[20:09:16.416335] [240] SYS_STATUS
[20:09:16.531386] [241] BATTERY_STATUS
[20:09:16.649422] [242] ATTITUDE_TARGET
[20:09:16.653397] [243] VFR_HUD
[20:09:16.687387] [139] RADIO
[20:09:16.692107] [139] RADIO_STATUS
[20:09:17.217635] [244] VFR_HUD
[20:09:17.329669] [245] HEARTBEAT
[20:09:17.660509] [140] RADIO
[20:09:17.663529] [140] RADIO_STATUS
[20:09:18.011555] [246] VFR_HUD
[20:09:18.370664] [247] HEARTBEAT
[20:09:18.378688] [248] ATTITUDE_TARGET
[20:09:18.705652] [141] RADIO
[20:09:18.708625] [141] RADIO_STATUS
[20:09:18.820746] [249] VFR_HUD
[20:09:19.621000] [251] VFR_HUD
[20:09:19.733502] [142] RADIO
[20:09:19.733629] [142] RADIO_STATUS
[20:09:20.438057] [252] HEARTBEAT
[20:09:20.444092] [253] SYS_STATUS
[20:09:20.769300] [143] RADIO
[20:09:20.772214] [143] RADIO_STATUS
[20:09:21.230242] [1] VFR_HUD
[20:09:21.350217] [2] HEARTBEAT
[20:09:21.798262] [144] RADIO
[20:09:21.801257] [144] RADIO_STATUS
[20:09:22.039332] [3] VFR_HUD
[20:09:22.388523] [4] HEARTBEAT
[20:09:22.396397] [5] ATTITUDE_TARGET
[20:09:22.718421] [145] RADIO
[20:09:22.721387] [145] RADIO_STATUS
[20:09:22.756815] [6] VFR_HUD
[20:09:23.414724] [7] HEARTBEAT
[20:09:23.648626] [8] VFR_HUD
[20:09:23.765964] [146] RADIO
[20:09:23.766102] [146] RADIO_STATUS
[20:09:24.350713] [9] HEARTBEAT
[20:09:24.357751] [10] SYS_STATUS
[20:09:24.397724] [11] BATTERY_STATUS
[20:09:24.404799] [12] ATTITUDE_TARGET
[20:09:24.409714] [13] VFR_HUD
[20:09:24.787786] [147] RADIO
[20:09:24.790848] [147] RADIO_STATUS
[20:09:25.363035] [15] HEARTBEAT
[20:09:25.706959] [148] RADIO
[20:09:25.710015] [148] RADIO_STATUS
[20:09:25.947093] [16] VFR_HUD
[20:09:26.422108] [17] HEARTBEAT
[20:09:26.429104] [18] ATTITUDE_TARGET
[20:09:26.747171] [19] VFR_HUD
[20:09:26.779171] [149] RADIO
[20:09:26.782158] [149] RADIO_STATUS
[20:09:27.327330] [20] HEARTBEAT
[20:09:27.556292] [21] VFR_HUD
[20:09:27.776370] [150] RADIO
[20:09:27.779345] [150] RADIO_STATUS
[20:09:28.364529] [22] HEARTBEAT
[20:09:28.370491] [23] SYS_STATUS
[20:09:28.490543] [24] BATTERY_STATUS
[20:09:28.722624] [25] ATTITUDE_TARGET
[20:09:28.727519] [26] VFR_HUD
[20:09:28.820561] [151] RADIO
[20:09:28.823512] [151] RADIO_STATUS
[20:09:29.165599] [27] VFR_HUD
[20:09:29.396707] [28] HEARTBEAT
[20:09:29.844757] [152] RADIO
[20:09:29.847880] [152] RADIO_STATUS
[20:09:29.965725] [29] VFR_HUD
[20:09:30.434806] [30] HEARTBEAT
[20:09:30.442784] [31] ATTITUDE_TARGET
[20:09:30.765135] [153] RADIO
[20:09:30.767869] [153] RADIO_STATUS
[20:09:31.341025] [33] HEARTBEAT
[20:09:31.575109] [34] VFR_HUD
[20:09:31.804069] [154] RADIO
[20:09:31.807020] [154] RADIO_STATUS
[20:09:32.397217] [35] HEARTBEAT
[20:09:32.404279] [36] SYS_STATUS
[20:09:32.438420] [37] BATTERY_STATUS
[20:09:32.440284] [38] EXTENDED_SYS_STATE
[20:09:32.448183] [39] ATTITUDE_TARGET
[20:09:32.453210] [40] VFR_HUD
[20:09:32.456265] [41] SYSTEM_TIME
[20:09:32.833244] [155] RADIO
[20:09:32.836247] [155] RADIO_STATUS
[20:09:33.409403] [43] HEARTBEAT
[20:09:33.753322] [156] RADIO
[20:09:33.756279] [156] RADIO_STATUS
[20:09:33.999442] [44] VFR_HUD
[20:09:34.466518] [46] ATTITUDE_TARGET
[20:09:34.793541] [47] VFR_HUD
[20:09:34.820531] [157] RADIO
[20:09:34.823523] [157] RADIO_STATUS
[20:09:35.368665] [48] HEARTBEAT
[20:09:35.609049] [49] VFR_HUD
[20:09:35.821749] [158] RADIO
[20:09:35.824668] [158] RADIO_STATUS
[20:09:36.409850] [50] HEARTBEAT
[20:09:36.416858] [51] SYS_STATUS
[20:09:36.536878] [52] BATTERY_STATUS
[20:09:36.757931] [159] RADIO
[20:09:36.761364] [159] RADIO_STATUS
[20:09:37.211976] [55] VFR_HUD
[20:09:37.437024] [56] HEARTBEAT
[20:09:37.891078] [160] RADIO
[20:09:37.893090] [160] RADIO_STATUS
[20:09:38.011259] [57] VFR_HUD
[20:09:38.370242] [58] HEARTBEAT
[20:09:38.378314] [59] ATTITUDE_TARGET
[20:09:38.810305] [161] RADIO
[20:09:38.813293] [161] RADIO_STATUS
[20:09:39.386408] [61] HEARTBEAT
[20:09:39.620405] [62] VFR_HUD
[20:09:39.849432] [162] RADIO
[20:09:39.852469] [162] RADIO_STATUS
[20:09:40.437549] [63] HEARTBEAT
[20:09:40.444697] [64] SYS_STATUS
[20:09:40.563542] [65] BATTERY_STATUS
[20:09:40.570509] [66] ATTITUDE_TARGET
[20:09:40.601501] [67] VFR_HUD
[20:09:40.878551] [163] RADIO
[20:09:40.881512] [163] RADIO_STATUS
[20:09:41.344687] [69] HEARTBEAT
[20:09:41.797670] [164] RADIO
[20:09:41.800678] [164] RADIO_STATUS
[20:09:42.038725] [70] VFR_HUD
[20:09:42.506833] [71] HEARTBEAT
[20:09:42.515612] [72] ATTITUDE_TARGET
[20:09:42.732803] [73] VFR_HUD
[20:09:42.853846] [165] RADIO
[20:09:42.856829] [165] RADIO_STATUS
[20:09:43.413027] [74] HEARTBEAT
[20:09:43.653010] [75] VFR_HUD
[20:09:43.867011] [166] RADIO
[20:09:43.868976] [166] RADIO_STATUS
[20:09:44.350178] [76] HEARTBEAT
[20:09:44.356165] [77] SYS_STATUS
[20:09:44.396201] [78] BATTERY_STATUS
[20:09:44.404187] [79] ATTITUDE_TARGET
[20:09:44.408152] [80] VFR_HUD
[20:09:44.791141] [167] RADIO
[20:09:44.794190] [167] RADIO_STATUS
[20:09:45.136306] [81] VFR_HUD
[20:09:45.362295] [82] HEARTBEAT
[20:09:45.935384] [168] RADIO
[20:09:45.938349] [168] RADIO_STATUS
[20:09:46.056765] [83] VFR_HUD
[20:09:46.414534] [84] HEARTBEAT
[20:09:46.422495] [85] ATTITUDE_TARGET
[20:09:46.745560] [86] VFR_HUD
[20:09:46.856536] [169] RADIO
[20:09:46.857511] [169] RADIO_STATUS
[20:09:47.325642] [87] HEARTBEAT
[20:09:47.555616] [88] VFR_HUD
[20:09:47.899727] [170] RADIO
[20:09:47.902672] [170] RADIO_STATUS
[20:09:48.362862] [89] HEARTBEAT
[20:09:48.368748] [90] SYS_STATUS
[20:09:48.483879] [91] BATTERY_STATUS
[20:09:48.720897] [92] ATTITUDE_TARGET
[20:09:48.725856] [93] VFR_HUD
[20:09:48.818859] [171] RADIO
[20:09:48.821786] [171] RADIO_STATUS
[20:09:49.164877] [94] VFR_HUD
[20:09:49.395340] [95] HEARTBEAT
[20:09:49.843058] [172] RADIO
[20:09:49.846075] [172] RADIO_STATUS
[20:09:49.964075] [96] VFR_HUD
[20:09:50.552191] [97] HEARTBEAT
[20:09:50.560220] [98] ATTITUDE_TARGET
[20:09:50.778289] [99] VFR_HUD
[20:09:50.899240] [173] RADIO
[20:09:50.902262] [173] RADIO_STATUS
[20:09:51.338413] [100] HEARTBEAT
[20:09:51.912667] [174] RADIO
[20:09:51.917142] [174] RADIO_STATUS
[20:09:52.395682] [102] HEARTBEAT
[20:09:52.401953] [103] SYS_STATUS
[20:09:52.437159] [104] BATTERY_STATUS
[20:09:52.438587] [105] EXTENDED_SYS_STATE
[20:09:52.445645] [106] ATTITUDE_TARGET
[20:09:52.450628] [107] VFR_HUD
[20:09:52.454541] [108] SYSTEM_TIME
[20:09:52.956822] [175] RADIO
[20:09:52.959711] [175] RADIO_STATUS
[20:09:53.181739] [109] VFR_HUD
[20:09:53.409850] [110] HEARTBEAT
[20:09:53.980867] [176] RADIO
[20:09:53.983839] [176] RADIO_STATUS
[20:09:54.019110] [111] VFR_HUD
[20:09:54.328920] [112] HEARTBEAT
[20:09:54.349894] [113] ATTITUDE_TARGET
[20:09:54.790911] [114] VFR_HUD
[20:09:54.899991] [177] RADIO
[20:09:54.902961] [177] RADIO_STATUS
[20:09:55.371100] [115] HEARTBEAT
[20:09:55.600233] [116] VFR_HUD
[20:09:55.945224] [178] RADIO
[20:09:55.948225] [178] RADIO_STATUS
[20:09:56.407216] [117] HEARTBEAT
[20:09:56.414219] [118] SYS_STATUS
[20:09:56.534192] [119] BATTERY_STATUS
[20:09:56.646287] [120] ATTITUDE_TARGET
[20:09:56.651271] [121] VFR_HUD
[20:09:56.859289] [179] RADIO
[20:09:56.862320] [179] RADIO_STATUS
[20:09:57.209339] [122] VFR_HUD
[20:09:57.440366] [123] HEARTBEAT
[20:09:57.888436] [180] RADIO
[20:09:57.891441] [180] RADIO_STATUS
[20:09:58.009431] [124] VFR_HUD
[20:09:58.368562] [125] HEARTBEAT
[20:09:58.376538] [126] ATTITUDE_TARGET
[20:09:58.818745] [127] VFR_HUD
[20:09:58.928715] [181] RADIO
[20:09:58.931608] [181] RADIO_STATUS
[20:09:59.385264] [128] HEARTBEAT
[20:09:59.957784] [182] RADIO
[20:09:59.960722] [182] RADIO_STATUS
[20:10:00.436047] [130] HEARTBEAT
[20:10:00.442837] [131] SYS_STATUS
[20:10:00.560854] [132] BATTERY_STATUS
[20:10:00.569202] [133] ATTITUDE_TARGET
[20:10:00.598924] [134] VFR_HUD
[20:10:00.876913] [183] RADIO
[20:10:00.880022] [183] RADIO_STATUS
[20:10:01.228093] [135] VFR_HUD
[20:10:01.343013] [136] HEARTBEAT
[20:10:02.027115] [184] RADIO
[20:10:02.030177] [184] RADIO_STATUS
[20:10:02.065212] [137] VFR_HUD
[20:10:02.386344] [138] HEARTBEAT
[20:10:02.394183] [139] ATTITUDE_TARGET
[20:10:02.732278] [140] VFR_HUD
[20:10:02.946329] [185] RADIO
[20:10:02.949245] [185] RADIO_STATUS
[20:10:03.411399] [141] HEARTBEAT
[20:10:03.651372] [142] VFR_HUD
[20:10:03.985582] [186] RADIO
[20:10:03.988441] [186] RADIO_STATUS
[20:10:04.331509] [143] HEARTBEAT
[20:10:04.351546] [144] SYS_STATUS
[20:10:04.394623] [145] BATTERY_STATUS
[20:10:04.402602] [146] ATTITUDE_TARGET
[20:10:04.407511] [147] VFR_HUD
[20:10:04.904606] [187] RADIO
[20:10:04.907572] [187] RADIO_STATUS
[20:10:05.490757] [148] VFR_HUD
[20:10:05.493838] [149] HEARTBEAT
[20:10:05.934771] [188] RADIO
[20:10:05.937759] [188] RADIO_STATUS
[20:10:06.054799] [150] VFR_HUD
[20:10:06.417952] [151] HEARTBEAT
[20:10:06.421942] [152] ATTITUDE_TARGET
[20:10:06.745013] [153] VFR_HUD
[20:10:06.973959] [189] RADIO
[20:10:06.976937] [189] RADIO_STATUS
[20:10:07.325019] [154] HEARTBEAT
[20:10:07.554049] [155] VFR_HUD
[20:10:07.898155] [190] RADIO
[20:10:07.901083] [190] RADIO_STATUS
[20:10:08.361216] [156] HEARTBEAT
[20:10:08.368191] [157] SYS_STATUS
[20:10:08.483198] [158] BATTERY_STATUS
[20:10:08.600264] [159] ATTITUDE_TARGET
[20:10:08.605214] [160] VFR_HUD
[20:10:08.923306] [191] RADIO
[20:10:08.925268] [191] RADIO_STATUS
[20:10:09.163321] [161] VFR_HUD
[20:10:09.394447] [162] HEARTBEAT
[20:10:10.072600] [192] RADIO
[20:10:10.075667] [192] RADIO_STATUS
[20:10:10.431629] [164] HEARTBEAT
[20:10:10.439598] [165] ATTITUDE_TARGET
[20:10:10.777644] [166] VFR_HUD
[20:10:10.991694] [193] RADIO
[20:10:10.994697] [193] RADIO_STATUS
[20:10:11.337764] [167] HEARTBEAT
[20:10:11.571771] [168] VFR_HUD
[20:10:11.916846] [194] RADIO
[20:10:11.918860] [194] RADIO_STATUS
[20:10:12.393921] [169] HEARTBEAT
[20:10:12.400964] [170] SYS_STATUS
[20:10:12.435005] [171] BATTERY_STATUS
[20:10:12.436945] [172] EXTENDED_SYS_STATE
[20:10:12.445097] [173] ATTITUDE_TARGET
[20:10:12.449946] [174] VFR_HUD
[20:10:12.452887] [175] SYSTEM_TIME
[20:10:12.956058] [195] RADIO
[20:10:12.959094] [195] RADIO_STATUS
[20:10:13.181074] [176] VFR_HUD
[20:10:13.980275] [196] RADIO
[20:10:13.983205] [196] RADIO_STATUS
[20:10:14.018282] [178] VFR_HUD
[20:10:14.331284] [179] HEARTBEAT
[20:10:14.354375] [180] ATTITUDE_TARGET
[20:10:14.790339] [181] VFR_HUD
[20:10:15.024451] [197] RADIO
[20:10:15.027531] [197] RADIO_STATUS
[20:10:15.370541] [182] HEARTBEAT
[20:10:15.599539] [183] VFR_HUD
[20:10:15.943588] [198] RADIO
[20:10:15.946693] [198] RADIO_STATUS
[20:10:16.406760] [184] HEARTBEAT
[20:10:16.413786] [185] SYS_STATUS
[20:10:16.533972] [186] BATTERY_STATUS
[20:10:16.645791] [187] ATTITUDE_TARGET
[20:10:16.650723] [188] VFR_HUD
[20:10:16.968748] [199] RADIO
[20:10:16.971763] [199] RADIO_STATUS
[20:10:17.208938] [189] VFR_HUD
[20:10:17.439893] [190] HEARTBEAT
[20:10:18.117960] [200] RADIO
[20:10:18.120969] [200] RADIO_STATUS
[20:10:18.367983] [192] HEARTBEAT
[20:10:18.375966] [193] ATTITUDE_TARGET
[20:10:18.818118] [194] VFR_HUD
[20:10:19.037098] [201] RADIO
[20:10:19.040137] [201] RADIO_STATUS
[20:10:19.383213] [195] HEARTBEAT
[20:10:19.618265] [196] VFR_HUD
[20:10:19.957286] [202] RADIO
[20:10:19.960273] [202] RADIO_STATUS
[20:10:20.440469] [197] HEARTBEAT
[20:10:20.449526] [198] SYS_STATUS
[20:10:20.486353] [199] BATTERY_STATUS
[20:10:20.494346] [200] ATTITUDE_TARGET
[20:10:20.499302] [201] VFR_HUD
[20:10:21.001891] [203] RADIO
[20:10:21.004406] [203] RADIO_STATUS
[20:10:21.352664] [202] VFR_HUD
[20:10:21.355787] [203] HEARTBEAT
[20:10:22.025818] [204] RADIO
[20:10:22.028687] [204] RADIO_STATUS
[20:10:22.064661] [204] VFR_HUD
[20:10:22.385712] [205] HEARTBEAT
[20:10:22.393703] [206] ATTITUDE_TARGET
[20:10:22.836977] [207] VFR_HUD
[20:10:23.070900] [205] RADIO
[20:10:23.073779] [205] RADIO_STATUS
[20:10:23.412027] [208] HEARTBEAT
[20:10:23.531140] [209] VFR_HUD
[20:10:23.985062] [206] RADIO
[20:10:23.988013] [206] RADIO_STATUS
[20:10:24.331187] [210] HEARTBEAT
[20:10:24.351099] [211] SYS_STATUS
[20:10:24.394155] [212] BATTERY_STATUS
[20:10:24.402095] [213] ATTITUDE_TARGET
[20:10:24.409916] [214] VFR_HUD
[20:10:25.014233] [207] RADIO
[20:10:25.017313] [207] RADIO_STATUS
[20:10:25.140196] [215] VFR_HUD
[20:10:25.360211] [216] HEARTBEAT
[20:10:25.944311] [217] VFR_HUD
[20:10:26.163294] [208] RADIO
[20:10:26.166296] [208] RADIO_STATUS
[20:10:26.413378] [218] HEARTBEAT
[20:10:26.421353] [219] ATTITUDE_TARGET
[20:10:26.744513] [220] VFR_HUD
[20:10:27.083465] [209] RADIO
[20:10:27.086462] [209] RADIO_STATUS
[20:10:27.319616] [221] HEARTBEAT
[20:10:27.553575] [222] VFR_HUD
[20:10:28.002650] [210] RADIO
[20:10:28.005598] [210] RADIO_STATUS
[20:10:28.481750] [225] BATTERY_STATUS
[20:10:28.599729] [226] ATTITUDE_TARGET
[20:10:28.604851] [227] VFR_HUD
[20:10:29.041821] [211] RADIO
[20:10:29.044810] [211] RADIO_STATUS
[20:10:29.167864] [228] VFR_HUD
[20:10:29.388013] [229] HEARTBEAT
[20:10:29.961970] [230] VFR_HUD
[20:10:29.989052] [212] RADIO
[20:10:29.992027] [212] RADIO_STATUS
[20:10:30.432939] [231] HEARTBEAT
[20:10:30.439064] [232] ATTITUDE_TARGET
[20:10:30.777152] [233] VFR_HUD
[20:10:31.111210] [213] RADIO
[20:10:31.114136] [213] RADIO_STATUS
[20:10:31.337267] [234] HEARTBEAT
[20:10:31.571270] [235] VFR_HUD
[20:10:32.030486] [214] RADIO
[20:10:32.033309] [214] RADIO_STATUS
[20:10:32.393440] [236] HEARTBEAT
[20:10:32.400381] [237] SYS_STATUS
[20:10:32.434471] [238] BATTERY_STATUS
[20:10:32.436398] [239] EXTENDED_SYS_STATE
[20:10:32.445808] [240] ATTITUDE_TARGET
[20:10:32.449399] [241] VFR_HUD
[20:10:32.453891] [242] SYSTEM_TIME
[20:10:33.059537] [215] RADIO
[20:10:33.062497] [215] RADIO_STATUS
[20:10:33.180576] [243] VFR_HUD
[20:10:33.405616] [244] HEARTBEAT
[20:10:33.990782] [245] VFR_HUD
[20:10:34.209697] [216] RADIO
[20:10:34.212669] [216] RADIO_STATUS
[20:10:34.330774] [246] HEARTBEAT
[20:10:34.353716] [247] ATTITUDE_TARGET
[20:10:34.789999] [248] VFR_HUD
[20:10:35.128938] [217] RADIO
[20:10:35.131859] [217] RADIO_STATUS
[20:10:35.369897] [249] HEARTBEAT
[20:10:35.601730] [250] VFR_HUD
[20:10:36.049761] [218] RADIO
[20:10:36.051202] [218] RADIO_STATUS
[20:10:36.528159] [253] BATTERY_STATUS
[20:10:36.645224] [254] ATTITUDE_TARGET
[20:10:36.650271] [255] VFR_HUD
[20:10:37.087238] [219] RADIO
[20:10:37.090197] [219] RADIO_STATUS
[20:10:37.208233] [0] VFR_HUD
[20:10:37.439291] [1] HEARTBEAT
[20:10:38.008326] [2] VFR_HUD
[20:10:38.040349] [220] RADIO
[20:10:38.044847] [220] RADIO_STATUS
[20:10:38.373931] [3] HEARTBEAT
[20:10:38.380486] [4] ATTITUDE_TARGET
[20:10:38.822517] [5] VFR_HUD
[20:10:39.156557] [221] RADIO
[20:10:39.159552] [221] RADIO_STATUS
[20:10:39.382592] [6] HEARTBEAT
[20:10:39.616613] [7] VFR_HUD
[20:10:40.080788] [222] RADIO
[20:10:40.083672] [222] RADIO_STATUS
[20:10:40.438841] [8] HEARTBEAT
[20:10:40.446052] [9] SYS_STATUS
[20:10:40.485879] [10] BATTERY_STATUS
[20:10:40.492823] [11] ATTITUDE_TARGET
[20:10:40.497863] [12] VFR_HUD
[20:10:41.104892] [223] RADIO
[20:10:41.107904] [223] RADIO_STATUS
[20:10:41.351955] [13] VFR_HUD
[20:10:41.354995] [14] HEARTBEAT
[20:10:42.041109] [15] VFR_HUD
[20:10:42.254108] [224] RADIO
[20:10:42.257097] [224] RADIO_STATUS
[20:10:42.384205] [16] HEARTBEAT
[20:10:42.392172] [17] ATTITUDE_TARGET
[20:10:42.835247] [18] VFR_HUD
[20:10:43.069357] [225] RADIO
[20:10:43.072311] [225] RADIO_STATUS
[20:10:43.415516] [19] HEARTBEAT
[20:10:43.530368] [20] VFR_HUD
[20:10:44.093499] [226] RADIO
[20:10:44.096461] [226] RADIO_STATUS
[20:10:44.330656] [21] HEARTBEAT
[20:10:44.349593] [22] SYS_STATUS
[20:10:44.393511] [23] BATTERY_STATUS
[20:10:44.401591] [24] ATTITUDE_TARGET
[20:10:44.405817] [25] VFR_HUD
[20:10:45.140666] [227] RADIO
[20:10:45.142674] [227] RADIO_STATUS
[20:10:45.371774] [26] VFR_HUD
[20:10:45.374758] [27] HEARTBEAT
[20:10:45.944848] [28] VFR_HUD
[20:10:46.169878] [228] RADIO
[20:10:46.170057] [228] RADIO_STATUS
[20:10:46.414046] [29] HEARTBEAT
[20:10:46.422042] [30] ATTITUDE_TARGET
[20:10:47.209041] [229] RADIO
[20:10:47.212003] [229] RADIO_STATUS
[20:10:47.320180] [32] HEARTBEAT
[20:10:47.559087] [33] VFR_HUD
[20:10:48.128142] [230] RADIO
[20:10:48.131163] [230] RADIO_STATUS
[20:10:48.361232] [34] HEARTBEAT
[20:10:48.368246] [35] SYS_STATUS
[20:10:48.483231] [36] BATTERY_STATUS
[20:10:48.600215] [37] ATTITUDE_TARGET
[20:10:48.605351] [38] VFR_HUD
[20:10:49.152282] [231] RADIO
[20:10:49.155237] [231] RADIO_STATUS
[20:10:49.191307] [39] VFR_HUD
[20:10:49.388330] [40] HEARTBEAT
[20:10:49.964424] [41] VFR_HUD
[20:10:50.301673] [232] RADIO
[20:10:50.304457] [232] RADIO_STATUS
[20:10:50.431512] [42] HEARTBEAT
[20:10:50.439532] [43] ATTITUDE_TARGET
[20:10:50.777587] [44] VFR_HUD
[20:10:51.111658] [233] RADIO
[20:10:51.114563] [233] RADIO_STATUS
[20:10:51.571716] [46] VFR_HUD
[20:10:52.140862] [234] RADIO
[20:10:52.143810] [234] RADIO_STATUS
[20:10:52.388899] [47] HEARTBEAT
[20:10:52.395909] [48] SYS_STATUS
[20:10:53.180995] [54] VFR_HUD
[20:10:53.208037] [235] RADIO
[20:10:53.211018] [235] RADIO_STATUS
[20:10:53.409770] [55] HEARTBEAT
[20:10:53.991157] [56] VFR_HUD
[20:10:54.210228] [236] RADIO
[20:10:54.213247] [236] RADIO_STATUS
[20:10:54.326215] [57] HEARTBEAT
[20:10:54.349226] [58] ATTITUDE_TARGET
[20:10:55.249498] [237] RADIO
[20:10:55.252332] [237] RADIO_STATUS
[20:10:55.371427] [60] HEARTBEAT
[20:10:55.600467] [61] VFR_HUD
[20:10:56.169550] [238] RADIO
[20:10:56.172484] [238] RADIO_STATUS
[20:10:56.407589] [62] HEARTBEAT
[20:10:56.414579] [63] SYS_STATUS
[20:10:56.528602] [64] BATTERY_STATUS
[20:10:56.646815] [65] ATTITUDE_TARGET
[20:10:56.651570] [66] VFR_HUD
[20:10:57.198672] [239] RADIO
[20:10:57.201660] [239] RADIO_STATUS
[20:10:57.236708] [67] VFR_HUD
[20:10:57.434815] [68] HEARTBEAT
[20:10:58.008839] [69] VFR_HUD
[20:10:58.347843] [240] RADIO
[20:10:58.350813] [240] RADIO_STATUS
[20:10:58.395908] [70] HEARTBEAT
[20:10:58.403931] [71] ATTITUDE_TARGET
[20:10:58.824075] [72] VFR_HUD
[20:10:59.158086] [241] RADIO
[20:10:59.160998] [241] RADIO_STATUS
[20:10:59.618301] [74] VFR_HUD
[20:11:00.187187] [242] RADIO
[20:11:00.190536] [242] RADIO_STATUS
[20:11:00.441863] [75] HEARTBEAT
[20:11:00.447236] [76] SYS_STATUS
[20:11:00.487230] [77] BATTERY_STATUS
[20:11:00.494277] [78] ATTITUDE_TARGET
[20:11:00.499279] [79] VFR_HUD
[20:11:01.228372] [243] RADIO
[20:11:01.231277] [243] RADIO_STATUS
[20:11:01.360444] [80] VFR_HUD
[20:11:01.362379] [81] HEARTBEAT
[20:11:02.038574] [82] VFR_HUD
[20:11:02.257543] [244] RADIO
[20:11:02.260447] [244] RADIO_STATUS
[20:11:02.387548] [83] HEARTBEAT
[20:11:02.395578] [84] ATTITUDE_TARGET
[20:11:03.177700] [245] RADIO
[20:11:03.180619] [245] RADIO_STATUS
[20:11:03.418765] [86] HEARTBEAT
[20:11:03.527690] [87] VFR_HUD
[20:11:04.216840] [246] RADIO
[20:11:04.219767] [246] RADIO_STATUS
[20:11:04.344917] [88] HEARTBEAT
[20:11:04.351810] [89] SYS_STATUS
[20:11:04.470957] [90] BATTERY_STATUS
[20:11:04.477925] [91] ATTITUDE_TARGET
[20:11:04.508833] [92] VFR_HUD
[20:11:05.246956] [247] RADIO
[20:11:05.248962] [247] RADIO_STATUS
[20:11:05.363059] [94] HEARTBEAT
[20:11:05.952092] [95] VFR_HUD
[20:11:06.396195] [248] RADIO
[20:11:06.399208] [248] RADIO_STATUS
[20:11:06.443311] [96] HEARTBEAT
[20:11:06.451346] [97] ATTITUDE_TARGET
[20:11:06.746317] [98] VFR_HUD
[20:11:07.210289] [249] RADIO
[20:11:07.213509] [249] RADIO_STATUS
[20:11:07.561982] [100] VFR_HUD
[20:11:08.237138] [250] RADIO
[20:11:08.237362] [250] RADIO_STATUS
[20:11:08.362731] [101] HEARTBEAT
[20:11:08.369685] [102] SYS_STATUS
[20:11:08.489552] [103] BATTERY_STATUS
[20:11:09.170674] [106] VFR_HUD
[20:11:09.290627] [251] RADIO
[20:11:09.293775] [251] RADIO_STATUS
[20:11:09.390755] [107] HEARTBEAT
[20:11:09.964838] [108] VFR_HUD
[20:11:10.303810] [252] RADIO
[20:11:10.306928] [252] RADIO_STATUS
[20:11:10.433923] [109] HEARTBEAT
[20:11:10.441905] [110] ATTITUDE_TARGET
[20:11:10.773913] [111] VFR_HUD
[20:11:11.339093] [112] HEARTBEAT
[20:11:11.370994] [253] RADIO
[20:11:11.373991] [253] RADIO_STATUS
[20:11:11.574086] [113] VFR_HUD
[20:11:12.267201] [254] RADIO
[20:11:12.270203] [254] RADIO_STATUS
[20:11:12.390301] [114] HEARTBEAT
[20:11:12.397252] [115] SYS_STATUS
[20:11:12.519356] [116] BATTERY_STATUS
[20:11:12.520394] [117] EXTENDED_SYS_STATE
[20:11:12.531784] [118] ATTITUDE_TARGET
[20:11:12.533232] [119] VFR_HUD
[20:11:12.537439] [120] SYSTEM_TIME
[20:11:13.291336] [255] RADIO
[20:11:13.294304] [255] RADIO_STATUS
[20:11:13.408416] [122] HEARTBEAT
[20:11:13.992547] [123] VFR_HUD
[20:11:14.441636] [0] RADIO
[20:11:14.443512] [0] RADIO_STATUS
[20:11:14.791620] [126] VFR_HUD
[20:11:15.255740] [1] RADIO
[20:11:15.261843] [1] RADIO_STATUS
[20:11:15.370445] [127] HEARTBEAT
[20:11:15.606826] [128] VFR_HUD
[20:11:16.281986] [2] RADIO
[20:11:16.283860] [2] RADIO_STATUS
[20:11:16.413758] [129] HEARTBEAT
[20:11:16.415901] [130] SYS_STATUS
[20:11:16.529957] [131] BATTERY_STATUS
[20:11:16.877016] [132] ATTITUDE_TARGET
[20:11:16.882078] [133] VFR_HUD
[20:11:17.216054] [134] VFR_HUD
[20:11:17.328056] [135] HEARTBEAT
[20:11:17.358150] [3] RADIO
[20:11:17.361128] [3] RADIO_STATUS
[20:11:18.010256] [136] VFR_HUD
[20:11:18.349419] [4] RADIO
[20:11:18.352245] [4] RADIO_STATUS
[20:11:18.397278] [137] HEARTBEAT
[20:11:18.405227] [138] ATTITUDE_TARGET
[20:11:18.825316] [139] VFR_HUD
[20:11:19.385389] [140] HEARTBEAT
[20:11:19.416424] [5] RADIO
[20:11:19.419339] [5] RADIO_STATUS
[20:11:19.619400] [141] VFR_HUD
[20:11:20.308617] [6] RADIO
[20:11:20.311503] [6] RADIO_STATUS
[20:11:20.436685] [142] HEARTBEAT
[20:11:20.443556] [143] SYS_STATUS
[20:11:20.611651] [146] VFR_HUD
[20:11:21.337769] [7] RADIO
[20:11:21.341909] [7] RADIO_STATUS
[20:11:21.371774] [148] HEARTBEAT
[20:11:22.038857] [149] VFR_HUD
[20:11:22.487966] [8] RADIO
[20:11:22.490943] [8] RADIO_STATUS
[20:11:22.617090] [150] HEARTBEAT
[20:11:22.625018] [151] ATTITUDE_TARGET
[20:11:22.837932] [152] VFR_HUD
[20:11:23.297194] [9] RADIO
[20:11:23.300009] [9] RADIO_STATUS
[20:11:23.419174] [153] HEARTBEAT
[20:11:24.326189] [10] RADIO
[20:11:24.329315] [10] RADIO_STATUS
[20:11:24.386310] [155] HEARTBEAT
[20:11:24.393223] [156] SYS_STATUS
[20:11:24.401249] [157] BATTERY_STATUS
[20:11:24.413271] [158] ATTITUDE_TARGET
[20:11:24.418267] [159] VFR_HUD
[20:11:25.137321] [160] VFR_HUD
[20:11:25.362461] [161] HEARTBEAT
[20:11:25.476379] [11] RADIO
[20:11:25.478336] [11] RADIO_STATUS
[20:11:25.951582] [162] VFR_HUD
[20:11:26.395511] [12] RADIO
[20:11:26.398591] [12] RADIO_STATUS
[20:11:26.443543] [163] HEARTBEAT
[20:11:26.451518] [164] ATTITUDE_TARGET
[20:11:26.745693] [165] VFR_HUD
[20:11:27.430668] [166] HEARTBEAT
[20:11:27.544798] [13] RADIO
[20:11:27.548711] [13] RADIO_STATUS
[20:11:27.582667] [167] VFR_HUD
[20:11:28.362868] [168] HEARTBEAT
[20:11:28.369775] [169] SYS_STATUS
[20:11:28.463886] [14] RADIO
[20:11:28.466757] [14] RADIO_STATUS
[20:11:28.533824] [170] BATTERY_STATUS
[20:11:28.541847] [171] ATTITUDE_TARGET
[20:11:28.546797] [172] VFR_HUD
[20:11:29.384230] [15] RADIO
[20:11:29.386988] [15] RADIO_STATUS
[20:11:29.427972] [173] VFR_HUD
[20:11:29.430991] [174] HEARTBEAT
[20:11:29.964123] [175] VFR_HUD
[20:11:30.533236] [16] RADIO
[20:11:30.537169] [16] RADIO_STATUS
[20:11:30.582249] [176] HEARTBEAT
[20:11:30.589925] [177] ATTITUDE_TARGET
[20:11:30.773351] [178] VFR_HUD
[20:11:31.339375] [179] HEARTBEAT
[20:11:31.452313] [17] RADIO
[20:11:31.455367] [17] RADIO_STATUS
[20:11:32.372468] [18] RADIO
[20:11:32.374480] [18] RADIO_STATUS
[20:11:32.500512] [181] HEARTBEAT
[20:11:32.506507] [182] SYS_STATUS
[20:11:32.629568] [183] BATTERY_STATUS
[20:11:32.631500] [184] EXTENDED_SYS_STATE
[20:11:32.663516] [185] ATTITUDE_TARGET
[20:11:32.668535] [186] VFR_HUD
[20:11:32.672572] [187] SYSTEM_TIME
[20:11:33.182668] [188] VFR_HUD
[20:11:33.407676] [189] HEARTBEAT
[20:11:33.521712] [19] RADIO
[20:11:33.524641] [19] RADIO_STATUS
[20:11:33.997778] [190] VFR_HUD
[20:11:34.327933] [191] HEARTBEAT
[20:11:34.349845] [192] ATTITUDE_TARGET
[20:11:34.379874] [20] RADIO
[20:11:34.382865] [20] RADIO_STATUS
[20:11:34.791919] [193] VFR_HUD
[20:11:35.361029] [21] RADIO
[20:11:35.363997] [21] RADIO_STATUS
[20:11:35.477109] [194] HEARTBEAT
[20:11:35.606055] [195] VFR_HUD
[20:11:36.409840] [196] HEARTBEAT
[20:11:36.415349] [197] SYS_STATUS
[20:11:36.428276] [22] RADIO
[20:11:36.431243] [22] RADIO_STATUS
[20:11:36.530267] [198] BATTERY_STATUS
[20:11:36.647313] [199] ATTITUDE_TARGET
[20:11:36.652304] [200] VFR_HUD
[20:11:37.216475] [201] VFR_HUD
[20:11:37.429460] [23] RADIO
[20:11:37.432531] [23] RADIO_STATUS
[20:11:38.010488] [203] VFR_HUD
[20:11:38.369523] [204] HEARTBEAT
[20:11:38.377630] [205] ATTITUDE_TARGET
[20:11:38.579807] [24] RADIO
[20:11:38.582550] [24] RADIO_STATUS
[20:11:38.819659] [206] VFR_HUD
[20:11:39.384678] [207] HEARTBEAT
[20:11:39.416748] [25] RADIO
[20:11:39.419931] [25] RADIO_STATUS
[20:11:40.417989] [26] RADIO
[20:11:40.420897] [26] RADIO_STATUS
[20:11:40.545933] [209] HEARTBEAT
[20:11:40.553936] [210] SYS_STATUS
[20:11:40.672966] [211] BATTERY_STATUS
[20:11:40.904974] [212] ATTITUDE_TARGET
[20:11:40.909139] [213] VFR_HUD
[20:11:41.228039] [214] VFR_HUD
[20:11:41.349063] [215] HEARTBEAT
[20:11:41.463097] [27] RADIO
[20:11:41.466082] [27] RADIO_STATUS
[20:11:42.038262] [216] VFR_HUD
[20:11:42.387327] [217] HEARTBEAT
[20:11:42.395316] [218] ATTITUDE_TARGET
[20:11:42.405316] [28] RADIO
[20:11:42.407295] [28] RADIO_STATUS
[20:11:42.732551] [219] VFR_HUD
[20:11:43.406466] [29] RADIO
[20:11:43.409409] [29] RADIO_STATUS
[20:11:43.531654] [220] HEARTBEAT
[20:11:43.535946] [221] VFR_HUD
[20:11:44.349641] [222] HEARTBEAT
[20:11:44.356769] [223] SYS_STATUS
[20:11:44.395600] [224] BATTERY_STATUS
[20:11:44.403692] [225] ATTITUDE_TARGET
[20:11:44.408609] [226] VFR_HUD
