[22:28:45.437249] [158] VFR_HUD
[22:28:45.881243] [215] RADIO
[22:28:45.884321] [215] RADIO_STATUS
[22:28:46.239368] [159] HEARTBEAT
[22:28:46.246386] [160] SYS_STATUS
[22:28:46.366451] [161] BATTERY_STATUS
[22:28:46.478552] [162] ATTITUDE_TARGET
[22:28:46.483298] [163] VFR_HUD
[22:28:46.801368] [216] RADIO
[22:28:46.804296] [216] RADIO_STATUS
[22:28:47.041505] [164] VFR_HUD
[22:28:47.267490] [165] HEARTBEAT
[22:28:47.841460] [166] VFR_HUD
[22:28:47.868439] [217] RADIO
[22:28:47.871365] [217] RADIO_STATUS
[22:28:48.310594] [167] HEARTBEAT
[22:28:48.317511] [168] ATTITUDE_TARGET
[22:28:48.650655] [169] VFR_HUD
[22:28:48.869548] [218] RADIO
[22:28:48.872589] [218] RADIO_STATUS
[22:28:49.216618] [170] HEARTBEAT
[22:28:49.450618] [171] VFR_HUD
[22:28:49.909691] [219] RADIO
[22:28:49.913263] [219] RADIO_STATUS
[22:28:50.267868] [172] HEARTBEAT
[22:28:50.273833] [173] SYS_STATUS
[22:28:50.395763] [174] BATTERY_STATUS
[22:28:50.397732] [175] EXTENDED_SYS_STATE
[22:28:50.405801] [176] ATTITUDE_TARGET
[22:28:50.409739] [177] VFR_HUD
[22:28:50.413809] [178] SYSTEM_TIME
[22:28:50.828809] [220] RADIO
[22:28:50.831858] [220] RADIO_STATUS
[22:28:51.059994] [179] VFR_HUD
[22:28:51.285104] [180] HEARTBEAT
[22:28:51.858950] [221] RADIO
[22:28:51.860958] [221] RADIO_STATUS
[22:28:51.978959] [181] VFR_HUD
[22:28:52.338052] [182] HEARTBEAT
[22:28:52.346069] [183] ATTITUDE_TARGET
[22:28:52.669030] [184] VFR_HUD
[22:28:52.898390] [222] RADIO
[22:28:52.901119] [222] RADIO_STATUS
[22:28:53.244295] [185] HEARTBEAT
[22:28:53.483175] [186] VFR_HUD
[22:28:53.927277] [223] RADIO
[22:28:53.930156] [223] RADIO_STATUS
[22:28:54.285376] [187] HEARTBEAT
[22:28:54.292300] [188] SYS_STATUS
[22:28:54.407248] [189] BATTERY_STATUS
[22:28:54.524293] [190] ATTITUDE_TARGET
[22:28:54.529251] [191] VFR_HUD
[22:28:54.847346] [224] RADIO
[22:28:54.850383] [224] RADIO_STATUS
[22:28:55.092373] [192] VFR_HUD
[22:28:55.312544] [193] HEARTBEAT
[22:28:55.887530] [194] VFR_HUD
[22:28:55.914440] [225] RADIO
[22:28:55.917439] [225] RADIO_STATUS
[22:28:56.355509] [195] HEARTBEAT
[22:28:56.363505] [196] ATTITUDE_TARGET
[22:28:56.806517] [197] VFR_HUD
[22:28:56.915517] [226] RADIO
[22:28:56.918576] [226] RADIO_STATUS
[22:28:57.496874] [199] VFR_HUD
[22:28:57.955725] [227] RADIO
[22:28:57.958683] [227] RADIO_STATUS
[22:28:58.545769] [202] BATTERY_STATUS
[22:28:58.662727] [203] ATTITUDE_TARGET
[22:28:58.667819] [204] VFR_HUD
[22:28:58.984858] [228] RADIO
[22:28:58.987762] [228] RADIO_STATUS
[22:28:59.105753] [205] VFR_HUD
[22:28:59.225980] [206] HEARTBEAT
[22:28:59.775126] JAMMING_START
[22:28:59.904844] [229] RADIO
[22:28:59.907794] [229] RADIO_STATUS
[22:29:00.263941] [208] HEARTBEAT
[22:29:00.271864] [209] ATTITUDE_TARGET
[22:29:00.714995] [210] VFR_HUD
[22:29:00.947920] [230] RADIO
[22:29:00.950991] [230] RADIO_STATUS
[22:29:01.523026] [212] VFR_HUD
[22:29:01.972069] [231] RADIO
[22:29:01.975099] [231] RADIO_STATUS
[22:29:02.569185] [216] ATTITUDE_TARGET
[22:29:02.574097] [217] VFR_HUD
[22:29:02.892151] [232] RADIO
[22:29:02.895120] [232] RADIO_STATUS
[22:29:03.248200] [218] VFR_HUD
[22:29:03.251335] [219] HEARTBEAT
[22:29:03.827261] [220] VFR_HUD
[22:29:03.948277] [233] RADIO
[22:29:03.951424] [233] RADIO_STATUS
[22:29:04.318379] [221] HEARTBEAT
[22:29:04.326366] [222] ATTITUDE_TARGET
[22:29:04.961434] [234] RADIO
[22:29:04.963321] [234] RADIO_STATUS
[22:29:05.431422] [225] VFR_HUD
[22:29:06.005499] [235] RADIO
[22:29:06.008448] [235] RADIO_STATUS
[22:29:06.238573] [226] HEARTBEAT
[22:29:06.245533] [227] SYS_STATUS
[22:29:06.477721] [229] ATTITUDE_TARGET
[22:29:06.485787] [230] VFR_HUD
[22:29:07.029695] [236] RADIO
[22:29:07.032602] [236] RADIO_STATUS
[22:29:07.150638] [231] VFR_HUD
[22:29:07.271651] [232] HEARTBEAT
[22:29:07.840771] [233] VFR_HUD
[22:29:07.949717] [237] RADIO
[22:29:07.952678] [237] RADIO_STATUS
[22:29:08.309828] [234] HEARTBEAT
[22:29:08.316785] [235] ATTITUDE_TARGET
[22:29:08.993896] [238] RADIO
[22:29:08.996861] [238] RADIO_STATUS
[22:29:09.449911] [238] VFR_HUD
[22:29:10.019551] [239] RADIO
[22:29:10.022243] [239] RADIO_STATUS
[22:29:10.267046] [239] HEARTBEAT
[22:29:10.273035] [240] SYS_STATUS
[22:29:10.938100] [240] RADIO
[22:29:10.941073] [240] RADIO_STATUS
[22:29:11.059102] [246] VFR_HUD
[22:29:11.284367] [247] HEARTBEAT
[22:29:11.876569] [248] VFR_HUD
[22:29:11.989321] [241] RADIO
[22:29:11.992242] [241] RADIO_STATUS
[22:29:12.446283] [249] HEARTBEAT
[22:29:12.454350] [250] ATTITUDE_TARGET
[22:29:13.006343] [242] RADIO
[22:29:13.009317] [242] RADIO_STATUS
[22:29:13.482498] [253] VFR_HUD
[22:29:14.046566] [243] RADIO
[22:29:14.049523] [243] RADIO_STATUS
[22:29:14.284598] [254] HEARTBEAT
[22:29:14.291590] [255] SYS_STATUS
[22:29:14.581678] [2] VFR_HUD
[22:29:14.965928] [244] RADIO
[22:29:14.968652] [244] RADIO_STATUS
[22:29:15.195693] [3] VFR_HUD
[22:29:15.207713] [4] HEARTBEAT
[22:29:15.886166] [5] VFR_HUD
[22:29:15.996219] [245] RADIO
[22:29:15.997646] [245] RADIO_STATUS
[22:29:16.354820] [6] HEARTBEAT
[22:29:16.361825] [7] ATTITUDE_TARGET
[22:29:17.033915] [246] RADIO
[22:29:17.036958] [246] RADIO_STATUS
[22:29:17.494924] [10] VFR_HUD
[22:29:18.064030] [247] RADIO
[22:29:18.066987] [247] RADIO_STATUS
[22:29:18.312136] [11] HEARTBEAT
[22:29:18.318132] [12] SYS_STATUS
[22:29:18.983138] [248] RADIO
[22:29:18.986115] [248] RADIO_STATUS
[22:29:19.229370] [17] HEARTBEAT
[22:29:19.913230] [18] VFR_HUD
[22:29:20.023219] [249] RADIO
[22:29:20.026222] [249] RADIO_STATUS
[22:29:20.382207] [19] HEARTBEAT
[22:29:20.390169] [20] ATTITUDE_TARGET
[22:29:20.713279] [21] VFR_HUD
[22:29:21.052246] [250] RADIO
[22:29:21.055185] [250] RADIO_STATUS
[22:29:21.398547] [22] HEARTBEAT
[22:29:22.091422] [251] RADIO
[22:29:22.095778] [251] RADIO_STATUS
[22:29:22.329837] [24] HEARTBEAT
[22:29:22.336421] [25] SYS_STATUS
[22:29:22.574439] [26] BATTERY_STATUS
[22:29:22.582952] [27] ATTITUDE_TARGET
[22:29:22.612955] [28] VFR_HUD
[22:29:23.120483] [252] RADIO
[22:29:23.123437] [252] RADIO_STATUS
[22:29:23.236451] [30] HEARTBEAT
[22:29:23.832498] [31] VFR_HUD
[22:29:24.040553] [253] RADIO
[22:29:24.043520] [253] RADIO_STATUS
[22:29:24.620656] [34] VFR_HUD
[22:29:25.079590] [254] RADIO
[22:29:25.082535] [254] RADIO_STATUS
[22:29:26.108711] [255] RADIO
[22:29:26.111662] [255] RADIO_STATUS
[22:29:26.237795] [37] HEARTBEAT
[22:29:26.243739] [38] SYS_STATUS
[22:29:26.363776] [39] BATTERY_STATUS
[22:29:27.028968] [0] RADIO
[22:29:27.031893] [0] RADIO_STATUS
[22:29:27.148960] [42] VFR_HUD
[22:29:27.269880] [43] HEARTBEAT
[22:29:27.837867] [44] VFR_HUD
[22:29:28.073002] [1] RADIO
[22:29:28.076116] [1] RADIO_STATUS
[22:29:28.649701] [47] VFR_HUD
[22:29:29.098407] [2] RADIO
[22:29:29.100302] [2] RADIO_STATUS
[22:29:29.213131] [48] HEARTBEAT
[22:29:30.141297] [3] RADIO
[22:29:30.144214] [3] RADIO_STATUS
[22:29:30.269365] [50] HEARTBEAT
[22:29:30.276295] [51] SYS_STATUS
[22:29:30.310486] [52] BATTERY_STATUS
[22:29:30.312225] [53] EXTENDED_SYS_STATE
[22:29:30.320327] [54] ATTITUDE_TARGET
[22:29:30.325281] [55] VFR_HUD
[22:29:30.328922] [56] SYSTEM_TIME
[22:29:31.165530] [4] RADIO
[22:29:31.168407] [4] RADIO_STATUS
[22:29:31.281491] [58] HEARTBEAT
[22:29:31.871472] [59] VFR_HUD
[22:29:32.085978] [5] RADIO
[22:29:32.088519] [5] RADIO_STATUS
[22:29:32.665554] [62] VFR_HUD
[22:29:33.133629] [6] RADIO
[22:29:33.136711] [6] RADIO_STATUS
[22:29:33.253666] [63] HEARTBEAT
[22:29:33.584626] [64] VFR_HUD
[22:29:34.049704] [7] RADIO
[22:29:34.052669] [7] RADIO_STATUS
[22:29:34.284814] [65] HEARTBEAT
[22:29:34.288677] [66] SYS_STATUS
[22:29:34.408753] [67] BATTERY_STATUS
[22:29:35.073789] [8] RADIO
[22:29:35.076807] [8] RADIO_STATUS
[22:29:35.194019] [70] VFR_HUD
[22:29:35.222808] [71] HEARTBEAT
[22:29:35.883883] [72] VFR_HUD
[22:29:36.118049] [9] RADIO
[22:29:36.120921] [9] RADIO_STATUS
[22:29:36.353012] [73] HEARTBEAT
[22:29:36.361091] [74] ATTITUDE_TARGET
[22:29:36.693138] [75] VFR_HUD
[22:29:37.141983] [10] RADIO
[22:29:37.145028] [10] RADIO_STATUS
[22:29:37.259913] [76] HEARTBEAT
[22:29:37.492012] [77] VFR_HUD
[22:29:38.186121] [11] RADIO
[22:29:38.188039] [11] RADIO_STATUS
[22:29:38.308271] [78] HEARTBEAT
[22:29:38.315208] [79] SYS_STATUS
[22:29:38.434083] [80] BATTERY_STATUS
[22:29:38.442120] [81] ATTITUDE_TARGET
[22:29:38.472075] [82] VFR_HUD
[22:29:39.112264] [83] VFR_HUD
[22:29:39.209317] [12] RADIO
[22:29:39.212367] [12] RADIO_STATUS
[22:29:39.325210] [84] HEARTBEAT
[22:29:39.909354] [85] VFR_HUD
[22:29:40.128408] [13] RADIO
[22:29:40.131326] [13] RADIO_STATUS
[22:29:40.709546] [88] VFR_HUD
[22:29:41.168614] [14] RADIO
[22:29:41.171402] [14] RADIO_STATUS
[22:29:41.284540] [89] HEARTBEAT
[22:29:41.628556] [90] VFR_HUD
[22:29:42.197524] [15] RADIO
[22:29:42.200498] [15] RADIO_STATUS
[22:29:42.328969] [91] HEARTBEAT
[22:29:42.332637] [92] SYS_STATUS
[22:29:42.447557] [93] BATTERY_STATUS
[22:29:42.794921] [94] ATTITUDE_TARGET
[22:29:42.799558] [95] VFR_HUD
[22:29:43.117609] [16] RADIO
[22:29:43.120693] [16] RADIO_STATUS
[22:29:44.157716] [17] RADIO
[22:29:44.160754] [17] RADIO_STATUS
[22:29:44.396806] [99] HEARTBEAT
[22:29:44.404750] [100] ATTITUDE_TARGET
[22:29:44.617732] [101] VFR_HUD
[22:29:45.186944] [18] RADIO
[22:29:45.189801] [18] RADIO_STATUS
[22:29:45.220918] [102] HEARTBEAT
[22:29:46.234998] [104] HEARTBEAT
[22:29:46.242056] [105] SYS_STATUS
[22:29:46.335971] [19] RADIO
[22:29:46.339009] [19] RADIO_STATUS
[22:29:46.377280] [106] BATTERY_STATUS
[22:29:46.403973] [107] ATTITUDE_TARGET
[22:29:46.408982] [108] VFR_HUD
[22:29:47.037083] [109] VFR_HUD
[22:29:47.256091] [20] RADIO
[22:29:47.258031] [20] RADIO_STATUS
[22:29:48.179331] [21] RADIO
[22:29:48.182119] [21] RADIO_STATUS
[22:29:48.215582] [112] HEARTBEAT
[22:29:48.237135] [113] ATTITUDE_TARGET
[22:29:48.651367] [114] VFR_HUD
[22:29:49.211261] [115] HEARTBEAT
[22:29:49.325275] [22] RADIO
[22:29:49.328428] [22] RADIO_STATUS
[22:29:50.244486] [23] RADIO
[22:29:50.247335] [23] RADIO_STATUS
[22:29:50.340446] [121] ATTITUDE_TARGET
[22:29:50.345364] [122] VFR_HUD
[22:29:50.349366] [123] SYSTEM_TIME
[22:29:51.054688] [124] VFR_HUD
[22:29:51.164635] [24] RADIO
[22:29:51.167506] [24] RADIO_STATUS
[22:29:51.280856] [125] HEARTBEAT
[22:29:51.974645] [126] VFR_HUD
[22:29:52.203686] [25] RADIO
[22:29:52.206749] [25] RADIO_STATUS
[22:29:52.664740] [129] VFR_HUD
[22:29:53.233785] [26] RADIO
[22:29:53.235765] [26] RADIO_STATUS
[22:29:53.267819] [130] HEARTBEAT
[22:29:54.280853] [132] HEARTBEAT
[22:29:54.287844] [133] SYS_STATUS
[22:29:54.382882] [27] RADIO
[22:29:54.385793] [27] RADIO_STATUS
[22:29:54.453119] [134] BATTERY_STATUS
[22:29:54.461071] [135] ATTITUDE_TARGET
[22:29:54.464842] [136] VFR_HUD
[22:29:55.302023] [28] RADIO
[22:29:55.304912] [28] RADIO_STATUS
[22:29:55.894040] [139] VFR_HUD
[22:29:56.222042] [29] RADIO
[22:29:56.225033] [29] RADIO_STATUS
[22:29:56.692250] [142] VFR_HUD
[22:29:57.258210] [143] HEARTBEAT
[22:29:57.289172] [30] RADIO
[22:29:57.292739] [30] RADIO_STATUS
[22:29:58.186514] [31] RADIO
[22:29:58.189247] [31] RADIO_STATUS
[22:29:58.434305] [147] BATTERY_STATUS
[22:29:58.442295] [148] ATTITUDE_TARGET
[22:29:58.472369] [149] VFR_HUD
[22:29:59.101389] [150] VFR_HUD
[22:29:59.212837] [32] RADIO
[22:29:59.214738] [32] RADIO_STATUS
[22:29:59.336456] [151] HEARTBEAT
[22:30:00.020511] [152] VFR_HUD
[22:30:00.260991] [153] HEARTBEAT
[22:30:00.267546] [154] ATTITUDE_TARGET
[22:30:00.277540] [33] RADIO
[22:30:00.280502] [33] RADIO_STATUS
[22:30:00.710776] [155] VFR_HUD
[22:30:01.281754] [34] RADIO
[22:30:01.282570] [34] RADIO_STATUS
[22:30:01.395616] [156] HEARTBEAT
[22:30:01.420684] [157] VFR_HUD
[22:30:02.198748] [35] RADIO
[22:30:02.201760] [35] RADIO_STATUS
[22:30:02.330130] [158] HEARTBEAT
[22:30:02.333750] [159] SYS_STATUS
[22:30:02.453786] [160] BATTERY_STATUS
[22:30:02.566774] [161] ATTITUDE_TARGET
[22:30:02.570769] [162] VFR_HUD
[22:30:03.134969] [163] VFR_HUD
[22:30:03.279867] [36] RADIO
[22:30:03.283122] [36] RADIO_STATUS
[22:30:03.928981] [165] VFR_HUD
[22:30:04.268029] [37] RADIO
[22:30:04.273761] [37] RADIO_STATUS
[22:30:04.619051] [168] VFR_HUD
[22:30:05.304147] [169] HEARTBEAT
[22:30:05.337104] [38] RADIO
[22:30:05.339066] [38] RADIO_STATUS
[22:30:05.429215] [170] VFR_HUD
[22:30:06.236297] [171] HEARTBEAT
[22:30:06.243157] [172] SYS_STATUS
[22:30:06.337851] [39] RADIO
[22:30:06.340147] [39] RADIO_STATUS
[22:30:07.259325] [40] RADIO_STATUS
[22:30:07.837495] [178] VFR_HUD
[22:30:08.306430] [179] HEARTBEAT
[22:30:08.314394] [180] ATTITUDE_TARGET
[22:30:08.324406] [41] RADIO
[22:30:08.327478] [41] RADIO_STATUS
[22:30:08.651446] [181] VFR_HUD
[22:30:09.211563] [182] HEARTBEAT
[22:30:09.325463] [42] RADIO
[22:30:09.327501] [42] RADIO_STATUS
[22:30:09.445591] [183] VFR_HUD
[22:30:10.369674] [43] RADIO
[22:30:10.372668] [43] RADIO_STATUS
[22:30:11.054718] [191] VFR_HUD
[22:30:11.393979] [44] RADIO
[22:30:11.396787] [44] RADIO_STATUS
[22:30:12.313791] [45] RADIO
[22:30:12.316885] [45] RADIO_STATUS
[22:30:12.362106] [194] HEARTBEAT
[22:30:12.369794] [195] ATTITUDE_TARGET
[22:30:12.664813] [196] VFR_HUD
[22:30:13.244996] [197] HEARTBEAT
[22:30:13.353028] [46] RADIO
[22:30:13.355911] [46] RADIO_STATUS
[22:30:13.473939] [198] VFR_HUD
[22:30:14.383002] [47] RADIO
[22:30:14.384930] [47] RADIO_STATUS
[22:30:14.423023] [201] BATTERY_STATUS
[22:30:15.083605] [204] VFR_HUD
[22:30:15.302350] [48] RADIO
[22:30:15.305524] [48] RADIO_STATUS
[22:30:16.247257] [207] HEARTBEAT
[22:30:16.254189] [208] ATTITUDE_TARGET
[22:30:16.341229] [49] RADIO
[22:30:16.347889] [49] RADIO_STATUS
[22:30:16.692290] [209] VFR_HUD
[22:30:17.257337] [210] HEARTBEAT
[22:30:17.371318] [50] RADIO
[22:30:17.374250] [50] RADIO_STATUS
[22:30:17.492419] [211] VFR_HUD
[22:30:18.307516] [51] RADIO
[22:30:18.310456] [51] RADIO_STATUS
[22:30:18.428929] [215] ATTITUDE_TARGET
[22:30:18.432456] [216] VFR_HUD
[22:30:19.101507] [217] VFR_HUD
[22:30:19.216545] [218] HEARTBEAT
[22:30:19.330599] [52] RADIO
[22:30:19.333563] [52] RADIO_STATUS
[22:30:20.032623] [219] VFR_HUD
[22:30:20.261768] [220] HEARTBEAT
[22:30:20.267749] [221] ATTITUDE_TARGET
[22:30:20.359640] [53] RADIO
[22:30:20.362645] [53] RADIO_STATUS
[22:30:20.715334] [222] VFR_HUD
[22:30:21.285769] [223] HEARTBEAT
[22:30:21.399786] [54] RADIO
[22:30:21.402771] [54] RADIO_STATUS
[22:30:21.525812] [224] VFR_HUD
[22:30:22.347513] [55] RADIO
[22:30:22.349824] [55] RADIO_STATUS
[22:30:22.566942] [228] ATTITUDE_TARGET
[22:30:22.570887] [229] VFR_HUD
[22:30:23.129908] [230] VFR_HUD
[22:30:23.234968] [231] HEARTBEAT
[22:30:23.349039] [56] RADIO
[22:30:23.352041] [56] RADIO_STATUS
[22:30:24.288977] [233] HEARTBEAT
[22:30:24.296112] [234] ATTITUDE_TARGET
[22:30:24.416154] [57] RADIO
[22:30:24.419073] [57] RADIO_STATUS
[22:30:24.621814] [235] VFR_HUD
[22:30:25.304238] [236] HEARTBEAT
[22:30:25.335351] [58] RADIO
[22:30:25.338204] [58] RADIO_STATUS
[22:30:25.433168] [237] VFR_HUD
[22:30:26.337304] [59] RADIO
[22:30:26.340309] [59] RADIO_STATUS
[22:30:27.147450] [243] VFR_HUD
[22:30:27.263412] [244] HEARTBEAT
[22:30:27.486386] [60] RADIO
[22:30:27.489315] [60] RADIO_STATUS
[22:30:27.837387] [245] VFR_HUD
[22:30:28.306744] [246] HEARTBEAT
[22:30:28.314510] [247] ATTITUDE_TARGET
[22:30:28.324590] [61] RADIO
[22:30:28.327498] [61] RADIO_STATUS
[22:30:28.757615] [248] VFR_HUD
[22:30:29.447647] [250] VFR_HUD
[22:30:29.479592] [62] RADIO
[22:30:29.482575] [62] RADIO_STATUS
[22:30:30.373785] [251] HEARTBEAT
[22:30:30.380772] [252] SYS_STATUS
[22:30:30.393842] [63] RADIO
[22:30:30.396702] [63] RADIO_STATUS
[22:30:30.619916] [255] ATTITUDE_TARGET
[22:30:30.624739] [0] VFR_HUD
[22:30:30.628607] [1] SYSTEM_TIME
[22:30:31.056759] [2] VFR_HUD
[22:30:31.281858] [3] HEARTBEAT
[22:30:31.394933] [64] RADIO
[22:30:31.397902] [64] RADIO_STATUS
[22:30:31.865863] [4] VFR_HUD
[22:30:32.335063] [5] HEARTBEAT
[22:30:32.342898] [6] ATTITUDE_TARGET
[22:30:32.463028] [65] RADIO
[22:30:32.465952] [65] RADIO_STATUS
[22:30:32.665973] [7] VFR_HUD
[22:30:33.351054] [8] HEARTBEAT
[22:30:33.383108] [66] RADIO
[22:30:33.386025] [66] RADIO_STATUS
[22:30:33.476081] [9] VFR_HUD
[22:30:34.384183] [67] RADIO
[22:30:34.387183] [67] RADIO_STATUS
[22:30:35.085308] [15] VFR_HUD
[22:30:35.315304] [16] HEARTBEAT
[22:30:35.534410] [68] RADIO
[22:30:35.536477] [68] RADIO_STATUS
[22:30:35.884414] [17] VFR_HUD
[22:30:36.270353] [18] HEARTBEAT
[22:30:36.278487] [19] ATTITUDE_TARGET
[22:30:36.453491] [69] RADIO
[22:30:36.456346] [69] RADIO_STATUS
[22:30:36.803546] [20] VFR_HUD
[22:30:37.269556] [21] HEARTBEAT
[22:30:37.373492] [70] RADIO
[22:30:37.376546] [70] RADIO_STATUS
[22:30:37.493549] [22] VFR_HUD
[22:30:38.421750] [23] HEARTBEAT
[22:30:38.427789] [24] SYS_STATUS
[22:30:38.522665] [71] RADIO
[22:30:38.525647] [71] RADIO_STATUS
[22:30:39.441766] [72] RADIO
[22:30:39.444796] [72] RADIO_STATUS
[22:30:39.918030] [30] VFR_HUD
[22:30:40.261815] [31] HEARTBEAT
[22:30:40.269837] [32] ATTITUDE_TARGET
[22:30:40.481846] [73] RADIO
[22:30:40.484851] [73] RADIO_STATUS
[22:30:40.712801] [33] VFR_HUD
[22:30:41.400948] [74] RADIO
[22:30:41.404034] [74] RADIO_STATUS
[22:30:41.521929] [35] VFR_HUD
[22:30:42.431046] [75] RADIO
[22:30:42.434134] [75] RADIO_STATUS
[22:30:43.247155] [41] VFR_HUD
[22:30:43.250416] [42] HEARTBEAT
[22:30:43.580986] [76] RADIO
[22:30:43.583173] [76] RADIO_STATUS
[22:30:43.826155] [43] VFR_HUD
[22:30:44.400360] [44] HEARTBEAT
[22:30:44.407365] [45] ATTITUDE_TARGET
[22:30:44.499314] [77] RADIO
[22:30:44.502279] [77] RADIO_STATUS
[22:30:45.305453] [47] HEARTBEAT
[22:30:45.419419] [78] RADIO
[22:30:45.422409] [78] RADIO_STATUS
[22:30:45.457364] [48] VFR_HUD
[22:30:46.237530] [49] HEARTBEAT
[22:30:46.243453] [50] SYS_STATUS
[22:30:46.520537] [53] VFR_HUD
[22:30:46.567491] [79] RADIO
[22:30:46.570505] [79] RADIO_STATUS
[22:30:47.148613] [54] VFR_HUD
[22:30:47.263551] [55] HEARTBEAT
[22:30:47.487617] [80] RADIO
[22:30:47.490620] [80] RADIO_STATUS
[22:30:47.838620] [56] VFR_HUD
[22:30:48.306666] [57] HEARTBEAT
[22:30:48.314670] [58] ATTITUDE_TARGET
[22:30:48.526654] [81] RADIO
[22:30:48.529690] [81] RADIO_STATUS
[22:30:48.757697] [59] VFR_HUD
[22:30:49.222786] [60] HEARTBEAT
[22:30:49.447906] [61] VFR_HUD
[22:30:49.475011] [82] RADIO
[22:30:49.477940] [82] RADIO_STATUS
[22:30:50.264934] [62] HEARTBEAT
[22:30:50.270885] [63] SYS_STATUS
[22:30:50.476050] [83] RADIO
[22:30:50.478937] [83] RADIO_STATUS
[22:30:51.282158] [70] HEARTBEAT
[22:30:51.517832] [84] RADIO
[22:30:51.518048] [84] RADIO_STATUS
[22:30:51.866108] [71] VFR_HUD
[22:30:52.445116] [72] HEARTBEAT
[22:30:52.452222] [73] ATTITUDE_TARGET
[22:30:52.463106] [85] RADIO
[22:30:52.466074] [85] RADIO_STATUS
[22:30:53.464155] [86] RADIO
[22:30:53.467186] [86] RADIO_STATUS
[22:30:53.514267] [76] VFR_HUD
[22:30:54.282376] [77] HEARTBEAT
[22:30:54.289421] [78] SYS_STATUS
[22:30:54.522436] [80] ATTITUDE_TARGET
[22:30:54.526398] [81] VFR_HUD
[22:30:54.560485] [87] RADIO
[22:30:54.564271] [87] RADIO_STATUS
[22:30:55.194479] [82] VFR_HUD
[22:30:55.310475] [83] HEARTBEAT
[22:30:55.429449] [88] RADIO
[22:30:55.432405] [88] RADIO_STATUS
[22:30:55.884505] [84] VFR_HUD
[22:30:56.453716] [89] RADIO
[22:30:56.456534] [89] RADIO_STATUS
[22:30:56.815569] [87] VFR_HUD
[22:30:57.493801] [89] VFR_HUD
[22:30:57.525613] [90] RADIO
[22:30:57.530564] [90] RADIO_STATUS
[22:30:58.315743] [90] HEARTBEAT
[22:30:58.322723] [91] SYS_STATUS
[22:30:58.362699] [92] BATTERY_STATUS
[22:30:58.369730] [93] ATTITUDE_TARGET
[22:30:58.374684] [94] VFR_HUD
[22:30:58.523711] [91] RADIO
[22:30:58.526789] [91] RADIO_STATUS
[22:30:59.235922] [95] VFR_HUD
[22:30:59.238838] [96] HEARTBEAT
[22:30:59.673894] [92] RADIO
[22:30:59.676851] [92] RADIO_STATUS
[22:30:59.914268] [97] VFR_HUD
[22:31:00.488968] [93] RADIO
[22:31:00.491966] [93] RADIO_STATUS
[22:31:01.399095] [101] HEARTBEAT
[22:31:01.422037] [102] VFR_HUD
[22:31:01.513118] [94] RADIO
[22:31:01.516031] [94] RADIO_STATUS
[22:31:02.226130] [103] HEARTBEAT
[22:31:02.233154] [104] SYS_STATUS
[22:31:02.274046] [105] BATTERY_STATUS
[22:31:02.280175] [106] ATTITUDE_TARGET
[22:31:02.284105] [107] VFR_HUD
[22:31:02.557115] [95] RADIO
[22:31:02.560097] [95] RADIO_STATUS
[22:31:03.248206] [108] VFR_HUD
[22:31:03.251205] [109] HEARTBEAT
[22:31:03.488214] [96] RADIO
[22:31:03.491222] [96] RADIO_STATUS
[22:31:03.827303] [110] VFR_HUD
[22:31:04.501398] [97] RADIO
[22:31:04.504320] [97] RADIO_STATUS
[22:31:04.621417] [113] VFR_HUD
[22:31:05.541536] [115] VFR_HUD
[22:31:05.552414] [98] RADIO
[22:31:05.555825] [98] RADIO_STATUS
[22:31:06.238541] [116] HEARTBEAT
[22:31:06.245545] [117] SYS_STATUS
[22:31:06.365574] [118] BATTERY_STATUS
[22:31:06.488687] [99] RADIO
[22:31:06.491508] [99] RADIO_STATUS
[22:31:07.150672] [121] VFR_HUD
[22:31:07.266705] [122] HEARTBEAT
[22:31:07.489585] [100] RADIO
[22:31:07.492573] [100] RADIO_STATUS
[22:31:07.840678] [123] VFR_HUD
[22:31:08.309758] [124] HEARTBEAT
[22:31:08.317873] [125] ATTITUDE_TARGET
[22:31:08.529806] [101] RADIO
[22:31:08.533972] [101] RADIO_STATUS
[22:31:08.649820] [126] VFR_HUD
[22:31:09.214901] [127] HEARTBEAT
[22:31:09.559355] [102] RADIO
[22:31:09.561835] [102] RADIO_STATUS
[22:31:10.267017] [129] HEARTBEAT
[22:31:10.273004] [130] SYS_STATUS
[22:31:10.394972] [131] BATTERY_STATUS
[22:31:10.396998] [132] EXTENDED_SYS_STATE
[22:31:10.404997] [133] ATTITUDE_TARGET
[22:31:10.408930] [134] VFR_HUD
[22:31:10.413027] [135] SYSTEM_TIME
[22:31:10.708065] [103] RADIO
[22:31:10.711054] [103] RADIO_STATUS
[22:31:11.284157] [137] HEARTBEAT
[22:31:11.518105] [104] RADIO
[22:31:11.521026] [104] RADIO_STATUS
[22:31:11.868165] [138] VFR_HUD
[22:31:12.547349] [105] RADIO
[22:31:12.550310] [105] RADIO_STATUS
[22:31:12.668302] [141] VFR_HUD
[22:31:13.243410] [142] HEARTBEAT
[22:31:13.587396] [143] VFR_HUD
[22:31:13.598540] [106] RADIO
[22:31:13.601372] [106] RADIO_STATUS
[22:31:14.285508] [144] HEARTBEAT
[22:31:14.293786] [145] SYS_STATUS
[22:31:14.406435] [146] BATTERY_STATUS
[22:31:14.534495] [107] RADIO
[22:31:14.537402] [107] RADIO_STATUS
[22:31:14.753500] [147] ATTITUDE_TARGET
[22:31:14.758486] [148] VFR_HUD
[22:31:15.196535] [149] VFR_HUD
[22:31:15.311551] [150] HEARTBEAT
[22:31:15.535541] [108] RADIO
[22:31:15.538537] [108] RADIO_STATUS
[22:31:15.888503] [151] VFR_HUD
[22:31:16.355011] [152] HEARTBEAT
[22:31:16.362837] [153] ATTITUDE_TARGET
[22:31:16.575695] [109] RADIO
[22:31:16.578766] [109] RADIO_STATUS
[22:31:16.700803] [154] VFR_HUD
[22:31:17.260807] [155] HEARTBEAT
[22:31:17.496660] [156] VFR_HUD
[22:31:17.604895] [110] RADIO
[22:31:17.607841] [110] RADIO_STATUS
[22:31:18.313060] [157] HEARTBEAT
[22:31:18.318860] [158] SYS_STATUS
[22:31:18.437935] [159] BATTERY_STATUS
[22:31:18.446584] [160] ATTITUDE_TARGET
[22:31:18.475890] [161] VFR_HUD
[22:31:18.643923] [111] RADIO
[22:31:18.647093] [111] RADIO_STATUS
[22:31:19.569074] [112] RADIO
[22:31:19.572042] [112] RADIO_STATUS
[22:31:19.926097] [164] VFR_HUD
[22:31:20.593145] [113] RADIO
[22:31:20.596142] [113] RADIO_STATUS
[22:31:20.632196] [167] VFR_HUD
[22:31:21.294189] [168] HEARTBEAT
[22:31:21.638238] [114] RADIO
[22:31:21.641257] [114] RADIO_STATUS
[22:31:22.226289] [170] HEARTBEAT
[22:31:22.233286] [171] SYS_STATUS
[22:31:22.662545] [115] RADIO
[22:31:22.665371] [115] RADIO_STATUS
[22:31:23.013941] [175] VFR_HUD
[22:31:23.238438] [176] HEARTBEAT
[22:31:23.582528] [116] RADIO
[22:31:23.584438] [116] RADIO_STATUS
[22:31:23.932538] [177] VFR_HUD
[22:31:24.622800] [180] VFR_HUD
[22:31:24.654853] [117] RADIO
[22:31:24.657657] [117] RADIO_STATUS
[22:31:25.316830] [181] HEARTBEAT
[22:31:25.650710] [118] RADIO
[22:31:25.653668] [118] RADIO_STATUS
[22:31:26.238844] [183] HEARTBEAT
[22:31:26.245769] [184] SYS_STATUS
[22:31:26.365821] [185] BATTERY_STATUS
[22:31:26.477914] [186] ATTITUDE_TARGET
[22:31:26.482800] [187] VFR_HUD
[22:31:26.695886] [119] RADIO
[22:31:26.698828] [119] RADIO_STATUS
[22:31:27.040937] [188] VFR_HUD
[22:31:27.609925] [120] RADIO
[22:31:27.612906] [120] RADIO_STATUS
[22:31:28.640057] [121] RADIO
[22:31:28.643097] [121] RADIO_STATUS
[22:31:28.761175] [193] VFR_HUD
[22:31:29.216542] [194] HEARTBEAT
[22:31:29.686114] [122] RADIO
[22:31:29.688185] [122] RADIO_STATUS
[22:31:30.396357] [198] BATTERY_STATUS
[22:31:30.397274] [199] EXTENDED_SYS_STATE
[22:31:30.405296] [200] ATTITUDE_TARGET
[22:31:30.410299] [201] VFR_HUD
[22:31:30.414316] [202] SYSTEM_TIME
[22:31:30.709307] [123] RADIO
[22:31:30.712213] [123] RADIO_STATUS
[22:31:31.059457] [203] VFR_HUD
[22:31:31.294487] [204] HEARTBEAT
[22:31:31.628381] [124] RADIO
[22:31:31.631499] [124] RADIO_STATUS
[22:31:31.978478] [205] VFR_HUD
[22:31:32.204589] [206] HEARTBEAT
[22:31:32.228871] [207] ATTITUDE_TARGET
[22:31:32.668509] [208] VFR_HUD
[22:31:32.696708] [125] RADIO
[22:31:32.698530] [125] RADIO_STATUS
[22:31:33.265306] [209] HEARTBEAT
[22:31:33.697724] [126] RADIO
[22:31:33.700875] [126] RADIO_STATUS
[22:31:34.285773] [211] HEARTBEAT
[22:31:34.292733] [212] SYS_STATUS
[22:31:34.412762] [213] BATTERY_STATUS
[22:31:34.524688] [214] ATTITUDE_TARGET
[22:31:34.529890] [215] VFR_HUD
[22:31:34.736748] [127] RADIO
[22:31:34.741018] [127] RADIO_STATUS
[22:31:35.092794] [216] VFR_HUD
[22:31:35.656928] [128] RADIO
[22:31:35.661466] [128] RADIO_STATUS
[22:31:35.888088] [218] VFR_HUD
[22:31:36.247104] [219] HEARTBEAT
[22:31:36.253961] [220] ATTITUDE_TARGET
[22:31:36.685917] [129] RADIO
[22:31:36.688937] [129] RADIO_STATUS
[22:31:36.807533] [221] VFR_HUD
[22:31:37.262006] [222] HEARTBEAT
[22:31:37.724984] [130] RADIO
[22:31:37.729200] [130] RADIO_STATUS
[22:31:38.439197] [226] BATTERY_STATUS
[22:31:38.447165] [227] ATTITUDE_TARGET
[22:31:38.477096] [228] VFR_HUD
[22:31:38.755093] [131] RADIO
[22:31:38.758204] [131] RADIO_STATUS
[22:31:39.105205] [229] VFR_HUD
[22:31:39.674346] [132] RADIO
[22:31:39.677278] [132] RADIO_STATUS
[22:31:40.264292] [232] HEARTBEAT
[22:31:40.272394] [233] ATTITUDE_TARGET
[22:31:40.714386] [234] VFR_HUD
[22:31:40.741917] [133] RADIO
[22:31:40.744375] [133] RADIO_STATUS
[22:31:41.289466] [235] HEARTBEAT
[22:31:41.645504] [236] VFR_HUD
[22:31:41.666592] [134] RADIO
[22:31:41.669439] [134] RADIO_STATUS
[22:31:42.662588] [135] RADIO
[22:31:42.665511] [135] RADIO_STATUS
[22:31:43.013819] [242] VFR_HUD
[22:31:43.813816] [136] RADIO
[22:31:43.814686] [136] RADIO_STATUS
[22:31:44.297005] [245] HEARTBEAT
[22:31:44.304778] [246] ATTITUDE_TARGET
[22:31:44.622800] [247] VFR_HUD
[22:31:44.731799] [137] RADIO
[22:31:44.734883] [137] RADIO_STATUS
[22:31:45.307965] [248] HEARTBEAT
[22:31:45.431913] [249] VFR_HUD
[22:31:45.776953] [138] RADIO
[22:31:45.779967] [138] RADIO_STATUS
[22:31:46.240065] [250] HEARTBEAT
[22:31:46.246025] [251] SYS_STATUS
[22:31:46.478120] [253] ATTITUDE_TARGET
[22:31:46.483054] [254] VFR_HUD
[22:31:46.801022] [139] RADIO
[22:31:46.804563] [139] RADIO_STATUS
[22:31:47.041057] [255] VFR_HUD
[22:31:47.386353] [0] HEARTBEAT
[22:31:47.720185] [140] RADIO
[22:31:47.723282] [140] RADIO_STATUS
[22:31:48.310218] [2] HEARTBEAT
[22:31:48.318198] [3] ATTITUDE_TARGET
[22:31:48.650182] [4] VFR_HUD
[22:31:48.764279] [141] RADIO
[22:31:48.767249] [141] RADIO_STATUS
[22:31:49.215320] [5] HEARTBEAT
[22:31:49.449305] [6] VFR_HUD
[22:31:49.788482] [142] RADIO
[22:31:49.791308] [142] RADIO_STATUS
[22:31:50.708445] [143] RADIO
[22:31:50.710522] [143] RADIO_STATUS
[22:31:51.058490] [14] VFR_HUD
[22:31:51.752471] [144] RADIO
[22:31:51.755446] [144] RADIO_STATUS
[22:31:52.203639] [17] HEARTBEAT
[22:31:52.341568] [18] ATTITUDE_TARGET
[22:31:52.667594] [19] VFR_HUD
[22:31:52.777653] [145] RADIO
[22:31:52.779606] [145] RADIO_STATUS
[22:31:53.243713] [20] HEARTBEAT
[22:31:53.482783] [21] VFR_HUD
[22:31:53.821696] [146] RADIO
[22:31:53.824787] [146] RADIO_STATUS
[22:31:54.284786] [22] HEARTBEAT
[22:31:54.291772] [23] SYS_STATUS
[22:31:54.523845] [25] ATTITUDE_TARGET
[22:31:54.529908] [26] VFR_HUD
[22:31:54.735834] [147] RADIO
[22:31:54.738812] [147] RADIO_STATUS
[22:31:55.086853] [27] VFR_HUD
[22:31:55.765860] [148] RADIO
[22:31:55.768902] [148] RADIO_STATUS
[22:31:55.887108] [29] VFR_HUD
[22:31:56.245096] [30] HEARTBEAT
[22:31:56.253136] [31] ATTITUDE_TARGET
[22:31:56.697854] [32] VFR_HUD
[22:31:56.805014] [149] RADIO
[22:31:56.808042] [149] RADIO_STATUS
[22:31:57.261114] [33] HEARTBEAT
[22:31:57.496296] [34] VFR_HUD
[22:31:57.834161] [150] RADIO
[22:31:57.837213] [150] RADIO_STATUS
[22:31:58.438268] [37] BATTERY_STATUS
[22:31:58.446296] [38] ATTITUDE_TARGET
[22:31:58.476324] [39] VFR_HUD
[22:31:58.754252] [151] RADIO
[22:31:58.757750] [151] RADIO_STATUS
[22:31:59.105256] [40] VFR_HUD
[22:31:59.220298] [41] HEARTBEAT
[22:31:59.793456] [152] RADIO
[22:31:59.796405] [152] RADIO_STATUS
[22:32:00.024446] [42] VFR_HUD
[22:32:00.263484] [43] HEARTBEAT
[22:32:00.271532] [44] ATTITUDE_TARGET
[22:32:00.714510] [45] VFR_HUD
[22:32:00.741525] [153] RADIO
[22:32:00.748033] [153] RADIO_STATUS
[22:32:01.289553] [46] HEARTBEAT
[22:32:01.529534] [47] VFR_HUD
[22:32:01.742622] [154] RADIO
[22:32:01.747862] [154] RADIO_STATUS
[22:32:02.331241] [48] HEARTBEAT
[22:32:02.337756] [49] SYS_STATUS
[22:32:02.569820] [51] ATTITUDE_TARGET
[22:32:02.574728] [52] VFR_HUD
[22:32:02.892778] [155] RADIO
[22:32:02.895882] [155] RADIO_STATUS
[22:32:03.012774] [53] VFR_HUD
[22:32:03.238754] [54] HEARTBEAT
[22:32:03.811826] [156] RADIO
[22:32:03.814816] [156] RADIO_STATUS
[22:32:04.291899] [56] HEARTBEAT
[22:32:04.298967] [57] ATTITUDE_TARGET
[22:32:04.851002] [157] RADIO
[22:32:04.853931] [157] RADIO_STATUS
[22:32:05.432125] [60] VFR_HUD
[22:32:05.881046] [158] RADIO
[22:32:05.884040] [158] RADIO_STATUS
[22:32:06.478214] [64] ATTITUDE_TARGET
[22:32:06.485596] [65] VFR_HUD
[22:32:06.800124] [159] RADIO
[22:32:06.803264] [159] RADIO_STATUS
[22:32:07.041195] [66] VFR_HUD
[22:32:07.272266] [67] HEARTBEAT
[22:32:07.840297] [68] VFR_HUD
[22:32:07.867289] [160] RADIO
[22:32:07.870345] [160] RADIO_STATUS
[22:32:08.309384] [69] HEARTBEAT
[22:32:08.317385] [70] ATTITUDE_TARGET
[22:32:08.760554] [71] VFR_HUD
[22:32:08.776394] [161] RADIO
[22:32:08.779356] [161] RADIO_STATUS
[22:32:09.225511] [72] HEARTBEAT
[22:32:09.450386] [73] VFR_HUD
[22:32:09.789421] [162] RADIO
[22:32:09.792400] [162] RADIO_STATUS
[22:32:10.622528] [78] ATTITUDE_TARGET
[22:32:10.627672] [79] VFR_HUD
[22:32:10.631489] [80] SYSTEM_TIME
[22:32:10.938634] [163] RADIO
[22:32:10.941453] [163] RADIO_STATUS
[22:32:11.059490] [81] VFR_HUD
[22:32:11.284574] [82] HEARTBEAT
[22:32:11.858620] [164] RADIO
[22:32:11.861982] [164] RADIO_STATUS
[22:32:11.896663] [83] VFR_HUD
[22:32:12.204606] [84] HEARTBEAT
[22:32:12.232616] [85] ATTITUDE_TARGET
[22:32:12.680975] [86] VFR_HUD
[22:32:12.902802] [165] RADIO
[22:32:12.905694] [165] RADIO_STATUS
[22:32:13.354929] [87] HEARTBEAT
[22:32:13.478908] [88] VFR_HUD
[22:32:13.822897] [166] RADIO
[22:32:13.825777] [166] RADIO_STATUS
[22:32:14.524940] [92] ATTITUDE_TARGET
[22:32:14.529794] [93] VFR_HUD
[22:32:14.846934] [167] RADIO
[22:32:14.849992] [167] RADIO_STATUS
[22:32:15.099840] [94] VFR_HUD
[22:32:15.319100] [95] HEARTBEAT
[22:32:15.888078] [96] VFR_HUD
[22:32:15.920035] [168] RADIO
[22:32:15.923041] [168] RADIO_STATUS
[22:32:16.356158] [97] HEARTBEAT
[22:32:16.364362] [98] ATTITUDE_TARGET
[22:32:16.697100] [99] VFR_HUD
[22:32:16.917136] [169] RADIO
[22:32:16.919119] [169] RADIO_STATUS
[22:32:17.265863] [100] HEARTBEAT
[22:32:17.497330] [101] VFR_HUD
[22:32:17.836198] [170] RADIO
[22:32:17.839215] [170] RADIO_STATUS
[22:32:18.663445] [105] ATTITUDE_TARGET
[22:32:18.668416] [106] VFR_HUD
[22:32:18.985481] [171] RADIO
[22:32:18.988340] [171] RADIO_STATUS
[22:32:19.024408] [107] VFR_HUD
[22:32:19.221408] [108] HEARTBEAT
[22:32:19.905500] [172] RADIO
[22:32:19.908440] [172] RADIO_STATUS
[22:32:19.943434] [109] VFR_HUD
[22:32:20.265573] [110] HEARTBEAT
[22:32:20.273451] [111] ATTITUDE_TARGET
[22:32:20.949924] [173] RADIO
[22:32:20.952597] [173] RADIO_STATUS
[22:32:21.290746] [113] HEARTBEAT
[22:32:21.530651] [114] VFR_HUD
[22:32:21.864839] [174] RADIO
[22:32:21.867745] [174] RADIO_STATUS
[22:32:22.210748] [115] HEARTBEAT
[22:32:22.229732] [116] SYS_STATUS
[22:32:22.273892] [117] BATTERY_STATUS
[22:32:22.281763] [118] ATTITUDE_TARGET
[22:32:22.286693] [119] VFR_HUD
[22:32:22.895723] [175] RADIO
[22:32:22.897709] [175] RADIO_STATUS
[22:32:23.251875] [120] VFR_HUD
[22:32:23.254890] [121] HEARTBEAT
[22:32:23.825934] [122] VFR_HUD
[22:32:23.934903] [176] RADIO
[22:32:23.937903] [176] RADIO_STATUS
[22:32:24.404185] [123] HEARTBEAT
[22:32:24.413924] [124] ATTITUDE_TARGET
[22:32:24.853999] [177] RADIO
[22:32:24.857021] [177] RADIO_STATUS
[22:32:25.446180] [127] VFR_HUD
[22:32:25.884139] [178] RADIO
[22:32:25.887109] [178] RADIO_STATUS
[22:32:26.519266] [130] BATTERY_STATUS
[22:32:26.527243] [131] ATTITUDE_TARGET
[22:32:26.532212] [132] VFR_HUD
[22:32:27.033306] [179] RADIO
[22:32:27.036293] [179] RADIO_STATUS
[22:32:27.269335] [134] HEARTBEAT
[22:32:27.843375] [135] VFR_HUD
[22:32:27.870441] [180] RADIO
[22:32:27.873340] [180] RADIO_STATUS
[22:32:28.312405] [136] HEARTBEAT
[22:32:28.321888] [137] ATTITUDE_TARGET
[22:32:28.762617] [138] VFR_HUD
[22:32:28.871446] [181] RADIO
[22:32:28.874471] [181] RADIO_STATUS
[22:32:29.451558] [140] VFR_HUD
[22:32:30.020647] [182] RADIO
[22:32:30.023646] [182] RADIO_STATUS
[22:32:30.269231] [141] HEARTBEAT
[22:32:30.275628] [142] SYS_STATUS
[22:32:30.939762] [183] RADIO
[22:32:30.942726] [183] RADIO_STATUS
[22:32:31.060717] [148] VFR_HUD
[22:32:31.286795] [149] HEARTBEAT
[22:32:31.870851] [150] VFR_HUD
[22:32:31.979884] [184] RADIO
[22:32:31.984238] [184] RADIO_STATUS
[22:32:32.210855] [151] HEARTBEAT
[22:32:32.900169] [185] RADIO
[22:32:32.901930] [185] RADIO_STATUS
[22:32:33.356065] [154] HEARTBEAT
[22:32:33.490952] [155] VFR_HUD
[22:32:33.929090] [186] RADIO
[22:32:33.932047] [186] RADIO_STATUS
[22:32:34.582248] [160] VFR_HUD
[22:32:35.077126] [187] RADIO
[22:32:35.080152] [187] RADIO_STATUS
[22:32:35.198207] [161] VFR_HUD
[22:32:35.216131] [162] HEARTBEAT
[22:32:35.888289] [163] VFR_HUD
[22:32:35.920324] [188] RADIO
[22:32:35.923170] [188] RADIO_STATUS
[22:32:36.274344] [164] HEARTBEAT
[22:32:36.282280] [165] ATTITUDE_TARGET
[22:32:36.807331] [166] VFR_HUD
[22:32:36.917905] [189] RADIO
[22:32:36.919276] [189] RADIO_STATUS
[22:32:37.501873] [168] VFR_HUD
[22:32:37.965773] [190] RADIO
[22:32:37.965919] [190] RADIO_STATUS
[22:32:38.319468] [169] HEARTBEAT
[22:32:38.326503] [170] SYS_STATUS
[22:32:38.365449] [171] BATTERY_STATUS
[22:32:38.373648] [172] ATTITUDE_TARGET
[22:32:38.378405] [173] VFR_HUD
[22:32:38.987553] [191] RADIO
[22:32:38.990458] [191] RADIO_STATUS
[22:32:39.343627] [174] VFR_HUD
[22:32:39.346585] [175] HEARTBEAT
[22:32:39.906738] [192] RADIO
[22:32:39.909687] [192] RADIO_STATUS
[22:32:39.945843] [176] VFR_HUD
[22:32:40.607759] [179] VFR_HUD
[22:32:40.951831] [193] RADIO
[22:32:40.954780] [193] RADIO_STATUS
[22:32:41.402877] [180] HEARTBEAT
[22:32:41.425892] [181] VFR_HUD
[22:32:41.975926] [194] RADIO
[22:32:41.978970] [194] RADIO_STATUS
[22:32:42.212018] [182] HEARTBEAT
[22:32:42.232081] [183] SYS_STATUS
[22:32:42.275977] [184] BATTERY_STATUS
[22:32:42.282927] [185] ATTITUDE_TARGET
[22:32:42.287969] [186] VFR_HUD
[22:32:43.126034] [195] RADIO
[22:32:43.129066] [195] RADIO_STATUS
[22:32:43.252005] [187] VFR_HUD
[22:32:43.255020] [188] HEARTBEAT
[22:32:43.826104] [189] VFR_HUD
[22:32:43.935087] [196] RADIO
[22:32:43.938070] [196] RADIO_STATUS
[22:32:44.404245] [190] HEARTBEAT
[22:32:44.412173] [191] ATTITUDE_TARGET
[22:32:44.625234] [192] VFR_HUD
[22:32:44.965333] [197] RADIO
[22:32:44.967341] [197] RADIO_STATUS
[22:32:45.201318] [193] HEARTBEAT
[22:32:45.440354] [194] VFR_HUD
[22:32:46.009502] [198] RADIO
[22:32:46.012392] [198] RADIO_STATUS
[22:32:46.242692] [195] HEARTBEAT
[22:32:46.249426] [196] SYS_STATUS
[22:32:46.363438] [197] BATTERY_STATUS
[22:32:46.710646] [198] ATTITUDE_TARGET
[22:32:46.715408] [199] VFR_HUD
[22:32:47.033491] [199] RADIO
[22:32:47.036477] [199] RADIO_STATUS
[22:32:47.154473] [200] VFR_HUD
[22:32:47.269533] [201] HEARTBEAT
[22:32:47.844610] [202] VFR_HUD
[22:32:47.953573] [200] RADIO
[22:32:47.956701] [200] RADIO_STATUS
[22:32:48.313606] [203] HEARTBEAT
[22:32:48.321620] [204] ATTITUDE_TARGET
[22:32:48.653652] [205] VFR_HUD
[22:32:48.992640] [201] RADIO
[22:32:48.997162] [201] RADIO_STATUS
[22:32:49.218702] [206] HEARTBEAT
[22:32:49.453890] [207] VFR_HUD
[22:32:50.021839] [202] RADIO
[22:32:50.024904] [202] RADIO_STATUS
[22:32:50.269853] [208] HEARTBEAT
[22:32:50.276788] [209] SYS_STATUS
[22:32:50.397863] [210] BATTERY_STATUS
[22:32:50.399812] [211] EXTENDED_SYS_STATE
[22:32:50.407886] [212] ATTITUDE_TARGET
[22:32:50.412837] [213] VFR_HUD
[22:32:50.415850] [214] SYSTEM_TIME
[22:32:51.171849] [203] RADIO
[22:32:51.174895] [203] RADIO_STATUS
[22:32:51.872062] [217] VFR_HUD
[22:32:51.981018] [204] RADIO
[22:32:51.983944] [204] RADIO_STATUS
[22:32:52.671138] [220] VFR_HUD
[22:32:53.011081] [205] RADIO
[22:32:53.014156] [205] RADIO_STATUS
[22:32:53.247170] [221] HEARTBEAT
[22:32:54.160189] [206] RADIO
[22:32:54.164796] [206] RADIO_STATUS
[22:32:54.288298] [223] HEARTBEAT
[22:32:54.295253] [224] SYS_STATUS
[22:32:54.410225] [225] BATTERY_STATUS
[22:32:54.756337] [226] ATTITUDE_TARGET
[22:32:54.761311] [227] VFR_HUD
[22:32:55.081771] [207] RADIO
[22:32:55.082368] [207] RADIO_STATUS
[22:32:55.238412] [229] HEARTBEAT
[22:32:55.890426] [230] VFR_HUD
[22:32:56.000321] [208] RADIO
[22:32:56.002451] [208] RADIO_STATUS
[22:32:56.704552] [233] VFR_HUD
[22:32:57.038564] [209] RADIO
[22:32:57.041471] [209] RADIO_STATUS
[22:32:57.264669] [234] HEARTBEAT
[22:32:57.499765] [235] VFR_HUD
[22:32:58.067607] [210] RADIO
[22:32:58.070577] [210] RADIO_STATUS
[22:32:58.320905] [236] HEARTBEAT
[22:32:58.327804] [237] SYS_STATUS
[22:32:58.367739] [238] BATTERY_STATUS
[22:32:58.374685] [239] ATTITUDE_TARGET
[22:32:58.379738] [240] VFR_HUD
[22:32:59.217902] [211] RADIO
[22:32:59.219757] [211] RADIO_STATUS
[22:32:59.918032] [243] VFR_HUD
[22:33:00.031894] [212] RADIO
[22:33:00.034854] [212] RADIO_STATUS
[22:33:00.607044] [246] VFR_HUD
[22:33:01.056026] [213] RADIO
[22:33:01.059105] [213] RADIO_STATUS
[22:33:01.298063] [247] HEARTBEAT
[22:33:02.206140] [214] RADIO
[22:33:02.209127] [214] RADIO_STATUS
[22:33:02.342198] [252] ATTITUDE_TARGET
[22:33:02.347320] [253] VFR_HUD
[22:33:03.016424] [254] VFR_HUD
[22:33:03.048244] [215] RADIO
[22:33:03.051191] [215] RADIO_STATUS
[22:33:03.935331] [0] VFR_HUD
[22:33:04.048841] [216] RADIO
[22:33:04.048977] [216] RADIO_STATUS
[22:33:04.404433] [1] HEARTBEAT
[22:33:04.412482] [2] ATTITUDE_TARGET
[22:33:04.625449] [3] VFR_HUD
[22:33:05.089464] [217] RADIO
[22:33:05.092555] [217] RADIO_STATUS
[22:33:05.200513] [4] HEARTBEAT
[22:33:06.113784] [218] RADIO
[22:33:06.117890] [218] RADIO_STATUS
[22:33:06.241675] [6] HEARTBEAT
[22:33:06.248594] [7] SYS_STATUS
[22:33:06.368673] [8] BATTERY_STATUS
[22:33:06.480603] [9] ATTITUDE_TARGET
[22:33:06.485631] [10] VFR_HUD
[22:33:07.049750] [11] VFR_HUD
[22:33:07.263669] [219] RADIO
[22:33:07.266674] [219] RADIO_STATUS
[22:33:07.379778] [12] HEARTBEAT
[22:33:08.077898] [220] RADIO
[22:33:08.080953] [220] RADIO_STATUS
[22:33:08.653171] [16] VFR_HUD
[22:33:09.101944] [221] RADIO
[22:33:09.105000] [221] RADIO_STATUS
[22:33:09.218937] [17] HEARTBEAT
[22:33:10.147058] [222] RADIO
[22:33:10.150065] [222] RADIO_STATUS
[22:33:10.398115] [21] BATTERY_STATUS
[22:33:10.400107] [22] EXTENDED_SYS_STATE
[22:33:10.408105] [23] ATTITUDE_TARGET
[22:33:10.413141] [24] VFR_HUD
[22:33:10.417799] [25] SYSTEM_TIME
[22:33:11.062076] [26] VFR_HUD
[22:33:11.094151] [223] RADIO
[22:33:11.097113] [223] RADIO_STATUS
[22:33:11.872270] [28] VFR_HUD
[22:33:12.091272] [224] RADIO
[22:33:12.094220] [224] RADIO_STATUS
[22:33:12.207290] [29] HEARTBEAT
[22:33:12.230286] [30] ATTITUDE_TARGET
[22:33:12.673433] [31] VFR_HUD
[22:33:13.135503] [225] RADIO
[22:33:13.138365] [225] RADIO_STATUS
[22:33:13.247114] [32] HEARTBEAT
[22:33:13.591482] [33] VFR_HUD
[22:33:14.159686] [226] RADIO
[22:33:14.162469] [226] RADIO_STATUS
[22:33:14.287536] [34] HEARTBEAT
[22:33:14.294605] [35] SYS_STATUS
[22:33:14.409591] [36] BATTERY_STATUS
[22:33:14.526608] [37] ATTITUDE_TARGET
[22:33:14.531624] [38] VFR_HUD
[22:33:15.096296] [39] VFR_HUD
[22:33:15.309660] [227] RADIO
[22:33:15.312584] [227] RADIO_STATUS
[22:33:15.901943] [41] VFR_HUD
[22:33:16.118737] [228] RADIO
[22:33:16.121932] [228] RADIO_STATUS
[22:33:16.253806] [42] HEARTBEAT
[22:33:16.261757] [43] ATTITUDE_TARGET
[22:33:16.703749] [44] VFR_HUD
[22:33:17.147852] [229] RADIO
[22:33:17.150801] [229] RADIO_STATUS
[22:33:17.263860] [45] HEARTBEAT
[22:33:18.300953] [230] RADIO
[22:33:18.303998] [230] RADIO_STATUS
[22:33:18.433920] [50] ATTITUDE_TARGET
[22:33:18.439061] [51] VFR_HUD
[22:33:19.108086] [52] VFR_HUD
[22:33:19.135014] [231] RADIO
[22:33:19.138009] [231] RADIO_STATUS
[22:33:20.136149] [232] RADIO
[22:33:20.139128] [232] RADIO_STATUS
[22:33:20.266210] [55] HEARTBEAT
[22:33:20.274330] [56] ATTITUDE_TARGET
[22:33:20.717211] [57] VFR_HUD
[22:33:21.176912] [233] RADIO
[22:33:21.179322] [233] RADIO_STATUS
[22:33:21.297290] [58] HEARTBEAT
[22:33:21.406358] [59] VFR_HUD
[22:33:22.205463] [234] RADIO
[22:33:22.208425] [234] RADIO_STATUS
[22:33:22.265428] [60] HEARTBEAT
[22:33:22.272438] [61] SYS_STATUS
[22:33:22.279373] [62] BATTERY_STATUS
[22:33:22.293149] [63] ATTITUDE_TARGET
[22:33:22.297371] [64] VFR_HUD
[22:33:23.016485] [65] VFR_HUD
[22:33:23.355500] [235] RADIO
[22:33:23.358480] [235] RADIO_STATUS
[22:33:24.164597] [236] RADIO
[22:33:24.167694] [236] RADIO_STATUS
[22:33:24.299915] [68] HEARTBEAT
[22:33:24.307634] [69] ATTITUDE_TARGET
[22:33:24.625552] [70] VFR_HUD
[22:33:25.194653] [237] RADIO
[22:33:25.197639] [237] RADIO_STATUS
[22:33:25.230387] [71] HEARTBEAT
[22:33:25.434790] [72] VFR_HUD
[22:33:26.343803] [238] RADIO
[22:33:26.346982] [238] RADIO_STATUS
[22:33:27.262874] [239] RADIO
[22:33:27.265825] [239] RADIO_STATUS
[22:33:28.182937] [240] RADIO
[22:33:28.185907] [240] RADIO_STATUS
[22:33:28.313948] [81] HEARTBEAT
[22:33:28.321026] [82] ATTITUDE_TARGET
[22:33:29.219136] [84] HEARTBEAT
[22:33:29.332123] [241] RADIO
[22:33:29.335051] [241] RADIO_STATUS
[22:33:29.453044] [85] VFR_HUD
[22:33:30.252169] [242] RADIO
[22:33:30.255112] [242] RADIO_STATUS
[22:33:30.380228] [86] HEARTBEAT
[22:33:30.387432] [87] SYS_STATUS
[22:33:30.510213] [88] BATTERY_STATUS
[22:33:30.511247] [89] EXTENDED_SYS_STATE
[22:33:30.543349] [90] ATTITUDE_TARGET
[22:33:30.548108] [91] VFR_HUD
[22:33:30.552140] [92] SYSTEM_TIME
[22:33:31.062283] [93] VFR_HUD
[22:33:31.402013] [243] RADIO
[22:33:31.404323] [243] RADIO_STATUS
[22:33:32.207352] [96] HEARTBEAT
[22:33:32.229973] [97] ATTITUDE_TARGET
[22:33:32.260354] [244] RADIO
[22:33:32.262362] [244] RADIO_STATUS
[22:33:32.671422] [98] VFR_HUD
[22:33:33.243532] [245] RADIO
[22:33:33.246517] [245] RADIO_STATUS
[22:33:33.283611] [99] HEARTBEAT
[22:33:33.485449] [100] VFR_HUD
[22:33:34.307583] [246] RADIO
[22:33:34.310714] [246] RADIO_STATUS
[22:33:34.527653] [104] ATTITUDE_TARGET
[22:33:34.531639] [105] VFR_HUD
[22:33:35.095622] [106] VFR_HUD
[22:33:35.206604] [107] HEARTBEAT
[22:33:35.237646] [247] RADIO
[22:33:35.240581] [247] RADIO_STATUS
[22:33:36.228771] [248] RADIO
[22:33:36.231742] [248] RADIO_STATUS
[22:33:36.358780] [109] HEARTBEAT
[22:33:36.366812] [110] ATTITUDE_TARGET
[22:33:36.699844] [111] VFR_HUD
[22:33:37.264863] [112] HEARTBEAT
[22:33:37.296256] [249] RADIO
[22:33:37.298945] [249] RADIO_STATUS
[22:33:37.498937] [113] VFR_HUD
[22:33:38.298180] [250] RADIO
[22:33:38.301060] [250] RADIO_STATUS
[22:33:38.425957] [114] HEARTBEAT
[22:33:38.433219] [115] SYS_STATUS
[22:33:38.553102] [116] BATTERY_STATUS
[22:33:38.665008] [117] ATTITUDE_TARGET
[22:33:38.669966] [118] VFR_HUD
[22:33:39.108001] [119] VFR_HUD
[22:33:39.229161] [120] HEARTBEAT
[22:33:39.447112] [251] RADIO
[22:33:39.450034] [251] RADIO_STATUS
[22:33:40.027161] [121] VFR_HUD
[22:33:40.266171] [122] HEARTBEAT
[22:33:40.274168] [123] ATTITUDE_TARGET
[22:33:40.284181] [252] RADIO
[22:33:40.287118] [252] RADIO_STATUS
[22:33:40.717222] [124] VFR_HUD
[22:33:41.286267] [253] RADIO
[22:33:41.289257] [253] RADIO_STATUS
[22:33:41.410500] [125] HEARTBEAT
[22:33:41.415315] [126] VFR_HUD
[22:33:42.435446] [254] RADIO
[22:33:42.438355] [254] RADIO_STATUS
[22:33:43.017858] [132] VFR_HUD
[22:33:43.241504] [133] HEARTBEAT
[22:33:43.354509] [255] RADIO
[22:33:43.357481] [255] RADIO_STATUS
[22:33:43.830547] [134] VFR_HUD
[22:33:44.274589] [0] RADIO
[22:33:44.277741] [0] RADIO_STATUS
[22:33:44.322598] [135] HEARTBEAT
[22:33:44.329608] [136] ATTITUDE_TARGET
[22:33:45.216354] [138] HEARTBEAT
[22:33:45.313741] [1] RADIO
[22:33:45.318129] [1] RADIO_STATUS
[22:33:45.434925] [139] VFR_HUD
[22:33:46.343881] [2] RADIO
[22:33:46.346802] [2] RADIO_STATUS
[22:33:47.284929] [145] VFR_HUD
[22:33:47.287912] [146] HEARTBEAT
[22:33:47.493060] [3] RADIO
[22:33:47.495906] [3] RADIO_STATUS
[22:33:47.843998] [147] VFR_HUD
[22:33:48.313074] [148] HEARTBEAT
[22:33:48.321009] [149] ATTITUDE_TARGET
[22:33:48.416069] [4] RADIO
[22:33:48.419056] [4] RADIO_STATUS
[22:33:48.652982] [150] VFR_HUD
[22:33:49.332101] [5] RADIO
[22:33:49.335013] [5] RADIO_STATUS
[22:33:49.453168] [152] VFR_HUD
[22:33:50.385791] [153] HEARTBEAT
[22:33:50.387394] [154] SYS_STATUS
[22:33:50.482322] [6] RADIO
[22:33:50.485334] [6] RADIO_STATUS
[22:33:51.298750] [160] VFR_HUD
[22:33:51.300414] [161] HEARTBEAT
[22:33:51.308678] [7] RADIO
[22:33:51.311332] [7] RADIO_STATUS
[22:33:51.877918] [162] VFR_HUD
[22:33:52.207510] [163] HEARTBEAT
[22:33:52.230454] [164] ATTITUDE_TARGET
[22:33:52.321471] [8] RADIO
[22:33:52.324458] [8] RADIO_STATUS
[22:33:52.683623] [165] VFR_HUD
[22:33:53.359745] [9] RADIO
[22:33:53.362674] [9] RADIO_STATUS
[22:33:53.485799] [167] VFR_HUD
[22:33:54.388736] [10] RADIO
[22:33:54.391732] [10] RADIO_STATUS
[22:33:54.458819] [170] BATTERY_STATUS
[22:33:54.466803] [171] ATTITUDE_TARGET
[22:33:54.471706] [172] VFR_HUD
[22:33:55.326005] [173] VFR_HUD
[22:33:55.329936] [174] HEARTBEAT
[22:33:55.538867] [11] RADIO
[22:33:55.541905] [11] RADIO_STATUS
[22:33:55.890068] [175] VFR_HUD
[22:33:56.358244] [176] HEARTBEAT
[22:33:56.366003] [177] ATTITUDE_TARGET
[22:33:56.458175] [12] RADIO
[22:33:56.460935] [12] RADIO_STATUS
[22:33:57.264103] [179] HEARTBEAT
[22:33:57.378096] [13] RADIO
[22:33:57.381030] [13] RADIO_STATUS
[22:33:58.527305] [14] RADIO
[22:33:58.530283] [14] RADIO_STATUS
[22:33:59.233407] [186] VFR_HUD
[22:33:59.236315] [187] HEARTBEAT
[22:33:59.446374] [15] RADIO
[22:33:59.449329] [15] RADIO_STATUS
[22:33:59.917665] [188] VFR_HUD
[22:34:00.266466] [189] HEARTBEAT
[22:34:00.274467] [190] ATTITUDE_TARGET
[22:34:00.366490] [16] RADIO
[22:34:00.369501] [16] RADIO_STATUS
[22:34:01.301848] [192] HEARTBEAT
[22:34:01.406526] [193] VFR_HUD
[22:34:01.438535] [17] RADIO
[22:34:01.441521] [17] RADIO_STATUS
[22:34:02.228691] [194] HEARTBEAT
[22:34:02.235951] [195] SYS_STATUS
[22:34:02.275605] [196] BATTERY_STATUS
[22:34:02.282629] [197] ATTITUDE_TARGET
[22:34:02.287608] [198] VFR_HUD
[22:34:02.436710] [18] RADIO
[22:34:02.439707] [18] RADIO_STATUS
[22:34:03.252820] [199] VFR_HUD
[22:34:03.256929] [200] HEARTBEAT
[22:34:03.359847] [19] RADIO
[22:34:03.362805] [19] RADIO_STATUS
[22:34:03.826869] [201] VFR_HUD
[22:34:04.405902] [202] HEARTBEAT
[22:34:04.413865] [203] ATTITUDE_TARGET
[22:34:04.423983] [20] RADIO
[22:34:04.426873] [20] RADIO_STATUS
[22:34:05.313239] [205] HEARTBEAT
[22:34:05.425071] [21] RADIO
[22:34:05.428274] [21] RADIO_STATUS
[22:34:05.546012] [206] VFR_HUD
[22:34:06.244428] [207] HEARTBEAT
[22:34:06.250323] [208] SYS_STATUS
[22:34:06.526185] [211] VFR_HUD
[22:34:06.554145] [22] RADIO
[22:34:06.557120] [22] RADIO_STATUS
[22:34:07.276269] [213] HEARTBEAT
[22:34:07.389194] [23] RADIO
[22:34:07.392194] [23] RADIO_STATUS
[22:34:07.845312] [214] VFR_HUD
[22:34:08.413801] [24] RADIO
[22:34:08.418007] [24] RADIO_STATUS
[22:34:09.454081] [219] VFR_HUD
[22:34:09.486621] [25] RADIO
[22:34:09.489499] [25] RADIO_STATUS
[22:34:10.276579] [220] HEARTBEAT
[22:34:10.282594] [221] SYS_STATUS
[22:34:10.317577] [222] BATTERY_STATUS
[22:34:10.318515] [223] EXTENDED_SYS_STATE
[22:34:10.326597] [224] ATTITUDE_TARGET
[22:34:10.331761] [225] VFR_HUD
[22:34:10.334565] [226] SYSTEM_TIME
[22:34:10.482614] [26] RADIO
[22:34:10.485660] [26] RADIO_STATUS
[22:34:11.074764] [227] VFR_HUD
[22:34:11.288785] [228] HEARTBEAT
[22:34:11.406755] [27] RADIO
[22:34:11.409743] [27] RADIO_STATUS
[22:34:11.877784] [229] VFR_HUD
[22:34:12.221842] [230] HEARTBEAT
[22:34:12.229796] [231] ATTITUDE_TARGET
[22:34:12.441867] [28] RADIO
[22:34:12.444903] [28] RADIO_STATUS
[22:34:13.470961] [29] RADIO
[22:34:13.473914] [29] RADIO_STATUS
[22:34:13.592036] [234] VFR_HUD
[22:34:14.289166] [235] HEARTBEAT
[22:34:14.297535] [236] SYS_STATUS
[22:34:14.534105] [237] BATTERY_STATUS
[22:34:14.542081] [238] ATTITUDE_TARGET
[22:34:14.572130] [239] VFR_HUD
[22:34:14.600192] [30] RADIO
[22:34:14.603056] [30] RADIO_STATUS
[22:34:15.202333] [241] HEARTBEAT
[22:34:15.430183] [31] RADIO
[22:34:15.433205] [31] RADIO_STATUS
[22:34:15.891231] [242] VFR_HUD
[22:34:16.359318] [243] HEARTBEAT
[22:34:16.367341] [244] ATTITUDE_TARGET
[22:34:16.460314] [32] RADIO
[22:34:16.463329] [32] RADIO_STATUS
[22:34:16.810426] [245] VFR_HUD
[22:34:17.500506] [247] VFR_HUD
[22:34:17.528330] [33] RADIO
[22:34:17.530527] [33] RADIO_STATUS
[22:34:18.322626] [248] HEARTBEAT
[22:34:18.358556] [249] SYS_STATUS
[22:34:18.365524] [250] BATTERY_STATUS
[22:34:18.381507] [251] ATTITUDE_TARGET
[22:34:18.386524] [252] VFR_HUD
[22:34:18.529549] [34] RADIO
[22:34:18.532527] [34] RADIO_STATUS
[22:34:19.121576] [253] VFR_HUD
[22:34:19.224867] [254] HEARTBEAT
[22:34:19.448581] [35] RADIO
[22:34:19.451549] [35] RADIO_STATUS
[22:34:19.923643] [255] VFR_HUD
[22:34:20.386826] [0] HEARTBEAT
[22:34:20.394925] [1] ATTITUDE_TARGET
[22:34:20.487801] [36] RADIO
[22:34:20.490836] [36] RADIO_STATUS
[22:34:20.613951] [2] VFR_HUD
[22:34:21.403862] [3] HEARTBEAT
[22:34:21.426978] [4] VFR_HUD
[22:34:21.515833] [37] RADIO
[22:34:21.518857] [37] RADIO_STATUS
[22:34:22.224169] [5] HEARTBEAT
[22:34:22.230962] [6] SYS_STATUS
[22:34:22.349962] [7] BATTERY_STATUS
[22:34:22.357226] [8] ATTITUDE_TARGET
[22:34:22.388026] [9] VFR_HUD
[22:34:22.556016] [38] RADIO
[22:34:22.558979] [38] RADIO_STATUS
[22:34:23.242113] [11] HEARTBEAT
[22:34:23.476060] [39] RADIO
[22:34:23.479205] [39] RADIO_STATUS
[22:34:24.404231] [13] HEARTBEAT
[22:34:24.412804] [14] ATTITUDE_TARGET
[22:34:24.505403] [40] RADIO
[22:34:24.508213] [40] RADIO_STATUS
[22:34:24.625277] [15] VFR_HUD
[22:34:25.206266] [16] HEARTBEAT
[22:34:25.435286] [17] VFR_HUD
[22:34:25.544337] [41] RADIO
[22:34:25.547338] [41] RADIO_STATUS
[22:34:26.242396] [18] HEARTBEAT
[22:34:26.249362] [19] SYS_STATUS
[22:34:26.363449] [20] BATTERY_STATUS
[22:34:26.573441] [42] RADIO
[22:34:26.576443] [42] RADIO_STATUS
[22:34:27.493547] [43] RADIO
[22:34:27.496552] [43] RADIO_STATUS
[22:34:27.844533] [25] VFR_HUD
[22:34:28.533591] [44] RADIO
[22:34:28.536520] [44] RADIO_STATUS
[22:34:28.659653] [28] VFR_HUD
[22:34:29.219628] [29] HEARTBEAT
[22:34:29.562845] [45] RADIO
[22:34:29.565613] [45] RADIO_STATUS
[22:34:30.275800] [31] HEARTBEAT
[22:34:30.282727] [32] SYS_STATUS
[22:34:30.316766] [33] BATTERY_STATUS
[22:34:30.318703] [34] EXTENDED_SYS_STATE
[22:34:30.326818] [35] ATTITUDE_TARGET
[22:34:30.331800] [36] VFR_HUD
[22:34:30.334791] [37] SYSTEM_TIME
[22:34:30.712829] [46] RADIO
[22:34:30.715798] [46] RADIO_STATUS
[22:34:31.297911] [39] HEARTBEAT
[22:34:31.526896] [47] RADIO
[22:34:31.529924] [47] RADIO_STATUS
[22:34:32.551066] [48] RADIO
[22:34:32.553954] [48] RADIO_STATUS
[22:34:32.672077] [43] VFR_HUD
[22:34:33.596085] [49] RADIO
[22:34:33.599133] [49] RADIO_STATUS
[22:34:34.289343] [46] HEARTBEAT
[22:34:34.295175] [47] SYS_STATUS
[22:34:34.415206] [48] BATTERY_STATUS
[22:34:34.620230] [50] RADIO
[22:34:34.623183] [50] RADIO_STATUS
[22:34:35.201510] [51] VFR_HUD
[22:34:35.539427] [51] RADIO
[22:34:35.542351] [51] RADIO_STATUS
[22:34:35.890364] [53] VFR_HUD
[22:34:36.584452] [52] RADIO
[22:34:36.587443] [52] RADIO_STATUS
[22:34:36.699501] [56] VFR_HUD
[22:34:37.264714] [57] HEARTBEAT
[22:34:37.608558] [53] RADIO
[22:34:37.611546] [53] RADIO_STATUS
[22:34:38.321666] [59] HEARTBEAT
[22:34:38.327673] [60] SYS_STATUS
[22:34:38.367639] [61] BATTERY_STATUS
[22:34:38.375620] [62] ATTITUDE_TARGET
[22:34:38.380635] [63] VFR_HUD
[22:34:38.757666] [54] RADIO
[22:34:38.760604] [54] RADIO_STATUS
[22:34:39.567735] [55] RADIO
[22:34:39.570695] [55] RADIO_STATUS
[22:34:40.596914] [56] RADIO
[22:34:40.599799] [56] RADIO_STATUS
[22:34:40.717936] [69] VFR_HUD
[22:34:41.292930] [70] HEARTBEAT
[22:34:41.636940] [71] VFR_HUD
[22:34:41.652934] [57] RADIO
[22:34:41.655957] [57] RADIO_STATUS
[22:34:42.350017] [74] BATTERY_STATUS
[22:34:42.358016] [75] ATTITUDE_TARGET
[22:34:42.388143] [76] VFR_HUD
[22:34:42.666045] [58] RADIO
[22:34:42.669039] [58] RADIO_STATUS
[22:34:43.017121] [77] VFR_HUD
[22:34:43.586177] [59] RADIO
[22:34:43.589121] [59] RADIO_STATUS
[22:34:44.626389] [82] VFR_HUD
[22:34:44.653307] [60] RADIO
[22:34:44.656495] [60] RADIO_STATUS
[22:34:45.201336] [83] HEARTBEAT
[22:34:45.545379] [84] VFR_HUD
[22:34:45.572483] [61] RADIO
[22:34:45.575342] [61] RADIO_STATUS
[22:34:46.242504] [85] HEARTBEAT
[22:34:46.249506] [86] SYS_STATUS
[22:34:46.364517] [87] BATTERY_STATUS
[22:34:46.481461] [88] ATTITUDE_TARGET
[22:34:46.486473] [89] VFR_HUD
[22:34:46.574478] [62] RADIO
[22:34:46.577464] [62] RADIO_STATUS
[22:34:47.049517] [90] VFR_HUD
[22:34:47.613627] [63] RADIO
[22:34:47.616561] [63] RADIO_STATUS
[22:34:47.844688] [92] VFR_HUD
[22:34:48.542713] [93] HEARTBEAT
[22:34:48.550671] [94] ATTITUDE_TARGET
[22:34:48.642735] [64] RADIO
[22:34:48.645691] [64] RADIO_STATUS
[22:34:48.681837] [95] VFR_HUD
[22:34:49.219964] [96] HEARTBEAT
[22:34:49.682835] [65] RADIO
[22:34:49.685822] [65] RADIO_STATUS
[22:34:50.399974] [100] BATTERY_STATUS
[22:34:50.400881] [101] EXTENDED_SYS_STATE
[22:34:50.408922] [102] ATTITUDE_TARGET
[22:34:50.414031] [103] VFR_HUD
[22:34:50.417973] [104] SYSTEM_TIME
[22:34:50.713005] [66] RADIO
[22:34:50.715973] [66] RADIO_STATUS
[22:34:51.062989] [105] VFR_HUD
[22:34:51.632096] [67] RADIO
[22:34:51.635143] [67] RADIO_STATUS
[22:34:52.451194] [108] HEARTBEAT
[22:34:52.459193] [109] ATTITUDE_TARGET
[22:34:52.672120] [110] VFR_HUD
[22:34:52.699127] [68] RADIO
[22:34:52.702150] [68] RADIO_STATUS
[22:34:53.252165] [111] HEARTBEAT
[22:34:53.700252] [69] RADIO
[22:34:53.703229] [69] RADIO_STATUS
[22:34:54.288365] [113] HEARTBEAT
[22:34:54.295895] [114] SYS_STATUS
[22:34:54.410397] [115] BATTERY_STATUS
[22:34:54.527487] [116] ATTITUDE_TARGET
[22:34:54.532374] [117] VFR_HUD
[22:34:54.620315] [70] RADIO
[22:34:54.623406] [70] RADIO_STATUS
[22:34:55.090422] [118] VFR_HUD
[22:34:55.659475] [71] RADIO
[22:34:55.663002] [71] RADIO_STATUS
[22:34:55.890497] [120] VFR_HUD
[22:34:56.254540] [121] HEARTBEAT
[22:34:56.262519] [122] ATTITUDE_TARGET
[22:34:56.689614] [72] RADIO
[22:34:56.692511] [72] RADIO_STATUS
[22:34:56.727515] [123] VFR_HUD
[22:34:57.265679] [124] HEARTBEAT
[22:34:57.728725] [73] RADIO
[22:34:57.731695] [73] RADIO_STATUS
[22:34:58.757809] [74] RADIO
[22:34:58.760929] [74] RADIO_STATUS
[22:34:59.109071] [131] VFR_HUD
[22:34:59.677948] [75] RADIO
[22:34:59.680942] [75] RADIO_STATUS
[22:34:59.923989] [133] VFR_HUD
[22:35:00.268027] [134] HEARTBEAT
[22:35:00.275988] [135] ATTITUDE_TARGET
[22:35:00.608350] [136] VFR_HUD
[22:35:00.723068] [76] RADIO
[22:35:00.726116] [76] RADIO_STATUS
[22:35:01.298443] [137] HEARTBEAT
[22:35:01.408446] [138] VFR_HUD
[22:35:01.747220] [77] RADIO
[22:35:01.750370] [77] RADIO_STATUS
[22:35:02.382331] [141] BATTERY_STATUS
[22:35:02.390326] [142] ATTITUDE_TARGET
[22:35:02.395454] [143] VFR_HUD
[22:35:02.666311] [78] RADIO
[22:35:02.669223] [78] RADIO_STATUS
[22:35:03.017355] [144] VFR_HUD
[22:35:03.711472] [79] RADIO
[22:35:03.714439] [79] RADIO_STATUS
[22:35:04.297851] [147] HEARTBEAT
[22:35:04.303623] [148] ATTITUDE_TARGET
[22:35:04.626513] [149] VFR_HUD
[22:35:04.658606] [80] RADIO
[22:35:04.661596] [80] RADIO_STATUS
[22:35:05.201604] [150] HEARTBEAT
[22:35:05.441606] [151] VFR_HUD
[22:35:05.780704] [81] RADIO
[22:35:05.783685] [81] RADIO_STATUS
[22:35:06.482801] [155] ATTITUDE_TARGET
[22:35:06.486709] [156] VFR_HUD
[22:35:06.804736] [82] RADIO
[22:35:06.807736] [82] RADIO_STATUS
[22:35:07.049788] [157] VFR_HUD
[22:35:07.389895] [158] HEARTBEAT
[22:35:07.723926] [83] RADIO
[22:35:07.726844] [83] RADIO_STATUS
[22:35:08.314088] [160] HEARTBEAT
[22:35:08.320996] [161] ATTITUDE_TARGET
[22:35:08.768939] [84] RADIO
[22:35:08.771925] [84] RADIO_STATUS
[22:35:09.220151] [163] HEARTBEAT
[22:35:09.454070] [164] VFR_HUD
[22:35:09.683094] [85] RADIO
[22:35:09.686094] [85] RADIO_STATUS
[22:35:10.399217] [167] BATTERY_STATUS
[22:35:10.401116] [168] EXTENDED_SYS_STATE
[22:35:10.409177] [169] ATTITUDE_TARGET
[22:35:10.414210] [170] VFR_HUD
[22:35:10.417270] [171] SYSTEM_TIME
[22:35:10.712232] [86] RADIO
[22:35:10.715244] [86] RADIO_STATUS
[22:35:11.063272] [172] VFR_HUD
[22:35:11.752540] [87] RADIO
[22:35:11.755366] [87] RADIO_STATUS
[22:35:12.222530] [175] HEARTBEAT
[22:35:12.230499] [176] ATTITUDE_TARGET
[22:35:12.672465] [177] VFR_HUD
[22:35:12.699491] [88] RADIO
[22:35:12.702458] [88] RADIO_STATUS
[22:35:13.247551] [178] HEARTBEAT
[22:35:13.482816] [179] VFR_HUD
[22:35:13.701570] [89] RADIO
[22:35:13.704546] [89] RADIO_STATUS
[22:35:14.529846] [183] ATTITUDE_TARGET
[22:35:14.533688] [184] VFR_HUD
[22:35:14.851785] [90] RADIO
[22:35:14.853817] [90] RADIO_STATUS
[22:35:15.096797] [185] VFR_HUD
[22:35:15.208972] [186] HEARTBEAT
[22:35:15.770817] [91] RADIO
[22:35:15.773745] [91] RADIO_STATUS
[22:35:15.808747] [187] VFR_HUD
[22:35:16.255952] [188] HEARTBEAT
[22:35:16.263880] [189] ATTITUDE_TARGET
[22:35:16.811051] [190] VFR_HUD
[22:35:16.821827] [92] RADIO
[22:35:16.824866] [92] RADIO_STATUS
[22:35:17.265909] [191] HEARTBEAT
[22:35:17.501071] [192] VFR_HUD
[22:35:17.839973] [93] RADIO
[22:35:17.842995] [93] RADIO_STATUS
[22:35:18.428034] [193] HEARTBEAT
[22:35:18.434148] [194] SYS_STATUS
[22:35:18.549014] [195] BATTERY_STATUS
[22:35:18.667110] [196] ATTITUDE_TARGET
[22:35:18.671105] [197] VFR_HUD
[22:35:18.758134] [94] RADIO
[22:35:18.761059] [94] RADIO_STATUS
[22:35:19.111064] [198] VFR_HUD
[22:35:19.231126] [199] HEARTBEAT
[22:35:19.800195] [200] VFR_HUD
[22:35:19.827166] [95] RADIO
[22:35:19.830238] [95] RADIO_STATUS
[22:35:20.269281] [201] HEARTBEAT
[22:35:20.276480] [202] ATTITUDE_TARGET
[22:35:20.827363] [96] RADIO
[22:35:20.830306] [96] RADIO_STATUS
[22:35:21.308375] [204] HEARTBEAT
[22:35:21.408362] [205] VFR_HUD
[22:35:21.747404] [97] RADIO
[22:35:21.750423] [97] RADIO_STATUS
[22:35:22.574597] [209] ATTITUDE_TARGET
[22:35:22.579555] [210] VFR_HUD
[22:35:22.896566] [98] RADIO
[22:35:22.899704] [98] RADIO_STATUS
[22:35:23.017613] [211] VFR_HUD
[22:35:23.242637] [212] HEARTBEAT
[22:35:23.816891] [99] RADIO
[22:35:23.819935] [99] RADIO_STATUS
[22:35:23.854693] [213] VFR_HUD
[22:35:24.301747] [214] HEARTBEAT
[22:35:24.308869] [215] ATTITUDE_TARGET
[22:35:24.626765] [216] VFR_HUD
[22:35:24.855929] [100] RADIO
[22:35:24.858789] [100] RADIO_STATUS
[22:35:25.545900] [218] VFR_HUD
[22:35:25.780915] [101] RADIO
[22:35:25.783831] [101] RADIO_STATUS
[22:35:26.482110] [222] ATTITUDE_TARGET
[22:35:26.486955] [223] VFR_HUD
[22:35:26.805135] [102] RADIO
[22:35:26.808006] [102] RADIO_STATUS
[22:35:27.046131] [224] VFR_HUD
[22:35:27.271048] [225] HEARTBEAT
[22:35:27.845245] [226] VFR_HUD
[22:35:27.872743] [103] RADIO
[22:35:27.875081] [103] RADIO_STATUS
[22:35:28.316756] [227] HEARTBEAT
[22:35:28.322235] [228] ATTITUDE_TARGET
[22:35:28.666299] [229] VFR_HUD
[22:35:28.874304] [104] RADIO
[22:35:28.877298] [104] RADIO_STATUS
[22:35:29.229310] [230] HEARTBEAT
[22:35:29.454291] [231] VFR_HUD
[22:35:29.793321] [105] RADIO
[22:35:29.796333] [105] RADIO_STATUS
[22:35:30.942500] [106] RADIO
[22:35:30.945570] [106] RADIO_STATUS
[22:35:31.063524] [239] VFR_HUD
[22:35:31.288542] [240] HEARTBEAT
[22:35:31.862716] [107] RADIO
[22:35:31.865896] [107] RADIO_STATUS
[22:35:32.222921] [242] HEARTBEAT
[22:35:32.229683] [243] ATTITUDE_TARGET
[22:35:32.684715] [244] VFR_HUD
[22:35:32.906774] [108] RADIO
[22:35:32.909753] [108] RADIO_STATUS
[22:35:33.247755] [245] HEARTBEAT
[22:35:33.486822] [246] VFR_HUD
[22:35:33.930836] [109] RADIO
[22:35:33.933841] [109] RADIO_STATUS
[22:35:34.409978] [249] BATTERY_STATUS
