[21:15:02.478054] [185] HEARTBEAT
[21:15:02.485057] [186] SYS_STATUS
[21:15:02.525089] [187] BATTERY_STATUS
[21:15:02.531949] [188] ATTITUDE_TARGET
[21:15:02.537089] [189] VFR_HUD
[21:15:03.034035] [166] RADIO
[21:15:03.037078] [166] RADIO_STATUS
[21:15:03.501235] [190] VFR_HUD
[21:15:03.503302] [191] HEARTBEAT
[21:15:03.959171] [167] RADIO
[21:15:03.962166] [167] RADIO_STATUS
[21:15:04.075163] [192] VFR_HUD
[21:15:04.549236] [193] HEARTBEAT
[21:15:04.557274] [194] ATTITUDE_TARGET
[21:15:04.874364] [195] VFR_HUD
[21:15:04.983344] [168] RADIO
[21:15:04.986307] [168] RADIO_STATUS
[21:15:05.455435] [196] HEARTBEAT
[21:15:05.684416] [197] VFR_HUD
[21:15:06.028445] [169] RADIO
[21:15:06.031400] [169] RADIO_STATUS
[21:15:06.491752] [198] HEARTBEAT
[21:15:06.498504] [199] SYS_STATUS
[21:15:06.618516] [200] BATTERY_STATUS
[21:15:06.730677] [201] ATTITUDE_TARGET
[21:15:06.735692] [202] VFR_HUD
[21:15:06.948680] [170] RADIO
[21:15:06.951662] [170] RADIO_STATUS
[21:15:07.293655] [203] VFR_HUD
[21:15:07.524939] [204] HEARTBEAT
[21:15:07.972705] [171] RADIO
[21:15:07.975691] [171] RADIO_STATUS
[21:15:08.094376] [205] VFR_HUD
[21:15:08.457816] [206] HEARTBEAT
[21:15:08.465707] [207] ATTITUDE_TARGET
[21:15:08.903800] [208] VFR_HUD
[21:15:09.017796] [172] RADIO
[21:15:09.020756] [172] RADIO_STATUS
[21:15:09.468822] [209] HEARTBEAT
[21:15:09.703023] [210] VFR_HUD
[21:15:10.041901] [173] RADIO
[21:15:10.045099] [173] RADIO_STATUS
[21:15:10.525038] [211] HEARTBEAT
[21:15:10.532039] [212] SYS_STATUS
[21:15:10.566928] [213] BATTERY_STATUS
[21:15:10.567879] [214] EXTENDED_SYS_STATE
[21:15:10.575922] [215] ATTITUDE_TARGET
[21:15:10.580966] [216] VFR_HUD
[21:15:10.583956] [217] SYSTEM_TIME
[21:15:10.962038] [174] RADIO
[21:15:10.965022] [174] RADIO_STATUS
[21:15:11.324047] [218] VFR_HUD
[21:15:11.427058] [219] HEARTBEAT
[21:15:12.111349] [175] RADIO
[21:15:12.113154] [175] RADIO_STATUS
[21:15:12.595955] [221] HEARTBEAT
[21:15:12.603234] [222] ATTITUDE_TARGET
[21:15:12.921442] [223] VFR_HUD
[21:15:13.030239] [176] RADIO
[21:15:13.033149] [176] RADIO_STATUS
[21:15:13.496402] [224] HEARTBEAT
[21:15:13.736404] [225] VFR_HUD
[21:15:14.075288] [177] RADIO
[21:15:14.078245] [177] RADIO_STATUS
[21:15:14.538350] [226] HEARTBEAT
[21:15:14.545374] [227] SYS_STATUS
[21:15:14.664353] [228] BATTERY_STATUS
[21:15:14.896392] [229] ATTITUDE_TARGET
[21:15:14.901421] [230] VFR_HUD
[21:15:14.989428] [178] RADIO
[21:15:14.992348] [178] RADIO_STATUS
[21:15:16.019567] [179] RADIO
[21:15:16.022588] [179] RADIO_STATUS
[21:15:16.140579] [233] VFR_HUD
[21:15:16.829688] [236] VFR_HUD
[21:15:17.058736] [180] RADIO
[21:15:17.061753] [180] RADIO_STATUS
[21:15:17.514705] [237] HEARTBEAT
[21:15:18.088759] [181] RADIO
[21:15:18.091728] [181] RADIO_STATUS
[21:15:18.446875] [239] HEARTBEAT
[21:15:18.454160] [240] SYS_STATUS
[21:15:18.567832] [241] BATTERY_STATUS
[21:15:18.685836] [242] ATTITUDE_TARGET
[21:15:18.690821] [243] VFR_HUD
[21:15:19.007902] [182] RADIO
[21:15:19.010796] [182] RADIO_STATUS
[21:15:19.071983] JAMMING_START
[21:15:19.253986] [244] VFR_HUD
[21:15:19.473914] [245] HEARTBEAT
[21:15:20.157960] [183] RADIO
[21:15:20.160957] [183] RADIO_STATUS
[21:15:20.637092] [247] HEARTBEAT
[21:15:20.645020] [248] ATTITUDE_TARGET
[21:15:20.863049] [249] VFR_HUD
[21:15:21.077104] [184] RADIO
[21:15:21.080007] [184] RADIO_STATUS
[21:15:21.423134] [250] HEARTBEAT
[21:15:21.658124] [251] VFR_HUD
[21:15:22.116214] [185] RADIO
[21:15:22.119172] [185] RADIO_STATUS
[21:15:22.600294] [254] BATTERY_STATUS
[21:15:22.608226] [255] ATTITUDE_TARGET
[21:15:22.638266] [0] VFR_HUD
[21:15:23.036393] [186] RADIO
[21:15:23.039438] [186] RADIO_STATUS
[21:15:23.267307] [1] VFR_HUD
[21:15:24.066442] [187] RADIO
[21:15:24.069373] [187] RADIO_STATUS
[21:15:24.186461] [3] VFR_HUD
[21:15:24.876578] [6] VFR_HUD
[21:15:25.105571] [188] RADIO
[21:15:25.109885] [188] RADIO_STATUS
[21:15:25.456729] [7] HEARTBEAT
[21:15:26.135673] [189] RADIO
[21:15:26.138664] [189] RADIO_STATUS
[21:15:26.493814] [9] HEARTBEAT
[21:15:26.500722] [10] SYS_STATUS
[21:15:26.614743] [11] BATTERY_STATUS
[21:15:26.732788] [12] ATTITUDE_TARGET
[21:15:26.737777] [13] VFR_HUD
[21:15:27.054786] [190] RADIO
[21:15:27.057731] [190] RADIO_STATUS
[21:15:27.295930] [14] VFR_HUD
[21:15:27.525805] [15] HEARTBEAT
[21:15:28.204931] [191] RADIO
[21:15:28.207866] [191] RADIO_STATUS
[21:15:28.459958] [17] HEARTBEAT
[21:15:28.467946] [18] ATTITUDE_TARGET
[21:15:28.909978] [19] VFR_HUD
[21:15:29.123930] [192] RADIO
[21:15:29.126870] [192] RADIO_STATUS
[21:15:29.470004] [20] HEARTBEAT
[21:15:29.705036] [21] VFR_HUD
[21:15:30.164036] [193] RADIO
[21:15:30.167046] [193] RADIO_STATUS
[21:15:31.089155] [194] RADIO
[21:15:31.092127] [194] RADIO_STATUS
[21:15:31.314230] [29] VFR_HUD
[21:15:32.113417] [195] RADIO
[21:15:32.116334] [195] RADIO_STATUS
[21:15:32.152499] [31] VFR_HUD
[21:15:32.473359] [32] HEARTBEAT
[21:15:32.481713] [33] ATTITUDE_TARGET
[21:15:32.924364] [34] VFR_HUD
[21:15:33.158379] [196] RADIO
[21:15:33.161330] [196] RADIO_STATUS
[21:15:33.504476] [35] HEARTBEAT
[21:15:34.182552] [197] RADIO
[21:15:34.185527] [197] RADIO_STATUS
[21:15:34.667624] [39] BATTERY_STATUS
[21:15:34.779566] [40] ATTITUDE_TARGET
[21:15:34.784534] [41] VFR_HUD
[21:15:35.102789] [198] RADIO
[21:15:35.105725] [198] RADIO_STATUS
[21:15:35.344972] [42] VFR_HUD
[21:15:36.251751] [199] RADIO
[21:15:36.254803] [199] RADIO_STATUS
[21:15:36.501818] [45] HEARTBEAT
[21:15:36.510013] [46] ATTITUDE_TARGET
[21:15:36.832823] [47] VFR_HUD
[21:15:37.171791] [200] RADIO
[21:15:37.173782] [200] RADIO_STATUS
[21:15:37.517915] [48] HEARTBEAT
[21:15:37.646997] [49] VFR_HUD
[21:15:38.215969] [201] RADIO
[21:15:38.218925] [201] RADIO_STATUS
[21:15:38.688354] [53] ATTITUDE_TARGET
[21:15:38.692964] [54] VFR_HUD
[21:15:39.135022] [202] RADIO
[21:15:39.138023] [202] RADIO_STATUS
[21:15:39.256013] [55] VFR_HUD
[21:15:40.051148] [57] VFR_HUD
[21:15:40.160125] [203] RADIO
[21:15:40.163099] [203] RADIO_STATUS
[21:15:40.520149] [58] HEARTBEAT
[21:15:40.527156] [59] ATTITUDE_TARGET
[21:15:40.872217] [60] VFR_HUD
[21:15:41.205238] [204] RADIO
[21:15:41.207160] [204] RADIO_STATUS
[21:15:41.426260] [61] HEARTBEAT
[21:15:41.660326] [62] VFR_HUD
[21:15:42.229322] [205] RADIO
[21:15:42.232270] [205] RADIO_STATUS
[21:15:42.477420] [63] HEARTBEAT
[21:15:42.484379] [64] SYS_STATUS
[21:15:42.602447] [65] BATTERY_STATUS
[21:15:42.610534] [66] ATTITUDE_TARGET
[21:15:42.652496] [67] VFR_HUD
[21:15:43.148622] [206] RADIO
[21:15:43.151440] [206] RADIO_STATUS
[21:15:43.269693] [68] VFR_HUD
[21:15:44.298661] [207] RADIO
[21:15:44.301566] [207] RADIO_STATUS
[21:15:44.419665] [71] HEARTBEAT
[21:15:44.442707] [72] ATTITUDE_TARGET
[21:15:44.878702] [73] VFR_HUD
[21:15:45.217761] [208] RADIO
[21:15:45.220761] [208] RADIO_STATUS
[21:15:45.463818] [74] HEARTBEAT
[21:15:45.689035] [75] VFR_HUD
[21:15:46.262783] [209] RADIO
[21:15:46.265818] [209] RADIO_STATUS
[21:15:46.734881] [79] ATTITUDE_TARGET
[21:15:46.740045] [80] VFR_HUD
[21:15:47.287077] [210] RADIO
[21:15:47.289941] [210] RADIO_STATUS
[21:15:47.325985] [81] VFR_HUD
[21:15:48.206078] [211] RADIO
[21:15:48.209016] [211] RADIO_STATUS
[21:15:48.461314] [84] HEARTBEAT
[21:15:48.469178] [85] ATTITUDE_TARGET
[21:15:49.017186] [86] VFR_HUD
[21:15:49.356187] [212] RADIO
[21:15:49.359132] [212] RADIO_STATUS
[21:15:49.472194] [87] HEARTBEAT
[21:15:49.718235] [88] VFR_HUD
[21:15:50.275279] [213] RADIO
[21:15:50.278244] [213] RADIO_STATUS
[21:15:50.529409] [89] HEARTBEAT
[21:15:50.535301] [90] SYS_STATUS
[21:15:50.570394] [91] BATTERY_STATUS
[21:15:50.572355] [92] EXTENDED_SYS_STATE
[21:15:50.579345] [93] ATTITUDE_TARGET
[21:15:50.584359] [94] VFR_HUD
[21:15:50.588486] [95] SYSTEM_TIME
[21:15:51.195641] [214] RADIO
[21:15:51.198350] [214] RADIO_STATUS
[21:15:51.318079] [96] VFR_HUD
[21:15:51.436385] [97] HEARTBEAT
[21:15:52.345494] [215] RADIO
[21:15:52.347464] [215] RADIO_STATUS
[21:15:52.474538] [99] HEARTBEAT
[21:15:52.482537] [100] ATTITUDE_TARGET
[21:15:53.264591] [216] RADIO
[21:15:53.267582] [216] RADIO_STATUS
[21:15:53.735185] [103] VFR_HUD
[21:15:54.303705] [217] RADIO
[21:15:54.306747] [217] RADIO_STATUS
[21:15:55.333822] [218] RADIO
[21:15:55.336793] [218] RADIO_STATUS
[21:15:56.038915] [111] VFR_HUD
[21:15:56.253132] [219] RADIO
[21:15:56.255967] [219] RADIO_STATUS
[21:15:56.507986] [112] HEARTBEAT
[21:15:56.517739] [113] ATTITUDE_TARGET
[21:15:57.293094] [220] RADIO
[21:15:57.296023] [220] RADIO_STATUS
[21:15:57.519114] [115] HEARTBEAT
[21:15:57.649151] [116] VFR_HUD
[21:15:58.322167] [221] RADIO
[21:15:58.325092] [221] RADIO_STATUS
[21:15:58.577248] [119] BATTERY_STATUS
[21:15:58.722196] [120] ATTITUDE_TARGET
[21:15:58.727200] [121] VFR_HUD
[21:15:59.242253] [222] RADIO
[21:15:59.245185] [222] RADIO_STATUS
[21:15:59.363300] [122] VFR_HUD
[21:15:59.478315] [123] HEARTBEAT
[21:16:00.052393] [124] VFR_HUD
[21:16:00.391355] [223] RADIO
[21:16:00.394381] [223] RADIO_STATUS
[21:16:00.521431] [125] HEARTBEAT
[21:16:00.529557] [126] ATTITUDE_TARGET
[21:16:00.862469] [127] VFR_HUD
[21:16:01.311404] [224] RADIO
[21:16:01.314434] [224] RADIO_STATUS
[21:16:01.661627] [129] VFR_HUD
[21:16:02.230547] [225] RADIO
[21:16:02.233764] [225] RADIO_STATUS
[21:16:03.282626] [135] VFR_HUD
[21:16:03.379696] [226] RADIO
[21:16:03.382855] [226] RADIO_STATUS
[21:16:03.495714] [136] HEARTBEAT
[21:16:04.079712] [137] VFR_HUD
[21:16:04.298827] [227] RADIO
[21:16:04.301709] [227] RADIO_STATUS
[21:16:04.548823] [138] HEARTBEAT
[21:16:04.556778] [139] ATTITUDE_TARGET
[21:16:05.343857] [228] RADIO
[21:16:05.346838] [228] RADIO_STATUS
[21:16:05.455082] [141] HEARTBEAT
[21:16:05.694866] [142] VFR_HUD
[21:16:06.262898] [229] RADIO
[21:16:06.265974] [229] RADIO_STATUS
[21:16:06.617231] [145] BATTERY_STATUS
[21:16:07.287132] [230] RADIO
[21:16:07.290162] [230] RADIO_STATUS
[21:16:07.523226] [149] HEARTBEAT
[21:16:08.099656] [150] VFR_HUD
[21:16:08.438041] [231] RADIO
[21:16:08.440351] [231] RADIO_STATUS
[21:16:08.567390] [151] HEARTBEAT
[21:16:08.575270] [152] ATTITUDE_TARGET
[21:16:08.912402] [153] VFR_HUD
[21:16:09.356304] [232] RADIO
[21:16:09.359328] [232] RADIO_STATUS
[21:16:09.707371] [155] VFR_HUD
[21:16:10.276414] [233] RADIO
[21:16:10.279403] [233] RADIO_STATUS
[21:16:11.425548] [234] RADIO
[21:16:11.428564] [234] RADIO_STATUS
[21:16:11.459667] [164] HEARTBEAT
[21:16:12.125699] [165] VFR_HUD
[21:16:12.344751] [235] RADIO
[21:16:12.347657] [235] RADIO_STATUS
[21:16:12.474722] [166] HEARTBEAT
[21:16:12.482706] [167] ATTITUDE_TARGET
[21:16:13.494876] [236] RADIO
[21:16:13.497800] [236] RADIO_STATUS
[21:16:13.528870] [169] HEARTBEAT
[21:16:13.735860] [170] VFR_HUD
[21:16:14.304876] [237] RADIO
[21:16:14.308003] [237] RADIO_STATUS
[21:16:14.437968] [171] HEARTBEAT
[21:16:14.444968] [172] SYS_STATUS
[21:16:14.484933] [173] BATTERY_STATUS
[21:16:14.492121] [174] ATTITUDE_TARGET
[21:16:14.497054] [175] VFR_HUD
[21:16:15.336150] [238] RADIO
[21:16:15.339042] [238] RADIO_STATUS
[21:16:15.421182] [176] VFR_HUD
[21:16:15.452028] [177] HEARTBEAT
[21:16:16.042193] [178] VFR_HUD
[21:16:16.486427] [239] RADIO
[21:16:16.488258] [239] RADIO_STATUS
[21:16:17.408234] [240] RADIO
[21:16:17.408527] [240] RADIO_STATUS
[21:16:18.324430] [241] RADIO
[21:16:18.327288] [241] RADIO_STATUS
[21:16:18.453394] [184] HEARTBEAT
[21:16:18.459383] [185] SYS_STATUS
[21:16:19.255498] [189] VFR_HUD
[21:16:19.364444] [242] RADIO
[21:16:19.367423] [242] RADIO_STATUS
[21:16:19.485538] [190] HEARTBEAT
[21:16:20.055686] [191] VFR_HUD
[21:16:20.393642] [243] RADIO
[21:16:20.396585] [243] RADIO_STATUS
[21:16:20.648651] [192] HEARTBEAT
[21:16:20.656717] [193] ATTITUDE_TARGET
[21:16:21.543752] [244] RADIO
[21:16:21.546699] [244] RADIO_STATUS
[21:16:21.663719] [196] VFR_HUD
[21:16:22.352789] [245] RADIO
[21:16:22.355767] [245] RADIO_STATUS
[21:16:22.480845] [197] HEARTBEAT
[21:16:22.487803] [198] SYS_STATUS
[21:16:22.655865] [201] VFR_HUD
[21:16:23.382903] [246] RADIO
[21:16:23.385882] [246] RADIO_STATUS
[21:16:23.498976] [203] HEARTBEAT
[21:16:24.088032] [204] VFR_HUD
[21:16:24.532019] [247] RADIO
[21:16:24.534995] [247] RADIO_STATUS
[21:16:25.347151] [248] RADIO
[21:16:25.350107] [248] RADIO_STATUS
[21:16:25.802199] [209] VFR_HUD
[21:16:26.371303] [249] RADIO
[21:16:26.374233] [249] RADIO_STATUS
[21:16:27.306449] [215] VFR_HUD
[21:16:27.418410] [216] HEARTBEAT
[21:16:27.448518] [250] RADIO
[21:16:27.451420] [250] RADIO_STATUS
[21:16:28.101483] [217] VFR_HUD
[21:16:28.440520] [251] RADIO
[21:16:28.443440] [251] RADIO_STATUS
[21:16:28.694542] [218] HEARTBEAT
[21:16:28.702547] [219] ATTITUDE_TARGET
[21:16:29.485659] [221] HEARTBEAT
[21:16:29.589581] [252] RADIO
[21:16:29.592550] [252] RADIO_STATUS
[21:16:29.710631] [222] VFR_HUD
[21:16:30.403764] [253] RADIO
[21:16:30.406664] [253] RADIO_STATUS
[21:16:30.526727] [223] HEARTBEAT
[21:16:30.533761] [224] SYS_STATUS
[21:16:31.427839] [254] RADIO
[21:16:31.430786] [254] RADIO_STATUS
[21:16:31.545162] [231] HEARTBEAT
[21:16:32.128047] [232] VFR_HUD
[21:16:32.577937] [255] RADIO
[21:16:32.580885] [255] RADIO_STATUS
[21:16:32.706983] [233] HEARTBEAT
[21:16:32.714932] [234] ATTITUDE_TARGET
[21:16:33.496976] [0] RADIO
[21:16:33.499972] [0] RADIO_STATUS
[21:16:34.417118] [1] RADIO
[21:16:34.420046] [1] RADIO_STATUS
[21:16:34.476151] [238] HEARTBEAT
[21:16:34.483096] [239] SYS_STATUS
[21:16:34.491209] [240] BATTERY_STATUS
[21:16:34.503181] [241] ATTITUDE_TARGET
[21:16:34.508224] [242] VFR_HUD
[21:16:35.227198] [243] VFR_HUD
[21:16:35.453266] [244] HEARTBEAT
[21:16:35.566293] [2] RADIO
[21:16:35.569196] [2] RADIO_STATUS
[21:16:36.037319] [245] VFR_HUD
[21:16:36.486293] [3] RADIO
[21:16:36.489318] [3] RADIO_STATUS
[21:16:36.534324] [246] HEARTBEAT
[21:16:36.542351] [247] ATTITUDE_TARGET
[21:16:36.837441] [248] VFR_HUD
[21:16:37.417484] [249] HEARTBEAT
[21:16:37.531406] [4] RADIO
[21:16:37.534432] [4] RADIO_STATUS
[21:16:37.646454] [250] VFR_HUD
[21:16:38.454574] [251] HEARTBEAT
[21:16:38.461501] [252] SYS_STATUS
[21:16:38.473529] [5] RADIO
[21:16:38.476460] [5] RADIO_STATUS
[21:16:38.580537] [253] BATTERY_STATUS
[21:16:38.812534] [254] ATTITUDE_TARGET
[21:16:38.817541] [255] VFR_HUD
[21:16:39.475597] [6] RADIO
[21:16:39.478579] [6] RADIO_STATUS
[21:16:40.624894] [7] RADIO
[21:16:40.627726] [7] RADIO_STATUS
[21:16:40.753917] [3] HEARTBEAT
[21:16:40.761850] [4] ATTITUDE_TARGET
[21:16:40.865953] [5] VFR_HUD
[21:16:41.439912] [6] HEARTBEAT
[21:16:41.543846] [8] RADIO
[21:16:41.546837] [8] RADIO_STATUS
[21:16:42.463977] [9] RADIO
[21:16:42.466974] [9] RADIO_STATUS
[21:16:42.524039] [8] HEARTBEAT
[21:16:42.531016] [9] SYS_STATUS
[21:16:42.538025] [10] BATTERY_STATUS
[21:16:42.551005] [11] ATTITUDE_TARGET
[21:16:42.554989] [12] VFR_HUD
[21:16:43.500233] [14] HEARTBEAT
[21:16:43.614110] [10] RADIO
[21:16:43.617111] [10] RADIO_STATUS
[21:16:44.194173] [15] VFR_HUD
[21:16:44.533179] [11] RADIO
[21:16:44.536256] [11] RADIO_STATUS
[21:16:44.580217] [16] HEARTBEAT
[21:16:44.588199] [17] ATTITUDE_TARGET
[21:16:44.884219] [18] VFR_HUD
[21:16:45.459463] [19] HEARTBEAT
[21:16:45.683360] [12] RADIO
[21:16:45.685286] [12] RADIO_STATUS
[21:16:45.721361] [20] VFR_HUD
[21:16:46.500499] [21] HEARTBEAT
[21:16:46.507593] [22] SYS_STATUS
[21:16:46.602569] [13] RADIO
[21:16:46.605564] [13] RADIO_STATUS
[21:16:46.672515] [23] BATTERY_STATUS
[21:16:46.680524] [24] ATTITUDE_TARGET
[21:16:46.684466] [25] VFR_HUD
[21:16:47.522624] [14] RADIO
[21:16:47.524601] [14] RADIO_STATUS
[21:16:48.102674] [28] VFR_HUD
[21:16:48.671737] [15] RADIO
[21:16:48.674647] [15] RADIO_STATUS
[21:16:48.912856] [31] VFR_HUD
[21:16:49.477831] [32] HEARTBEAT
[21:16:49.590852] [16] RADIO
[21:16:49.593747] [16] RADIO_STATUS
[21:16:50.510925] [17] RADIO
[21:16:50.513934] [17] RADIO_STATUS
[21:16:51.217063] [41] VFR_HUD
[21:16:51.437080] [42] HEARTBEAT
[21:16:51.661037] [18] RADIO
[21:16:51.663989] [18] RADIO_STATUS
[21:16:52.498222] [19] RADIO
[21:16:52.501091] [19] RADIO_STATUS
[21:16:52.600147] [44] HEARTBEAT
[21:16:52.607135] [45] ATTITUDE_TARGET
[21:16:52.826132] [46] VFR_HUD
[21:16:53.500253] [20] RADIO
[21:16:53.503303] [20] RADIO_STATUS
[21:16:53.626420] [47] HEARTBEAT
[21:16:54.563346] [51] BATTERY_STATUS
[21:16:54.571549] [52] ATTITUDE_TARGET
[21:16:54.601314] [53] VFR_HUD
[21:16:54.623282] [21] RADIO
[21:16:54.626291] [21] RADIO_STATUS
[21:16:55.230389] [54] VFR_HUD
[21:16:55.569400] [22] RADIO
[21:16:55.572398] [22] RADIO_STATUS
[21:16:56.039598] [56] VFR_HUD
[21:16:56.718499] [23] RADIO
[21:16:56.721513] [23] RADIO_STATUS
[21:16:56.839667] [59] VFR_HUD
[21:16:57.419676] [60] HEARTBEAT
[21:16:57.533654] [24] RADIO
[21:16:57.536525] [24] RADIO_STATUS
[21:16:58.456800] [62] HEARTBEAT
[21:16:58.462735] [63] SYS_STATUS
[21:16:58.557749] [25] RADIO
[21:16:58.560774] [25] RADIO_STATUS
[21:16:58.598921] [64] BATTERY_STATUS
[21:16:58.625806] [65] ATTITUDE_TARGET
[21:16:58.633850] [66] VFR_HUD
[21:16:59.258787] [67] VFR_HUD
[21:16:59.488835] [68] HEARTBEAT
[21:16:59.707903] [26] RADIO
[21:16:59.710831] [26] RADIO_STATUS
[21:17:00.544993] [27] RADIO
[21:17:00.547984] [27] RADIO_STATUS
[21:17:00.647037] [70] HEARTBEAT
[21:17:00.653980] [71] ATTITUDE_TARGET
[21:17:00.872965] [72] VFR_HUD
[21:17:01.433288] [73] HEARTBEAT
[21:17:01.547083] [28] RADIO
[21:17:01.550080] [28] RADIO_STATUS
[21:17:01.679114] [74] VFR_HUD
[21:17:02.592230] [29] RADIO
[21:17:02.595252] [29] RADIO_STATUS
[21:17:03.616465] [30] RADIO
[21:17:03.619338] [30] RADIO_STATUS
[21:17:03.742366] [80] VFR_HUD
[21:17:03.745380] [81] HEARTBEAT
[21:17:04.092525] [82] VFR_HUD
[21:17:04.541430] [31] RADIO
[21:17:04.544404] [31] RADIO_STATUS
[21:17:04.886587] [85] VFR_HUD
[21:17:05.466583] [86] HEARTBEAT
[21:17:05.580590] [32] RADIO
[21:17:05.583515] [32] RADIO_STATUS
[21:17:06.604853] [33] RADIO
[21:17:06.607736] [33] RADIO_STATUS
[21:17:06.674730] [90] BATTERY_STATUS
[21:17:06.682932] [91] ATTITUDE_TARGET
[21:17:06.687738] [92] VFR_HUD
[21:17:07.536789] [94] HEARTBEAT
[21:17:07.649721] [34] RADIO
[21:17:07.652700] [34] RADIO_STATUS
[21:17:08.464922] [96] HEARTBEAT
[21:17:08.472403] [97] ATTITUDE_TARGET
[21:17:08.674865] [35] RADIO
[21:17:08.676798] [35] RADIO_STATUS
[21:17:08.915048] [98] VFR_HUD
[21:17:09.481019] [99] HEARTBEAT
[21:17:09.594137] [36] RADIO
[21:17:09.596987] [36] RADIO_STATUS
[21:17:09.633286] [100] VFR_HUD
[21:17:10.660289] [103] BATTERY_STATUS
[21:17:10.662042] [104] EXTENDED_SYS_STATE
[21:17:10.670126] [105] ATTITUDE_TARGET
[21:17:10.675208] [106] VFR_HUD
[21:17:10.678093] [107] SYSTEM_TIME
[21:17:10.706165] [37] RADIO
[21:17:10.709898] [37] RADIO_STATUS
[21:17:11.324249] [108] VFR_HUD
[21:17:11.663299] [38] RADIO
[21:17:11.666216] [38] RADIO_STATUS
[21:17:12.139286] [110] VFR_HUD
[21:17:12.813322] [39] RADIO
[21:17:12.817975] [39] RADIO_STATUS
[21:17:12.933406] [113] VFR_HUD
[21:17:13.509437] [114] HEARTBEAT
[21:17:13.623421] [115] VFR_HUD
[21:17:13.651644] [40] RADIO
[21:17:13.653404] [40] RADIO_STATUS
[21:17:14.441514] [116] HEARTBEAT
[21:17:14.447511] [117] SYS_STATUS
[21:17:14.598569] [118] BATTERY_STATUS
[21:17:14.606552] [119] ATTITUDE_TARGET
[21:17:14.611533] [120] VFR_HUD
[21:17:14.651530] [41] RADIO
[21:17:14.654533] [41] RADIO_STATUS
[21:17:15.232615] [121] VFR_HUD
[21:17:15.457734] [122] HEARTBEAT
[21:17:15.800836] [42] RADIO
[21:17:15.803738] [42] RADIO_STATUS
[21:17:16.510840] [124] HEARTBEAT
[21:17:16.518771] [125] ATTITUDE_TARGET
[21:17:16.723819] [43] RADIO
[21:17:16.726859] [43] RADIO_STATUS
[21:17:17.640889] [44] RADIO
[21:17:17.643911] [44] RADIO_STATUS
[21:17:18.698062] [132] ATTITUDE_TARGET
[21:17:18.701964] [133] VFR_HUD
[21:17:18.707988] [45] RADIO
[21:17:18.711092] [45] RADIO_STATUS
[21:17:19.265064] [134] VFR_HUD
[21:17:19.709078] [46] RADIO
[21:17:19.713138] [46] RADIO_STATUS
[21:17:20.060242] [136] VFR_HUD
[21:17:20.529924] [137] HEARTBEAT
[21:17:20.537238] [138] ATTITUDE_TARGET
[21:17:20.859246] [47] RADIO
[21:17:20.862199] [47] RADIO_STATUS
[21:17:20.909195] [139] VFR_HUD
[21:17:21.670142] [141] VFR_HUD
[21:17:21.696315] [48] RADIO
[21:17:21.699238] [48] RADIO_STATUS
[21:17:22.491480] [142] HEARTBEAT
[21:17:22.498390] [143] SYS_STATUS
[21:17:22.538404] [144] BATTERY_STATUS
[21:17:22.546389] [145] ATTITUDE_TARGET
[21:17:22.550373] [146] VFR_HUD
[21:17:22.698457] [49] RADIO
[21:17:22.701382] [49] RADIO_STATUS
[21:17:23.634507] [147] VFR_HUD
[21:17:23.636504] [148] HEARTBEAT
[21:17:23.737504] [50] RADIO
[21:17:23.740477] [50] RADIO_STATUS
[21:17:24.437684] [150] HEARTBEAT
[21:17:24.445651] [151] ATTITUDE_TARGET
[21:17:24.767662] [51] RADIO
[21:17:24.770659] [51] RADIO_STATUS
[21:17:24.888619] [152] VFR_HUD
[21:17:25.686819] [52] RADIO
[21:17:25.689905] [52] RADIO_STATUS
[21:17:26.744056] [158] ATTITUDE_TARGET
[21:17:26.748870] [159] VFR_HUD
[21:17:26.782896] [53] RADIO
[21:17:26.785907] [53] RADIO_STATUS
[21:17:27.306908] [160] VFR_HUD
[21:17:27.412987] [161] HEARTBEAT
[21:17:27.756052] [54] RADIO
[21:17:27.758953] [54] RADIO_STATUS
[21:17:28.107081] [162] VFR_HUD
[21:17:28.471152] [163] HEARTBEAT
[21:17:28.479082] [164] ATTITUDE_TARGET
[21:17:28.676078] [55] RADIO
[21:17:28.679039] [55] RADIO_STATUS
[21:17:29.491260] [166] HEARTBEAT
[21:17:29.728384] [167] VFR_HUD
[21:17:29.748169] [56] RADIO
[21:17:29.751337] [56] RADIO_STATUS
[21:17:30.538355] [168] HEARTBEAT
[21:17:30.545321] [169] SYS_STATUS
[21:17:30.579356] [170] BATTERY_STATUS
[21:17:30.581280] [171] EXTENDED_SYS_STATE
[21:17:30.589551] [172] ATTITUDE_TARGET
[21:17:30.594352] [173] VFR_HUD
[21:17:30.597321] [174] SYSTEM_TIME
[21:17:30.745363] [57] RADIO
[21:17:30.748290] [57] RADIO_STATUS
[21:17:31.326487] [175] VFR_HUD
[21:17:31.441484] [176] HEARTBEAT
[21:17:31.899840] [58] RADIO
[21:17:31.900435] [58] RADIO_STATUS
[21:17:32.016352] [177] VFR_HUD
[21:17:32.483604] [178] HEARTBEAT
[21:17:32.491525] [179] ATTITUDE_TARGET
[21:17:32.708557] [59] RADIO
[21:17:32.711537] [59] RADIO_STATUS
[21:17:32.824566] [180] VFR_HUD
[21:17:33.624805] [182] VFR_HUD
[21:17:33.733737] [60] RADIO
[21:17:33.736691] [60] RADIO_STATUS
[21:17:34.777786] [61] RADIO
[21:17:34.780743] [61] RADIO_STATUS
[21:17:35.233864] [188] VFR_HUD
[21:17:35.458968] [189] HEARTBEAT
[21:17:35.802892] [62] RADIO
[21:17:35.805956] [62] RADIO_STATUS
[21:17:36.042944] [190] VFR_HUD
[21:17:36.512124] [191] HEARTBEAT
[21:17:36.519956] [192] ATTITUDE_TARGET
[21:17:36.722010] [63] RADIO
[21:17:36.725259] [63] RADIO_STATUS
[21:17:37.418118] [194] HEARTBEAT
[21:17:37.658091] [195] VFR_HUD
[21:17:37.773386] [64] RADIO
[21:17:37.776252] [64] RADIO_STATUS
[21:17:38.581208] [198] BATTERY_STATUS
[21:17:38.699216] [199] ATTITUDE_TARGET
[21:17:38.704218] [200] VFR_HUD
[21:17:38.791220] [65] RADIO
[21:17:38.794174] [65] RADIO_STATUS
[21:17:39.267336] [201] VFR_HUD
[21:17:39.487349] [202] HEARTBEAT
[21:17:39.831292] [66] RADIO
[21:17:39.834272] [66] RADIO_STATUS
[21:17:40.073299] [203] VFR_HUD
[21:17:40.533750] [204] HEARTBEAT
[21:17:40.539446] [205] ATTITUDE_TARGET
[21:17:40.751427] [67] RADIO
[21:17:40.754383] [67] RADIO_STATUS
[21:17:40.877412] [206] VFR_HUD
[21:17:41.671716] [208] VFR_HUD
[21:17:41.780520] [68] RADIO
[21:17:41.783499] [68] RADIO_STATUS
[21:17:42.820577] [69] RADIO
[21:17:42.823556] [69] RADIO_STATUS
[21:17:43.281740] [214] VFR_HUD
[21:17:43.506788] [215] HEARTBEAT
[21:17:43.850766] [70] RADIO
[21:17:43.853767] [70] RADIO_STATUS
[21:17:44.090872] [216] VFR_HUD
[21:17:44.439860] [217] HEARTBEAT
[21:17:44.447956] [218] ATTITUDE_TARGET
[21:17:44.769896] [71] RADIO
[21:17:44.772792] [71] RADIO_STATUS
[21:17:45.470993] [220] HEARTBEAT
[21:17:45.699961] [221] VFR_HUD
[21:17:45.809965] [72] RADIO
[21:17:45.812983] [72] RADIO_STATUS
[21:17:46.629161] [224] BATTERY_STATUS
[21:17:46.747053] [225] ATTITUDE_TARGET
[21:17:46.752136] [226] VFR_HUD
[21:17:46.841088] [73] RADIO
[21:17:46.844239] [73] RADIO_STATUS
[21:17:47.414294] [228] HEARTBEAT
[21:17:47.758201] [74] RADIO
[21:17:47.760367] [74] RADIO_STATUS
[21:17:48.108240] [229] VFR_HUD
[21:17:48.797237] [75] RADIO
[21:17:48.800206] [75] RADIO_STATUS
[21:17:48.923363] [232] VFR_HUD
[21:17:49.717494] [234] VFR_HUD
[21:17:49.827922] [76] RADIO
[21:17:49.829665] [76] RADIO_STATUS
[21:17:50.866433] [77] RADIO
[21:17:50.869445] [77] RADIO_STATUS
[21:17:51.327588] [242] VFR_HUD
[21:17:51.447611] [243] HEARTBEAT
[21:17:51.895643] [78] RADIO
[21:17:51.898576] [78] RADIO_STATUS
[21:17:52.016553] [244] VFR_HUD
[21:17:52.488591] [245] HEARTBEAT
[21:17:52.493770] [246] ATTITUDE_TARGET
[21:17:52.814933] [79] RADIO
[21:17:52.817730] [79] RADIO_STATUS
[21:17:53.516799] [248] HEARTBEAT
[21:17:53.625739] [249] VFR_HUD
[21:17:53.859756] [80] RADIO
[21:17:53.862760] [80] RADIO_STATUS
[21:17:54.442864] [250] HEARTBEAT
[21:17:54.449891] [251] SYS_STATUS
[21:17:54.617880] [254] VFR_HUD
[21:17:54.884871] [81] RADIO
[21:17:54.887828] [81] RADIO_STATUS
[21:17:55.461102] [0] HEARTBEAT
[21:17:55.803990] [82] RADIO
[21:17:55.806873] [82] RADIO_STATUS
[21:17:56.050064] [1] VFR_HUD
[21:17:56.623169] [2] HEARTBEAT
[21:17:56.630994] [3] ATTITUDE_TARGET
[21:17:56.877056] [83] RADIO
[21:17:56.880223] [83] RADIO_STATUS
[21:17:57.765833] [6] VFR_HUD
[21:17:57.873144] [84] RADIO
[21:17:57.876194] [84] RADIO_STATUS
[21:17:58.461178] [7] HEARTBEAT
[21:17:58.468134] [8] SYS_STATUS
[21:17:58.918140] [85] RADIO
[21:17:58.921168] [85] RADIO_STATUS
[21:17:59.269269] [12] VFR_HUD
[21:17:59.489278] [13] HEARTBEAT
[21:17:59.943390] [86] RADIO
[21:17:59.946248] [86] RADIO_STATUS
[21:18:00.064332] [14] VFR_HUD
[21:18:00.533448] [15] HEARTBEAT
[21:18:00.540458] [16] ATTITUDE_TARGET
[21:18:00.862400] [87] RADIO
[21:18:00.865312] [87] RADIO_STATUS
[21:18:01.448104] [18] HEARTBEAT
[21:18:01.673797] [19] VFR_HUD
[21:18:01.907521] [88] RADIO
[21:18:01.910404] [88] RADIO_STATUS
[21:18:02.489666] [20] HEARTBEAT
[21:18:02.496599] [21] SYS_STATUS
[21:18:02.653587] [24] VFR_HUD
[21:18:02.931603] [89] RADIO
[21:18:02.936207] [89] RADIO_STATUS
[21:18:03.507804] [26] HEARTBEAT
[21:18:03.851764] [90] RADIO
[21:18:03.854904] [90] RADIO_STATUS
[21:18:04.091812] [27] VFR_HUD
[21:18:04.902894] [30] VFR_HUD
[21:18:04.923868] [91] RADIO
[21:18:04.926828] [91] RADIO_STATUS
[21:18:05.702329] [32] VFR_HUD
[21:18:05.921044] [92] RADIO
[21:18:05.923976] [92] RADIO_STATUS
[21:18:06.840080] [93] RADIO
[21:18:06.843940] [93] RADIO_STATUS
[21:18:07.316151] [38] VFR_HUD
[21:18:07.428140] [39] HEARTBEAT
[21:18:07.990228] [94] RADIO
[21:18:07.993284] [94] RADIO_STATUS
[21:18:08.111253] [40] VFR_HUD
[21:18:08.475568] [41] HEARTBEAT
[21:18:08.483293] [42] ATTITUDE_TARGET
[21:18:08.909350] [95] RADIO
[21:18:08.912393] [95] RADIO_STATUS
[21:18:09.486596] [44] HEARTBEAT
[21:18:09.720359] [45] VFR_HUD
[21:18:09.949395] [96] RADIO
[21:18:09.951366] [96] RADIO_STATUS
[21:18:10.542519] [46] HEARTBEAT
[21:18:10.549536] [47] SYS_STATUS
[21:18:10.583498] [48] BATTERY_STATUS
[21:18:10.585557] [49] EXTENDED_SYS_STATE
[21:18:10.592912] [50] ATTITUDE_TARGET
[21:18:10.597520] [51] VFR_HUD
[21:18:10.601500] [52] SYSTEM_TIME
[21:18:10.868517] [97] RADIO
[21:18:10.871688] [97] RADIO_STATUS
[21:18:11.450685] [54] HEARTBEAT
[21:18:11.898682] [98] RADIO
[21:18:11.901788] [98] RADIO_STATUS
[21:18:12.830064] [58] VFR_HUD
[21:18:12.941862] [99] RADIO
[21:18:12.942079] [99] RADIO_STATUS
[21:18:13.967855] [100] RADIO
[21:18:13.970854] [100] RADIO_STATUS
[21:18:14.451378] [61] HEARTBEAT
[21:18:14.458169] [62] SYS_STATUS
[21:18:14.497945] [63] BATTERY_STATUS
[21:18:14.505991] [64] ATTITUDE_TARGET
[21:18:14.509905] [65] VFR_HUD
[21:18:14.888032] [101] RADIO
[21:18:14.891026] [101] RADIO_STATUS
[21:18:15.238279] [66] VFR_HUD
[21:18:15.464138] [67] HEARTBEAT
[21:18:16.037168] [102] RADIO
[21:18:16.040071] [102] RADIO_STATUS
[21:18:16.087082] [68] VFR_HUD
[21:18:16.522151] [69] HEARTBEAT
[21:18:16.530132] [70] ATTITUDE_TARGET
[21:18:16.848562] [71] VFR_HUD
[21:18:16.957158] [103] RADIO
[21:18:16.960245] [103] RADIO_STATUS
[21:18:17.423447] [72] HEARTBEAT
[21:18:17.662287] [73] VFR_HUD
[21:18:17.996382] [104] RADIO
[21:18:17.999479] [104] RADIO_STATUS
[21:18:18.464500] [74] HEARTBEAT
[21:18:18.471442] [75] SYS_STATUS
[21:18:18.591378] [76] BATTERY_STATUS
[21:18:18.825794] [77] ATTITUDE_TARGET
[21:18:18.827367] [78] VFR_HUD
[21:18:18.921415] [105] RADIO
[21:18:18.923417] [105] RADIO_STATUS
[21:18:19.501517] [80] HEARTBEAT
[21:18:19.945719] [106] RADIO
[21:18:19.948581] [106] RADIO_STATUS
[21:18:20.066874] [81] VFR_HUD
[21:18:20.875636] [84] VFR_HUD
[21:18:20.989683] [107] RADIO
[21:18:20.992573] [107] RADIO_STATUS
[21:18:21.440703] [85] HEARTBEAT
[21:18:21.909715] [108] RADIO
[21:18:21.912841] [108] RADIO_STATUS
[21:18:22.492934] [87] HEARTBEAT
[21:18:22.500579] [88] SYS_STATUS
[21:18:22.617811] [89] BATTERY_STATUS
[21:18:22.625906] [90] ATTITUDE_TARGET
[21:18:22.656231] [91] VFR_HUD
[21:18:22.933828] [109] RADIO
[21:18:22.936766] [109] RADIO_STATUS
[21:18:23.509960] [93] HEARTBEAT
[21:18:24.083968] [110] RADIO
[21:18:24.087122] [110] RADIO_STATUS
[21:18:24.563024] [95] HEARTBEAT
[21:18:24.571050] [96] ATTITUDE_TARGET
[21:18:24.894047] [97] VFR_HUD
[21:18:24.925998] [111] RADIO
[21:18:24.929015] [111] RADIO_STATUS
[21:18:25.469132] [98] HEARTBEAT
[21:18:25.710074] [99] VFR_HUD
[21:18:26.048170] [112] RADIO
[21:18:26.051079] [112] RADIO_STATUS
[21:18:26.511201] [100] HEARTBEAT
[21:18:26.518344] [101] SYS_STATUS
[21:18:26.632141] [102] BATTERY_STATUS
[21:18:26.979198] [103] ATTITUDE_TARGET
[21:18:26.984224] [104] VFR_HUD
[21:18:26.996239] [113] RADIO
[21:18:26.998200] [113] RADIO_STATUS
[21:18:27.992327] [114] RADIO
[21:18:27.995293] [114] RADIO_STATUS
[21:18:28.124684] [107] VFR_HUD
[21:18:28.927378] [110] VFR_HUD
[21:18:29.141744] [115] RADIO
[21:18:29.144354] [115] RADIO_STATUS
[21:18:29.487568] [111] HEARTBEAT
[21:18:30.061512] [116] RADIO
[21:18:30.063507] [116] RADIO_STATUS
[21:18:30.538890] [113] HEARTBEAT
[21:18:30.545555] [114] SYS_STATUS
[21:18:30.980517] [117] RADIO
[21:18:30.983571] [117] RADIO_STATUS
[21:18:31.221677] [120] VFR_HUD
[21:18:31.451853] [121] HEARTBEAT
[21:18:32.129684] [118] RADIO
[21:18:32.132753] [118] RADIO_STATUS
[21:18:32.609820] [123] HEARTBEAT
[21:18:32.616906] [124] ATTITUDE_TARGET
[21:18:32.835793] [125] VFR_HUD
[21:18:33.049779] [119] RADIO
[21:18:33.052772] [119] RADIO_STATUS
[21:18:33.521059] [126] HEARTBEAT
[21:18:34.094867] [120] RADIO
[21:18:34.096874] [120] RADIO_STATUS
[21:18:35.009025] [121] RADIO
[21:18:35.012137] [121] RADIO_STATUS
[21:18:36.039143] [122] RADIO
[21:18:36.042212] [122] RADIO_STATUS
[21:18:36.077113] [135] VFR_HUD
[21:18:36.849288] [138] VFR_HUD
[21:18:37.078357] [123] RADIO
[21:18:37.081228] [123] RADIO_STATUS
[21:18:37.429352] [139] HEARTBEAT
[21:18:38.108381] [124] RADIO
[21:18:38.111345] [124] RADIO_STATUS
[21:18:38.466479] [141] HEARTBEAT
[21:18:38.473490] [142] SYS_STATUS
[21:18:38.592431] [143] BATTERY_STATUS
[21:18:39.027485] [125] RADIO
[21:18:39.030534] [125] RADIO_STATUS
[21:18:39.268571] [146] VFR_HUD
[21:18:39.499212] [147] HEARTBEAT
[21:18:40.176551] [126] RADIO
[21:18:40.179529] [126] RADIO_STATUS
[21:18:40.413694] [149] HEARTBEAT
[21:18:40.435567] [150] ATTITUDE_TARGET
[21:18:40.877687] [151] VFR_HUD
[21:18:41.096676] [127] RADIO
[21:18:41.099691] [127] RADIO_STATUS
[21:18:41.452720] [152] HEARTBEAT
[21:18:41.688797] [153] VFR_HUD
[21:18:42.020803] [128] RADIO
[21:18:42.023732] [128] RADIO_STATUS
[21:18:42.618837] [156] BATTERY_STATUS
[21:18:42.626829] [157] ATTITUDE_TARGET
[21:18:42.656812] [158] VFR_HUD
[21:18:43.055804] [129] RADIO
[21:18:43.058861] [129] RADIO_STATUS
[21:18:43.285929] [159] VFR_HUD
[21:18:44.084971] [130] RADIO
[21:18:44.088073] [130] RADIO_STATUS
[21:18:44.124009] [161] VFR_HUD
[21:18:44.896159] [164] VFR_HUD
[21:18:45.125264] [131] RADIO
[21:18:45.128054] [131] RADIO_STATUS
[21:18:45.471079] [165] HEARTBEAT
[21:18:46.154226] [132] RADIO
[21:18:46.157251] [132] RADIO_STATUS
[21:18:46.513312] [167] HEARTBEAT
[21:18:46.519234] [168] SYS_STATUS
[21:18:46.639205] [169] BATTERY_STATUS
[21:18:47.074592] [133] RADIO
[21:18:47.077277] [133] RADIO_STATUS
[21:18:47.315582] [172] VFR_HUD
[21:18:47.420330] [173] HEARTBEAT
[21:18:48.224472] [134] RADIO
[21:18:48.227414] [134] RADIO_STATUS
[21:18:48.474511] [175] HEARTBEAT
[21:18:48.481413] [176] ATTITUDE_TARGET
[21:18:48.924501] [177] VFR_HUD
[21:18:49.143519] [135] RADIO
[21:18:49.146467] [135] RADIO_STATUS
[21:18:49.489606] [178] HEARTBEAT
[21:18:50.183790] [136] RADIO
[21:18:50.186735] [136] RADIO_STATUS
[21:18:51.108760] [137] RADIO
[21:18:51.111733] [137] RADIO_STATUS
[21:18:51.228793] [187] VFR_HUD
[21:18:52.132856] [138] RADIO
[21:18:52.135829] [138] RADIO_STATUS
[21:18:52.492873] [190] HEARTBEAT
[21:18:52.500907] [191] ATTITUDE_TARGET
[21:18:52.838929] [192] VFR_HUD
[21:18:53.178016] [139] RADIO
[21:18:53.180933] [139] RADIO_STATUS
[21:18:53.520418] [193] HEARTBEAT
[21:18:53.633052] [194] VFR_HUD
[21:18:54.098199] [140] RADIO
[21:18:54.100131] [140] RADIO_STATUS
[21:18:54.456203] [195] HEARTBEAT
[21:18:54.462115] [196] SYS_STATUS
[21:18:54.502179] [197] BATTERY_STATUS
[21:18:54.510123] [198] ATTITUDE_TARGET
[21:18:54.515113] [199] VFR_HUD
[21:18:55.122229] [141] RADIO
[21:18:55.125168] [141] RADIO_STATUS
[21:18:55.598254] [200] VFR_HUD
[21:18:55.601205] [201] HEARTBEAT
[21:18:56.272570] [142] RADIO
[21:18:56.275339] [142] RADIO_STATUS
[21:18:56.521371] [203] HEARTBEAT
[21:18:56.529652] [204] ATTITUDE_TARGET
[21:18:57.191437] [143] RADIO
[21:18:57.194347] [143] RADIO_STATUS
[21:18:57.432501] [206] HEARTBEAT
[21:18:57.662576] [207] VFR_HUD
[21:18:58.236559] [144] RADIO
[21:18:58.239534] [144] RADIO_STATUS
[21:18:58.590644] [210] BATTERY_STATUS
[21:18:58.708760] [211] ATTITUDE_TARGET
[21:18:58.713611] [212] VFR_HUD
[21:18:59.150675] [145] RADIO
[21:18:59.153864] [145] RADIO_STATUS
[21:18:59.271627] [213] VFR_HUD
[21:19:00.180754] [146] RADIO
[21:19:00.183755] [146] RADIO_STATUS
[21:19:00.435830] [216] HEARTBEAT
[21:19:00.443959] [217] ATTITUDE_TARGET
[21:19:01.226003] [147] RADIO
[21:19:01.228956] [147] RADIO_STATUS
[21:19:01.455963] [219] HEARTBEAT
[21:19:01.680931] [220] VFR_HUD
[21:19:02.139076] [148] RADIO
[21:19:02.142196] [148] RADIO_STATUS
[21:19:02.503127] [221] HEARTBEAT
[21:19:02.509276] [222] SYS_STATUS
[21:19:02.549212] [223] BATTERY_STATUS
[21:19:02.557050] [224] ATTITUDE_TARGET
[21:19:02.562106] [225] VFR_HUD
[21:19:03.171158] [149] RADIO
[21:19:03.174233] [149] RADIO_STATUS
[21:19:03.411170] [226] VFR_HUD
[21:19:03.435181] [227] HEARTBEAT
[21:19:04.320261] [150] RADIO
[21:19:04.323274] [150] RADIO_STATUS
[21:19:04.450272] [229] HEARTBEAT
[21:19:04.458247] [230] ATTITUDE_TARGET
[21:19:04.912315] [231] VFR_HUD
[21:19:05.239336] [151] RADIO
[21:19:05.241284] [151] RADIO_STATUS
[21:19:05.484398] [232] HEARTBEAT
[21:19:05.714473] [233] VFR_HUD
[21:19:06.158484] [152] RADIO
[21:19:06.161450] [152] RADIO_STATUS
[21:19:06.756529] [237] ATTITUDE_TARGET
[21:19:06.760563] [238] VFR_HUD
[21:19:07.198528] [153] RADIO
[21:19:07.201497] [153] RADIO_STATUS
[21:19:07.318598] [239] VFR_HUD
[21:19:07.424583] [240] HEARTBEAT
[21:19:08.118613] [241] VFR_HUD
[21:19:08.227625] [154] RADIO
[21:19:08.230771] [154] RADIO_STATUS
[21:19:08.477698] [242] HEARTBEAT
[21:19:08.485663] [243] ATTITUDE_TARGET
[21:19:09.377770] [155] RADIO
[21:19:09.380736] [155] RADIO_STATUS
[21:19:09.493834] [245] HEARTBEAT
[21:19:09.623753] [246] VFR_HUD
[21:19:10.186830] [156] RADIO
[21:19:10.189803] [156] RADIO_STATUS
[21:19:10.549990] [249] BATTERY_STATUS
[21:19:10.551852] [250] EXTENDED_SYS_STATE
[21:19:10.671277] [251] ATTITUDE_TARGET
[21:19:10.675896] [252] VFR_HUD
[21:19:10.679912] [253] SYSTEM_TIME
[21:19:11.217995] [157] RADIO
[21:19:11.219952] [157] RADIO_STATUS
[21:19:11.453120] [255] HEARTBEAT
[21:19:12.039122] [0] VFR_HUD
[21:19:12.367213] [158] RADIO
[21:19:12.370253] [158] RADIO_STATUS
[21:19:12.497133] [1] HEARTBEAT
[21:19:12.505104] [2] ATTITUDE_TARGET
[21:19:12.843114] [3] VFR_HUD
[21:19:13.286183] [159] RADIO
[21:19:13.289217] [159] RADIO_STATUS
[21:19:13.637256] [5] VFR_HUD
[21:19:14.206284] [160] RADIO
[21:19:14.209301] [160] RADIO_STATUS
[21:19:15.273401] [161] RADIO
[21:19:15.276407] [161] RADIO_STATUS
[21:19:15.481453] [12] HEARTBEAT
[21:19:16.056451] [13] VFR_HUD
[21:19:16.275467] [162] RADIO
[21:19:16.278438] [162] RADIO_STATUS
[21:19:16.525649] [14] HEARTBEAT
[21:19:16.533608] [15] ATTITUDE_TARGET
[21:19:17.425673] [163] RADIO
[21:19:17.427623] [163] RADIO_STATUS
[21:19:17.459656] [17] HEARTBEAT
[21:19:17.665675] [18] VFR_HUD
[21:19:18.239884] [164] RADIO
[21:19:18.242785] [164] RADIO_STATUS
[21:19:18.594807] [21] BATTERY_STATUS
[21:19:18.744787] [22] ATTITUDE_TARGET
[21:19:18.749810] [23] VFR_HUD
[21:19:19.262858] [165] RADIO
[21:19:19.265783] [165] RADIO_STATUS
[21:19:19.301852] [24] VFR_HUD
[21:19:19.499064] [25] HEARTBEAT
[21:19:20.084949] [26] VFR_HUD
[21:19:20.413716] [166] RADIO
[21:19:20.415990] [166] RADIO_STATUS
[21:19:20.888062] [29] VFR_HUD
[21:19:21.332093] [167] RADIO
[21:19:21.335166] [167] RADIO_STATUS
[21:19:21.683134] [31] VFR_HUD
[21:19:22.377164] [168] RADIO
[21:19:22.380091] [168] RADIO_STATUS
[21:19:23.401316] [169] RADIO
[21:19:23.404289] [169] RADIO_STATUS
[21:19:23.446257] [37] VFR_HUD
[21:19:23.449583] [38] HEARTBEAT
[21:19:24.107384] [39] VFR_HUD
[21:19:24.320364] [170] RADIO
[21:19:24.323327] [170] RADIO_STATUS
[21:19:24.575423] [40] HEARTBEAT
[21:19:24.584196] [41] ATTITUDE_TARGET
[21:19:25.365500] [171] RADIO
[21:19:25.368770] [171] RADIO_STATUS
[21:19:25.481560] [43] HEARTBEAT
[21:19:25.710536] [44] VFR_HUD
[21:19:26.285649] [172] RADIO
[21:19:26.288734] [172] RADIO_STATUS
[21:19:26.644640] [47] BATTERY_STATUS
[21:19:26.876801] [48] ATTITUDE_TARGET
[21:19:26.881612] [49] VFR_HUD
[21:19:27.309931] [173] RADIO
[21:19:27.312767] [173] RADIO_STATUS
[21:19:27.435748] [50] VFR_HUD
[21:19:27.438833] [51] HEARTBEAT
[21:19:28.015932] [52] VFR_HUD
[21:19:28.459867] [174] RADIO
[21:19:28.461801] [174] RADIO_STATUS
[21:19:28.929894] [55] VFR_HUD
[21:19:29.378967] [175] RADIO
[21:19:29.381945] [175] RADIO_STATUS
[21:19:29.730197] [57] VFR_HUD
[21:19:30.299162] [176] RADIO
[21:19:30.301947] [176] RADIO_STATUS
[21:19:31.234139] [65] VFR_HUD
[21:19:31.448145] [177] RADIO
[21:19:31.453744] [177] RADIO_STATUS
[21:19:31.564195] [66] HEARTBEAT
[21:19:32.029190] [67] VFR_HUD
[21:19:32.368189] [178] RADIO
[21:19:32.371199] [178] RADIO_STATUS
[21:19:32.622237] [68] HEARTBEAT
[21:19:32.630286] [69] ATTITUDE_TARGET
[21:19:33.407271] [179] RADIO
[21:19:33.410267] [179] RADIO_STATUS
[21:19:33.525065] [71] HEARTBEAT
[21:19:33.638284] [72] VFR_HUD
[21:19:34.327534] [180] RADIO
[21:19:34.330406] [180] RADIO_STATUS
[21:19:34.455490] [73] HEARTBEAT
[21:19:34.462403] [74] SYS_STATUS
[21:19:35.356578] [181] RADIO
[21:19:35.359442] [181] RADIO_STATUS
[21:19:35.473491] [79] HEARTBEAT
[21:19:36.059632] [80] VFR_HUD
[21:19:36.506593] [182] RADIO
[21:19:36.509621] [182] RADIO_STATUS
[21:19:36.636617] [81] HEARTBEAT
[21:19:36.643602] [82] ATTITUDE_TARGET
[21:19:37.425652] [183] RADIO
[21:19:37.428601] [183] RADIO_STATUS
[21:19:37.677739] [85] VFR_HUD
[21:19:38.345802] [184] RADIO
[21:19:38.348800] [184] RADIO_STATUS
[21:19:39.280975] [91] VFR_HUD
[21:19:39.396970] [185] RADIO
[21:19:39.400693] [185] RADIO_STATUS
[21:19:39.510888] [92] HEARTBEAT
[21:19:40.075903] [93] VFR_HUD
[21:19:40.414976] [186] RADIO
[21:19:40.417924] [186] RADIO_STATUS
[21:19:40.462993] [94] HEARTBEAT
[21:19:40.470974] [95] ATTITUDE_TARGET
[21:19:41.565083] [187] RADIO
[21:19:41.567069] [187] RADIO_STATUS
[21:19:41.685120] [98] VFR_HUD
[21:19:42.374351] [188] RADIO
[21:19:42.377153] [188] RADIO_STATUS
[21:19:42.508257] [99] HEARTBEAT
[21:19:42.514291] [100] SYS_STATUS
[21:19:42.554319] [101] BATTERY_STATUS
[21:19:42.562346] [102] ATTITUDE_TARGET
[21:19:42.569818] [103] VFR_HUD
[21:19:43.405308] [189] RADIO
[21:19:43.408254] [189] RADIO_STATUS
[21:19:44.106392] [106] VFR_HUD
[21:19:44.555458] [190] RADIO
[21:19:44.558396] [190] RADIO_STATUS
[21:19:44.684466] [107] HEARTBEAT
[21:19:44.692437] [108] ATTITUDE_TARGET
[21:19:44.905504] [109] VFR_HUD
[21:19:45.474584] [191] RADIO
[21:19:45.477462] [191] RADIO_STATUS
[21:19:46.394658] [192] RADIO
[21:19:46.398017] [192] RADIO_STATUS
[21:19:46.454668] [112] HEARTBEAT
[21:19:46.460716] [113] SYS_STATUS
[21:19:46.468671] [114] BATTERY_STATUS
[21:19:46.480679] [115] ATTITUDE_TARGET
[21:19:46.485694] [116] VFR_HUD
[21:19:47.324789] [117] VFR_HUD
[21:19:47.430800] [118] HEARTBEAT
[21:19:47.461792] [193] RADIO
[21:19:47.464795] [193] RADIO_STATUS
[21:19:48.123889] [119] VFR_HUD
[21:19:48.463953] [194] RADIO
[21:19:48.466930] [194] RADIO_STATUS
[21:19:48.510947] [120] HEARTBEAT
[21:19:48.518874] [121] ATTITUDE_TARGET
[21:19:48.813944] [122] VFR_HUD
[21:19:49.612956] [195] RADIO
[21:19:49.616901] [195] RADIO_STATUS
[21:19:49.651984] [124] VFR_HUD
[21:19:50.431164] [125] HEARTBEAT
[21:19:50.438084] [126] SYS_STATUS
[21:19:50.450950] [196] RADIO
[21:19:50.453043] [196] RADIO_STATUS
[21:19:50.561162] [127] BATTERY_STATUS
[21:19:50.562072] [128] EXTENDED_SYS_STATE
[21:19:50.594132] [129] ATTITUDE_TARGET
[21:19:50.599251] [130] VFR_HUD
[21:19:50.603212] [131] SYSTEM_TIME
[21:19:51.452176] [197] RADIO
[21:19:51.455184] [197] RADIO_STATUS
[21:19:51.486240] [133] HEARTBEAT
[21:19:52.602346] [198] RADIO
[21:19:52.605340] [198] RADIO_STATUS
[21:19:52.842392] [137] VFR_HUD
[21:19:53.408420] [138] HEARTBEAT
[21:19:53.439357] [199] RADIO
[21:19:53.442569] [199] RADIO_STATUS
[21:19:54.441507] [200] RADIO
[21:19:54.444457] [200] RADIO_STATUS
[21:19:54.569569] [140] HEARTBEAT
[21:19:54.576501] [141] SYS_STATUS
[21:19:55.251653] [145] VFR_HUD
[21:19:55.477637] [146] HEARTBEAT
[21:19:55.590636] [201] RADIO
[21:19:55.593636] [201] RADIO_STATUS
[21:19:56.510716] [202] RADIO
[21:19:56.513677] [202] RADIO_STATUS
[21:19:56.764890] [148] HEARTBEAT
[21:19:56.772798] [149] ATTITUDE_TARGET
[21:19:56.860750] [150] VFR_HUD
[21:19:57.435825] [151] HEARTBEAT
[21:19:57.554902] [203] RADIO
[21:19:57.557744] [203] RADIO_STATUS
[21:19:57.674883] [152] VFR_HUD
[21:19:58.476950] [153] HEARTBEAT
[21:19:58.483995] [154] SYS_STATUS
[21:19:58.496923] [204] RADIO
[21:19:58.499872] [204] RADIO_STATUS
[21:19:58.598989] [155] BATTERY_STATUS
[21:19:58.946026] [156] ATTITUDE_TARGET
[21:19:58.951219] [157] VFR_HUD
[21:19:59.497099] [205] RADIO
[21:19:59.500188] [205] RADIO_STATUS
[21:19:59.613122] [159] HEARTBEAT
[21:20:00.089169] [160] VFR_HUD
[21:20:00.646211] [206] RADIO
[21:20:00.650091] [206] RADIO_STATUS
[21:20:00.886347] [163] VFR_HUD
[21:20:01.451356] [164] HEARTBEAT
[21:20:01.565305] [207] RADIO
[21:20:01.568308] [207] RADIO_STATUS
[21:20:02.484443] [208] RADIO
[21:20:02.487381] [208] RADIO_STATUS
[21:20:03.415767] [172] HEARTBEAT
[21:20:03.633594] [209] RADIO
[21:20:03.636564] [209] RADIO_STATUS
[21:20:04.115626] [173] VFR_HUD
[21:20:04.553676] [210] RADIO
[21:20:04.556568] [210] RADIO_STATUS
[21:20:04.683626] [174] HEARTBEAT
[21:20:04.690614] [175] ATTITUDE_TARGET
[21:20:04.903684] [176] VFR_HUD
[21:20:05.483741] [177] HEARTBEAT
[21:20:05.701792] [211] RADIO
[21:20:05.704725] [211] RADIO_STATUS
[21:20:05.834848] [178] VFR_HUD
[21:20:06.519867] [179] HEARTBEAT
[21:20:06.526880] [180] SYS_STATUS
[21:20:06.621894] [212] RADIO
[21:20:06.624964] [212] RADIO_STATUS
[21:20:06.662856] [181] BATTERY_STATUS
[21:20:06.689882] [182] ATTITUDE_TARGET
[21:20:06.694803] [183] VFR_HUD
[21:20:07.540992] [213] RADIO
[21:20:07.545767] [213] RADIO_STATUS
[21:20:08.017096] [186] VFR_HUD
[21:20:08.691163] [214] RADIO
[21:20:08.694079] [214] RADIO_STATUS
[21:20:08.811180] [189] VFR_HUD
[21:20:09.497184] [190] HEARTBEAT
[21:20:09.610192] [215] RADIO
[21:20:09.613378] [215] RADIO_STATUS
[21:20:10.429327] [192] HEARTBEAT
[21:20:10.435306] [193] SYS_STATUS
[21:20:10.530388] [216] RADIO
[21:20:10.533626] [216] RADIO_STATUS
[21:20:10.594377] [194] BATTERY_STATUS
[21:20:10.596303] [195] EXTENDED_SYS_STATE
[21:20:10.604376] [196] ATTITUDE_TARGET
[21:20:10.609405] [197] VFR_HUD
[21:20:10.612287] [198] SYSTEM_TIME
[21:20:11.231365] [199] VFR_HUD
[21:20:11.461417] [200] HEARTBEAT
[21:20:11.679488] [217] RADIO
[21:20:11.682518] [217] RADIO_STATUS
[21:20:12.517606] [218] RADIO
[21:20:12.520476] [218] RADIO_STATUS
[21:20:12.624586] [202] HEARTBEAT
[21:20:12.631532] [203] ATTITUDE_TARGET
[21:20:12.840532] [204] VFR_HUD
[21:20:13.405685] [205] HEARTBEAT
[21:20:13.519567] [219] RADIO
[21:20:13.522549] [219] RADIO_STATUS
[21:20:14.582772] [209] BATTERY_STATUS
[21:20:14.590772] [210] ATTITUDE_TARGET
[21:20:14.620852] [211] VFR_HUD
[21:20:14.647804] [220] RADIO
[21:20:14.650773] [220] RADIO_STATUS
[21:20:15.249825] [212] VFR_HUD
[21:20:15.588839] [221] RADIO
[21:20:15.591747] [221] RADIO_STATUS
[21:20:16.063843] [214] VFR_HUD
[21:20:16.740977] [222] RADIO
[21:20:16.743955] [222] RADIO_STATUS
[21:20:16.858021] [217] VFR_HUD
[21:20:17.433078] [218] HEARTBEAT
[21:20:17.552031] [223] RADIO
[21:20:17.555033] [223] RADIO_STATUS
[21:20:18.475239] [220] HEARTBEAT
[21:20:18.482249] [221] SYS_STATUS
[21:20:18.576220] [224] RADIO
[21:20:18.579185] [224] RADIO_STATUS
[21:20:18.646191] [222] BATTERY_STATUS
[21:20:18.654438] [223] ATTITUDE_TARGET
[21:20:18.659335] [224] VFR_HUD
[21:20:19.512289] [225] VFR_HUD
[21:20:19.515298] [226] HEARTBEAT
[21:20:19.726385] [225] RADIO
[21:20:19.729381] [225] RADIO_STATUS
[21:20:20.435440] [228] HEARTBEAT
[21:20:20.443474] [229] ATTITUDE_TARGET
[21:20:20.645387] [226] RADIO
[21:20:20.648403] [226] RADIO_STATUS
[21:20:20.886435] [230] VFR_HUD
[21:20:21.451507] [231] HEARTBEAT
[21:20:21.565670] [227] RADIO
[21:20:21.568472] [227] RADIO_STATUS
[21:20:21.697527] [232] VFR_HUD
[21:20:22.628681] [235] BATTERY_STATUS
[21:20:22.636642] [236] ATTITUDE_TARGET
[21:20:22.666669] [237] VFR_HUD
[21:20:22.713602] [228] RADIO
[21:20:22.716849] [228] RADIO_STATUS
[21:20:23.294662] [238] VFR_HUD
[21:20:23.633911] [229] RADIO
[21:20:23.636797] [229] RADIO_STATUS
[21:20:24.103834] [240] VFR_HUD
[21:20:24.782868] [230] RADIO
[21:20:24.785855] [230] RADIO_STATUS
[21:20:24.832915] [243] VFR_HUD
[21:20:25.478989] [244] HEARTBEAT
[21:20:25.597958] [231] RADIO
[21:20:25.600986] [231] RADIO_STATUS
[21:20:26.404445] [246] HEARTBEAT
[21:20:26.533172] [247] SYS_STATUS
[21:20:26.541106] [248] BATTERY_STATUS
[21:20:26.623071] [232] RADIO
[21:20:26.626089] [232] RADIO_STATUS
[21:20:26.664086] [249] ATTITUDE_TARGET
[21:20:26.689810] [250] VFR_HUD
[21:20:27.328214] [251] VFR_HUD
[21:20:27.667295] [233] RADIO
[21:20:27.670272] [233] RADIO_STATUS
[21:20:28.487399] [254] HEARTBEAT
[21:20:28.495284] [255] ATTITUDE_TARGET
[21:20:28.692744] [234] RADIO
[21:20:28.695277] [234] RADIO_STATUS
[21:20:28.824331] [0] VFR_HUD
[21:20:29.497445] [1] HEARTBEAT
[21:20:29.611413] [235] RADIO
[21:20:29.614414] [235] RADIO_STATUS
[21:20:29.732397] [2] VFR_HUD
[21:20:30.674935] [7] ATTITUDE_TARGET
[21:20:30.679513] [8] VFR_HUD
[21:20:30.683635] [9] SYSTEM_TIME
[21:20:30.717680] [236] RADIO
[21:20:30.720551] [236] RADIO_STATUS
[21:20:31.231695] [10] VFR_HUD
[21:20:31.680609] [237] RADIO
[21:20:31.683631] [237] RADIO_STATUS
[21:20:32.030770] [12] VFR_HUD
[21:20:32.499798] [13] HEARTBEAT
[21:20:32.507790] [14] ATTITUDE_TARGET
[21:20:32.829913] [238] RADIO
[21:20:32.832971] [238] RADIO_STATUS
[21:20:33.405904] [16] HEARTBEAT
[21:20:33.640883] [17] VFR_HUD
[21:20:33.666846] [239] RADIO
[21:20:33.669829] [239] RADIO_STATUS
[21:20:34.461962] [18] HEARTBEAT
[21:20:34.469129] [19] SYS_STATUS
[21:20:34.508934] [20] BATTERY_STATUS
[21:20:34.516997] [21] ATTITUDE_TARGET
[21:20:34.521916] [22] VFR_HUD
[21:20:34.669817] [240] RADIO
[21:20:34.671915] [240] RADIO_STATUS
[21:20:35.485044] [23] VFR_HUD
[21:20:35.487997] [24] HEARTBEAT
[21:20:35.709283] [241] RADIO
[21:20:35.711040] [241] RADIO_STATUS
[21:20:36.533289] [26] HEARTBEAT
[21:20:36.541152] [27] ATTITUDE_TARGET
[21:20:36.738185] [242] RADIO
[21:20:36.741164] [242] RADIO_STATUS
[21:20:36.859278] [28] VFR_HUD
[21:20:37.658319] [243] RADIO
[21:20:37.661286] [243] RADIO_STATUS
[21:20:37.696374] [30] VFR_HUD
[21:20:38.715525] [34] ATTITUDE_TARGET
[21:20:38.719521] [35] VFR_HUD
[21:20:38.725644] [244] RADIO
[21:20:38.728642] [244] RADIO_STATUS
[21:20:39.278507] [36] VFR_HUD
[21:20:39.727568] [245] RADIO
[21:20:39.730531] [245] RADIO_STATUS
[21:20:40.436798] [39] HEARTBEAT
[21:20:40.444624] [40] ATTITUDE_TARGET
[21:20:40.876720] [246] RADIO
[21:20:40.879644] [246] RADIO_STATUS
[21:20:40.997684] [41] VFR_HUD
[21:20:41.452999] [42] HEARTBEAT
[21:20:41.700287] [43] VFR_HUD
[21:20:41.713817] [247] RADIO
[21:20:41.716782] [247] RADIO_STATUS
[21:20:42.503946] [44] HEARTBEAT
[21:20:42.510893] [45] SYS_STATUS
[21:20:42.661902] [46] BATTERY_STATUS
[21:20:42.670013] [47] ATTITUDE_TARGET
[21:20:42.674961] [48] VFR_HUD
[21:20:42.695007] [248] RADIO
[21:20:42.697973] [248] RADIO_STATUS
[21:20:43.296082] [49] VFR_HUD
[21:20:43.412076] [50] HEARTBEAT
[21:20:43.755073] [249] RADIO
[21:20:43.758634] [249] RADIO_STATUS
[21:20:44.455161] [52] HEARTBEAT
[21:20:44.463121] [53] ATTITUDE_TARGET
[21:20:44.785184] [250] RADIO
[21:20:44.788115] [250] RADIO_STATUS
[21:20:44.823199] [54] VFR_HUD
[21:20:45.481312] [55] HEARTBEAT
[21:20:45.704323] [251] RADIO
[21:20:45.707304] [251] RADIO_STATUS
[21:20:45.743276] [56] VFR_HUD
[21:20:46.761514] [60] ATTITUDE_TARGET
[21:20:46.766485] [61] VFR_HUD
[21:20:46.803458] [252] RADIO
[21:20:46.806479] [252] RADIO_STATUS
[21:20:47.330464] [62] VFR_HUD
[21:20:47.451704] [63] HEARTBEAT
[21:20:47.773684] [253] RADIO
[21:20:47.776504] [253] RADIO_STATUS
[21:20:48.014559] [64] VFR_HUD
[21:20:48.483706] [65] HEARTBEAT
[21:20:48.491668] [66] ATTITUDE_TARGET
[21:20:48.926024] [254] RADIO
[21:20:48.926682] [254] RADIO_STATUS
[21:20:49.501954] [68] HEARTBEAT
[21:20:49.623863] [69] VFR_HUD
[21:20:49.737815] [255] RADIO
[21:20:49.740802] [255] RADIO_STATUS
[21:20:50.556246] [72] BATTERY_STATUS
[21:20:50.557924] [73] EXTENDED_SYS_STATE
[21:20:50.676913] [74] ATTITUDE_TARGET
[21:20:50.681870] [75] VFR_HUD
[21:20:50.685054] [76] SYSTEM_TIME
[21:20:50.719974] [0] RADIO
[21:20:50.722980] [0] RADIO_STATUS
[21:20:51.464155] [78] HEARTBEAT
[21:20:51.808092] [1] RADIO
[21:20:51.811083] [1] RADIO_STATUS
[21:20:52.033107] [79] VFR_HUD
[21:20:52.502164] [80] HEARTBEAT
[21:20:52.510109] [81] ATTITUDE_TARGET
[21:20:52.722207] [2] RADIO
[21:20:52.725448] [2] RADIO_STATUS
[21:20:52.848137] [82] VFR_HUD
[21:20:53.644636] [84] VFR_HUD
[21:20:53.752247] [3] RADIO
[21:20:53.755192] [3] RADIO_STATUS
[21:20:54.796322] [4] RADIO
[21:20:54.799351] [4] RADIO_STATUS
[21:20:55.487647] [90] VFR_HUD
[21:20:55.491005] [91] HEARTBEAT
[21:20:55.821468] [5] RADIO
[21:20:55.824397] [5] RADIO_STATUS
[21:20:56.061500] [92] VFR_HUD
[21:20:56.740566] [6] RADIO
[21:20:56.743625] [6] RADIO_STATUS
[21:20:57.441652] [96] HEARTBEAT
[21:20:57.670660] [97] VFR_HUD
[21:20:57.779625] [7] RADIO
[21:20:57.782636] [7] RADIO_STATUS
[21:20:58.604807] [100] BATTERY_STATUS
[21:20:58.716932] [101] ATTITUDE_TARGET
[21:20:58.721782] [102] VFR_HUD
[21:20:58.809799] [8] RADIO
[21:20:58.812822] [8] RADIO_STATUS
[21:20:59.510878] [104] HEARTBEAT
[21:20:59.958879] [9] RADIO
[21:20:59.961909] [9] RADIO_STATUS
[21:21:00.090963] [105] VFR_HUD
[21:21:00.548781] [106] HEARTBEAT
[21:21:00.556695] [107] ATTITUDE_TARGET
[21:21:00.769183] [10] RADIO
[21:21:00.772173] [10] RADIO_STATUS
[21:21:00.889036] [108] VFR_HUD
[21:21:01.689093] [110] VFR_HUD
[21:21:01.802058] [11] RADIO
[21:21:01.805047] [11] RADIO_STATUS
[21:21:02.838184] [12] RADIO
[21:21:02.841138] [12] RADIO_STATUS
[21:21:03.424328] [116] VFR_HUD
[21:21:03.427302] [117] HEARTBEAT
[21:21:03.868288] [13] RADIO
[21:21:03.871244] [13] RADIO_STATUS
[21:21:04.113373] [118] VFR_HUD
[21:21:04.582417] [119] HEARTBEAT
[21:21:04.590446] [120] ATTITUDE_TARGET
[21:21:04.787482] [14] RADIO
[21:21:04.790350] [14] RADIO_STATUS
[21:21:05.483674] [122] HEARTBEAT
[21:21:05.723633] [123] VFR_HUD
[21:21:05.838576] [15] RADIO
[21:21:05.841968] [15] RADIO_STATUS
[21:21:06.403911] [124] HEARTBEAT
[21:21:06.423622] [125] SYS_STATUS
[21:21:06.467375] [126] BATTERY_STATUS
[21:21:06.474625] [127] ATTITUDE_TARGET
[21:21:06.479570] [128] VFR_HUD
[21:21:06.856580] [16] RADIO
[21:21:06.859549] [16] RADIO_STATUS
[21:21:07.442659] [129] VFR_HUD
[21:21:07.445634] [130] HEARTBEAT
[21:21:07.896692] [17] RADIO
[21:21:07.899874] [17] RADIO_STATUS
[21:21:08.028784] [131] VFR_HUD
[21:21:08.596093] [132] HEARTBEAT
[21:21:08.603992] [133] ATTITUDE_TARGET
[21:21:08.843832] [18] RADIO
[21:21:08.846849] [18] RADIO_STATUS
[21:21:09.637889] [136] VFR_HUD
[21:21:09.845856] [19] RADIO
[21:21:09.848824] [19] RADIO_STATUS
[21:21:10.434033] [137] HEARTBEAT
[21:21:10.441019] [138] SYS_STATUS
[21:21:10.884988] [20] RADIO
[21:21:10.888360] [20] RADIO_STATUS
[21:21:11.241151] [144] VFR_HUD
[21:21:11.461210] [145] HEARTBEAT
[21:21:11.915099] [21] RADIO
[21:21:11.918089] [21] RADIO_STATUS
[21:21:12.035158] [146] VFR_HUD
[21:21:12.505189] [147] HEARTBEAT
[21:21:12.512149] [148] ATTITUDE_TARGET
[21:21:12.834270] [22] RADIO
[21:21:12.837145] [22] RADIO_STATUS
[21:21:13.644327] [151] VFR_HUD
[21:21:13.878314] [23] RADIO
[21:21:13.881303] [23] RADIO_STATUS
[21:21:14.469448] [152] HEARTBEAT
[21:21:14.473449] [153] SYS_STATUS
[21:21:14.513433] [154] BATTERY_STATUS
[21:21:14.520473] [155] ATTITUDE_TARGET
[21:21:14.525396] [156] VFR_HUD
[21:21:14.904419] [24] RADIO
[21:21:14.907410] [24] RADIO_STATUS
[21:21:15.480519] [158] HEARTBEAT
[21:21:15.949685] [25] RADIO
[21:21:15.952628] [25] RADIO_STATUS
[21:21:16.065560] [159] VFR_HUD
[21:21:16.864651] [162] VFR_HUD
[21:21:16.900631] [26] RADIO
[21:21:16.904714] [26] RADIO_STATUS
[21:21:17.686878] [164] VFR_HUD
[21:21:17.893743] [27] RADIO
[21:21:17.896683] [27] RADIO_STATUS
[21:21:18.481858] [165] HEARTBEAT
[21:21:18.488813] [166] SYS_STATUS
[21:21:18.941635] [28] RADIO
[21:21:18.945811] [28] RADIO_STATUS
[21:21:19.285187] [170] VFR_HUD
[21:21:19.514910] [171] HEARTBEAT
[21:21:19.963964] [29] RADIO
[21:21:19.966942] [29] RADIO_STATUS
[21:21:20.083956] [172] VFR_HUD
[21:21:20.448959] [173] HEARTBEAT
[21:21:20.455937] [174] ATTITUDE_TARGET
[21:21:20.883012] [30] RADIO
[21:21:20.885970] [30] RADIO_STATUS
[21:21:21.459188] [176] HEARTBEAT
[21:21:21.694101] [177] VFR_HUD
[21:21:21.927092] [31] RADIO
[21:21:21.930026] [31] RADIO_STATUS
[21:21:22.515166] [178] HEARTBEAT
[21:21:22.522146] [179] SYS_STATUS
[21:21:22.562238] [180] BATTERY_STATUS
[21:21:22.569168] [181] ATTITUDE_TARGET
[21:21:22.574152] [182] VFR_HUD
[21:21:22.953209] [32] RADIO
[21:21:22.956233] [32] RADIO_STATUS
[21:21:24.103510] [33] RADIO
[21:21:24.106399] [33] RADIO_STATUS
[21:21:24.141365] [185] VFR_HUD
[21:21:25.022423] [34] RADIO
[21:21:25.025384] [34] RADIO_STATUS
[21:21:25.734505] [190] VFR_HUD
[21:21:25.942553] [35] RADIO
[21:21:25.945494] [35] RADIO_STATUS
[21:21:26.420645] [191] HEARTBEAT
[21:21:26.427744] [192] SYS_STATUS
[21:21:26.583651] [195] VFR_HUD
[21:21:26.987624] [36] RADIO
[21:21:26.990592] [36] RADIO_STATUS
[21:21:27.437814] [197] HEARTBEAT
[21:21:28.011726] [37] RADIO
[21:21:28.015707] [37] RADIO_STATUS
[21:21:28.491853] [199] HEARTBEAT
[21:21:28.498915] [200] ATTITUDE_TARGET
[21:21:28.833831] [201] VFR_HUD
[21:21:28.931042] [38] RADIO
[21:21:28.933977] [38] RADIO_STATUS
[21:21:29.516961] [202] HEARTBEAT
[21:21:29.637833] [203] VFR_HUD
[21:21:29.970004] [39] RADIO
[21:21:29.972953] [39] RADIO_STATUS
[21:21:30.438127] [204] HEARTBEAT
[21:21:30.445069] [205] SYS_STATUS
[21:21:30.563017] [206] BATTERY_STATUS
[21:21:30.564932] [207] EXTENDED_SYS_STATE
[21:21:31.000098] [40] RADIO
[21:21:31.003114] [40] RADIO_STATUS
[21:21:31.936147] [41] RADIO
[21:21:31.939113] [41] RADIO_STATUS
[21:21:32.858282] [216] VFR_HUD
[21:21:32.970304] [42] RADIO
[21:21:32.973408] [42] RADIO_STATUS
[21:21:33.415386] [217] HEARTBEAT
[21:21:33.988362] [43] RADIO
[21:21:33.991340] [43] RADIO_STATUS
[21:21:34.466446] [219] HEARTBEAT
[21:21:34.473410] [220] SYS_STATUS
[21:21:34.629413] [223] VFR_HUD
[21:21:35.028430] [44] RADIO
[21:21:35.031454] [44] RADIO_STATUS
[21:21:35.270654] [224] VFR_HUD
[21:21:36.057635] [45] RADIO
[21:21:36.060667] [45] RADIO_STATUS
[21:21:36.178908] [226] VFR_HUD
[21:21:36.403774] [227] HEARTBEAT
[21:21:36.536705] [228] ATTITUDE_TARGET
[21:21:36.869653] [229] VFR_HUD
[21:21:37.207726] [46] RADIO
[21:21:37.210660] [46] RADIO_STATUS
[21:21:37.443826] [230] HEARTBEAT
[21:21:37.678451] [231] VFR_HUD
[21:21:38.016797] [47] RADIO
[21:21:38.019892] [47] RADIO_STATUS
[21:21:38.484949] [232] HEARTBEAT
[21:21:38.491924] [233] SYS_STATUS
[21:21:38.606998] [234] BATTERY_STATUS
[21:21:39.046886] [48] RADIO
[21:21:39.049917] [48] RADIO_STATUS
[21:21:40.114011] [49] RADIO
[21:21:40.117045] [49] RADIO_STATUS
[21:21:40.902111] [242] VFR_HUD
[21:21:41.023033] [50] RADIO
[21:21:41.026024] [50] RADIO_STATUS
[21:21:41.462172] [243] HEARTBEAT
[21:21:42.036187] [51] RADIO
[21:21:42.038462] [51] RADIO_STATUS
[21:21:42.519345] [245] HEARTBEAT
[21:21:42.526245] [246] SYS_STATUS
[21:21:42.565326] [247] BATTERY_STATUS
[21:21:42.573495] [248] ATTITUDE_TARGET
[21:21:42.580897] [249] VFR_HUD
[21:21:43.075344] [52] RADIO
[21:21:43.078446] [52] RADIO_STATUS
[21:21:43.436362] [250] VFR_HUD
[21:21:43.439613] [251] HEARTBEAT
[21:21:44.105378] [53] RADIO
[21:21:44.108408] [53] RADIO_STATUS
[21:21:44.225522] [252] VFR_HUD
[21:21:44.589472] [253] HEARTBEAT
[21:21:44.596444] [254] ATTITUDE_TARGET
[21:21:44.915636] [255] VFR_HUD
[21:21:45.024463] [54] RADIO
[21:21:45.027649] [54] RADIO_STATUS
[21:21:45.495583] [0] HEARTBEAT
[21:21:45.724563] [1] VFR_HUD
[21:21:46.068632] [55] RADIO
[21:21:46.071615] [55] RADIO_STATUS
[21:21:46.547788] [4] BATTERY_STATUS
[21:21:46.555638] [5] ATTITUDE_TARGET
[21:21:46.585675] [6] VFR_HUD
[21:21:47.093732] [56] RADIO
[21:21:47.096655] [56] RADIO_STATUS
[21:21:47.214756] [7] VFR_HUD
[21:21:48.031080] [9] VFR_HUD
[21:21:48.149927] [57] RADIO
[21:21:48.152879] [57] RADIO_STATUS
[21:21:48.823941] [12] VFR_HUD
[21:21:49.058033] [58] RADIO
[21:21:49.060950] [58] RADIO_STATUS
[21:21:49.509008] [13] HEARTBEAT
[21:21:50.083051] [59] RADIO
[21:21:50.086016] [59] RADIO_STATUS
[21:21:50.441924] [15] HEARTBEAT
[21:21:50.448078] [16] SYS_STATUS
[21:21:50.572883] [17] BATTERY_STATUS
[21:21:50.573006] [18] EXTENDED_SYS_STATE
[21:21:50.604197] [19] ATTITUDE_TARGET
[21:21:50.609061] [20] VFR_HUD
[21:21:50.613060] [21] SYSTEM_TIME
[21:21:51.127232] [60] RADIO
[21:21:51.130086] [60] RADIO_STATUS
[21:21:51.248254] [22] VFR_HUD
[21:21:51.467194] [23] HEARTBEAT
[21:21:52.151810] [61] RADIO
[21:21:52.154568] [61] RADIO_STATUS
[21:21:52.635329] [25] HEARTBEAT
[21:21:52.643885] [26] ATTITUDE_TARGET
[21:21:52.851345] [27] VFR_HUD
[21:21:53.070367] [62] RADIO
[21:21:53.073335] [62] RADIO_STATUS
[21:21:53.417579] [28] HEARTBEAT
[21:21:54.115499] [63] RADIO
[21:21:54.118500] [63] RADIO_STATUS
[21:21:54.593542] [32] BATTERY_STATUS
[21:21:54.601472] [33] ATTITUDE_TARGET
[21:21:54.631575] [34] VFR_HUD
[21:21:55.139576] [64] RADIO
[21:21:55.142517] [64] RADIO_STATUS
[21:21:55.271575] [35] VFR_HUD
[21:21:56.070721] [37] VFR_HUD
[21:21:56.184628] [65] RADIO
[21:21:56.187605] [65] RADIO_STATUS
[21:21:56.419680] [38] HEARTBEAT
[21:21:56.427680] [39] ATTITUDE_TARGET
[21:21:56.869845] [40] VFR_HUD
[21:21:57.099927] [66] RADIO
[21:21:57.101805] [66] RADIO_STATUS
[21:21:57.445831] [41] HEARTBEAT
[21:21:58.128883] [67] RADIO
[21:21:58.133960] [67] RADIO_STATUS
[21:21:58.487034] [43] HEARTBEAT
[21:21:58.493963] [44] SYS_STATUS
[21:21:58.608200] [45] BATTERY_STATUS
[21:21:59.168001] [68] RADIO
[21:21:59.170993] [68] RADIO_STATUS
[21:21:59.293999] [48] VFR_HUD
[21:21:59.414998] [49] HEARTBEAT
[21:22:00.198257] [69] RADIO
[21:22:00.201468] [69] RADIO_STATUS
[21:22:00.448216] [51] HEARTBEAT
[21:22:00.455750] [52] ATTITUDE_TARGET
[21:22:00.903551] [53] VFR_HUD
[21:22:01.118274] [70] RADIO
[21:22:01.120495] [70] RADIO_STATUS
[21:22:01.463292] [54] HEARTBEAT
[21:22:01.698328] [55] VFR_HUD
[21:22:02.157414] [71] RADIO
[21:22:02.161794] [71] RADIO_STATUS
[21:22:02.640459] [58] BATTERY_STATUS
[21:22:02.648422] [59] ATTITUDE_TARGET
[21:22:02.678440] [60] VFR_HUD
[21:22:03.186473] [72] RADIO
[21:22:03.189467] [72] RADIO_STATUS
[21:22:03.318548] [61] VFR_HUD
[21:22:04.116657] [63] VFR_HUD
[21:22:04.336587] [73] RADIO
[21:22:04.338674] [73] RADIO_STATUS
[21:22:05.255707] [74] RADIO
[21:22:05.258702] [74] RADIO_STATUS
[21:22:05.496786] [67] HEARTBEAT
[21:22:05.623007] [68] VFR_HUD
[21:22:06.174828] [75] RADIO
[21:22:06.177795] [75] RADIO_STATUS
[21:22:06.428891] [69] HEARTBEAT
