[20:00:04.315649] [221] VFR_HUD
[20:00:04.348488] [42] RADIO
[20:00:04.351454] [42] RADIO_STATUS
[20:00:04.674527] [222] HEARTBEAT
[20:00:04.682573] [223] ATTITUDE_TARGET
[20:00:05.125528] [224] VFR_HUD
[20:00:05.344647] [43] RADIO
[20:00:05.347606] [43] RADIO_STATUS
[20:00:05.690646] [225] HEARTBEAT
[20:00:05.925686] [226] VFR_HUD
[20:00:06.264658] [44] RADIO
[20:00:06.267628] [44] RADIO_STATUS
[20:00:06.742751] [227] HEARTBEAT
[20:00:06.748773] [228] SYS_STATUS
[20:00:06.867769] [229] BATTERY_STATUS
[20:00:06.875806] [230] ATTITUDE_TARGET
[20:00:06.905786] [231] VFR_HUD
[20:00:07.303916] [45] RADIO
[20:00:07.306782] [45] RADIO_STATUS
[20:00:07.536639] [232] VFR_HUD
[20:00:07.649853] [233] HEARTBEAT
[20:00:08.333908] [46] RADIO
[20:00:08.337072] [46] RADIO_STATUS
[20:00:08.371936] [234] VFR_HUD
[20:00:08.692997] [235] HEARTBEAT
[20:00:08.700991] [236] ATTITUDE_TARGET
[20:00:09.039032] [237] VFR_HUD
[20:00:09.373091] [47] RADIO
[20:00:09.376000] [47] RADIO_STATUS
[20:00:09.719087] [238] HEARTBEAT
[20:00:09.959198] [239] VFR_HUD
[20:00:10.292133] [48] RADIO
[20:00:10.295120] [48] RADIO_STATUS
[20:00:10.656308] [240] HEARTBEAT
[20:00:10.662214] [241] SYS_STATUS
[20:00:10.696243] [242] BATTERY_STATUS
[20:00:10.698211] [243] EXTENDED_SYS_STATE
[20:00:10.706230] [244] ATTITUDE_TARGET
[20:00:10.711255] [245] VFR_HUD
[20:00:10.714174] [246] SYSTEM_TIME
[20:00:11.322399] [49] RADIO
[20:00:11.325253] [49] RADIO_STATUS
[20:00:11.442467] [247] VFR_HUD
[20:00:11.668358] [248] HEARTBEAT
[20:00:12.252363] [249] VFR_HUD
[20:00:12.361481] [50] RADIO
[20:00:12.364344] [50] RADIO_STATUS
[20:00:12.721525] [250] HEARTBEAT
[20:00:12.729395] [251] ATTITUDE_TARGET
[20:00:13.051538] [252] VFR_HUD
[20:00:13.390552] [51] RADIO
[20:00:13.393581] [51] RADIO_STATUS
[20:00:13.632561] [253] HEARTBEAT
[20:00:13.861626] [254] VFR_HUD
[20:00:14.310621] [52] RADIO
[20:00:14.313569] [52] RADIO_STATUS
[20:00:14.668757] [255] HEARTBEAT
[20:00:14.675684] [0] SYS_STATUS
[20:00:14.789736] [1] BATTERY_STATUS
[20:00:14.907750] [2] ATTITUDE_TARGET
[20:00:14.912724] [3] VFR_HUD
[20:00:15.349792] [53] RADIO
[20:00:15.352737] [53] RADIO_STATUS
[20:00:15.470823] [4] VFR_HUD
[20:00:15.700907] [5] HEARTBEAT
[20:00:16.269938] [6] VFR_HUD
[20:00:16.302900] [54] RADIO
[20:00:16.305901] [54] RADIO_STATUS
[20:00:16.739093] [7] HEARTBEAT
[20:00:16.747084] [8] ATTITUDE_TARGET
[20:00:17.085132] [9] VFR_HUD
[20:00:17.299195] [55] RADIO
[20:00:17.302022] [55] RADIO_STATUS
[20:00:17.645131] [10] HEARTBEAT
[20:00:17.880224] [11] VFR_HUD
[20:00:18.339197] [56] RADIO
[20:00:18.342155] [56] RADIO_STATUS
[20:00:18.702541] [12] HEARTBEAT
[20:00:18.709304] [13] SYS_STATUS
[20:00:18.748261] [14] BATTERY_STATUS
[20:00:18.756239] [15] ATTITUDE_TARGET
[20:00:18.761214] [16] VFR_HUD
[20:00:19.368464] [57] RADIO
[20:00:19.371311] [57] RADIO_STATUS
[20:00:19.724354] [17] VFR_HUD
[20:00:19.727392] [18] HEARTBEAT
[20:00:20.304443] [19] VFR_HUD
[20:00:20.419549] [58] RADIO
[20:00:20.423233] [58] RADIO_STATUS
[20:00:20.634543] [20] HEARTBEAT
[20:00:20.656489] [21] ATTITUDE_TARGET
[20:00:21.099948] [22] VFR_HUD
[20:00:21.332594] [59] RADIO
[20:00:21.335593] [59] RADIO_STATUS
[20:00:21.678690] [23] HEARTBEAT
[20:00:21.907714] [24] VFR_HUD
[20:00:22.356926] [60] RADIO
[20:00:22.359765] [60] RADIO_STATUS
[20:00:22.715903] [25] HEARTBEAT
[20:00:22.721908] [26] SYS_STATUS
[20:00:22.841818] [27] BATTERY_STATUS
[20:00:22.955026] [28] ATTITUDE_TARGET
[20:00:22.958935] [29] VFR_HUD
[20:00:23.401911] [61] RADIO
[20:00:23.405762] [61] RADIO_STATUS
[20:00:23.517973] [30] VFR_HUD
[20:00:23.748138] [31] HEARTBEAT
[20:00:24.317044] [32] VFR_HUD
[20:00:24.350067] [62] RADIO
[20:00:24.352016] [62] RADIO_STATUS
[20:00:24.676083] [33] HEARTBEAT
[20:00:24.684103] [34] ATTITUDE_TARGET
[20:00:25.127287] [35] VFR_HUD
[20:00:25.346196] [63] RADIO
[20:00:25.349376] [63] RADIO_STATUS
[20:00:25.692225] [36] HEARTBEAT
[20:00:26.495809] [64] RADIO
[20:00:26.498305] [64] RADIO_STATUS
[20:00:26.743439] [38] HEARTBEAT
[20:00:26.751315] [39] SYS_STATUS
[20:00:26.868472] [40] BATTERY_STATUS
[20:00:26.876390] [41] ATTITUDE_TARGET
[20:00:26.906522] [42] VFR_HUD
[20:00:27.416576] [65] RADIO
[20:00:27.417402] [65] RADIO_STATUS
[20:00:27.453381] [43] VFR_HUD
[20:00:27.660498] [44] HEARTBEAT
[20:00:28.350512] [45] VFR_HUD
[20:00:28.563539] [66] RADIO
[20:00:28.566487] [66] RADIO_STATUS
[20:00:28.576883] JAMMING_START
[20:00:29.039602] [48] VFR_HUD
[20:00:29.482779] [67] RADIO
[20:00:29.485597] [67] RADIO_STATUS
[20:00:29.719701] [49] HEARTBEAT
[20:00:30.063874] [50] VFR_HUD
[20:00:30.401871] [68] RADIO
[20:00:30.404860] [68] RADIO_STATUS
[20:00:30.649771] [51] HEARTBEAT
[20:00:30.656780] [52] SYS_STATUS
[20:00:31.441959] [58] VFR_HUD
[20:00:31.474069] [69] RADIO
[20:00:31.476950] [69] RADIO_STATUS
[20:00:32.471013] [70] RADIO
[20:00:32.473995] [70] RADIO_STATUS
[20:00:32.720816] [61] HEARTBEAT
[20:00:32.728126] [62] ATTITUDE_TARGET
[20:00:33.051086] [63] VFR_HUD
[20:00:33.390116] [71] RADIO
[20:00:33.393052] [71] RADIO_STATUS
[20:00:33.626243] [64] HEARTBEAT
[20:00:33.860132] [65] VFR_HUD
[20:00:34.429201] [72] RADIO
[20:00:34.432177] [72] RADIO_STATUS
[20:00:34.667253] [66] HEARTBEAT
[20:00:34.674414] [67] SYS_STATUS
[20:00:34.789242] [68] BATTERY_STATUS
[20:00:34.907382] [69] ATTITUDE_TARGET
[20:00:34.911206] [70] VFR_HUD
[20:00:35.459440] [73] RADIO
[20:00:35.462330] [73] RADIO_STATUS
[20:00:35.497317] [71] VFR_HUD
[20:00:35.695383] [72] HEARTBEAT
[20:00:36.498593] [74] RADIO
[20:00:36.501445] [74] RADIO_STATUS
[20:00:37.083487] [76] VFR_HUD
[20:00:37.527692] [75] RADIO
[20:00:37.530650] [75] RADIO_STATUS
[20:00:37.643583] [77] HEARTBEAT
[20:00:38.447734] [76] RADIO
[20:00:38.450722] [76] RADIO_STATUS
[20:00:38.700880] [79] HEARTBEAT
[20:00:38.706758] [80] SYS_STATUS
[20:00:39.486828] [77] RADIO
[20:00:39.489830] [77] RADIO_STATUS
[20:00:40.516060] [78] RADIO
[20:00:40.518934] [78] RADIO_STATUS
[20:00:40.632132] [87] HEARTBEAT
[20:00:40.655035] [88] ATTITUDE_TARGET
[20:00:41.435051] [79] RADIO
[20:00:41.438020] [79] RADIO_STATUS
[20:00:41.676129] [90] HEARTBEAT
[20:00:41.905106] [91] VFR_HUD
[20:00:42.584139] [80] RADIO
[20:00:42.587351] [80] RADIO_STATUS
[20:00:42.712198] [92] HEARTBEAT
[20:00:42.719224] [93] SYS_STATUS
[20:00:42.834235] [94] BATTERY_STATUS
[20:00:42.951218] [95] ATTITUDE_TARGET
[20:00:42.956213] [96] VFR_HUD
[20:00:43.503269] [81] RADIO
[20:00:43.506264] [81] RADIO_STATUS
[20:00:43.745565] [98] HEARTBEAT
[20:00:44.652475] [82] RADIO
[20:00:44.655439] [82] RADIO_STATUS
[20:00:44.700579] [100] HEARTBEAT
[20:00:44.708476] [101] ATTITUDE_TARGET
[20:00:45.233547] [102] VFR_HUD
[20:00:45.571568] [83] RADIO
[20:00:45.574524] [83] RADIO_STATUS
[20:00:45.688544] [103] HEARTBEAT
[20:00:46.491603] [84] RADIO
[20:00:46.494684] [84] RADIO_STATUS
[20:00:46.744915] [105] HEARTBEAT
[20:00:46.751753] [106] SYS_STATUS
[20:00:46.790683] [107] BATTERY_STATUS
[20:00:46.798693] [108] ATTITUDE_TARGET
[20:00:46.803623] [109] VFR_HUD
[20:00:47.532731] [85] RADIO
[20:00:47.535690] [85] RADIO_STATUS
[20:00:47.658828] [110] VFR_HUD
[20:00:47.661792] [111] HEARTBEAT
[20:00:48.452258] [112] VFR_HUD
[20:00:48.467948] [86] RADIO
[20:00:48.470837] [86] RADIO_STATUS
[20:00:48.691885] [113] HEARTBEAT
[20:00:48.699898] [114] ATTITUDE_TARGET
[20:00:49.032325] [115] VFR_HUD
[20:00:49.481241] [87] RADIO
[20:00:49.483923] [87] RADIO_STATUS
[20:00:49.717084] [116] HEARTBEAT
[20:00:49.832004] [117] VFR_HUD
[20:00:50.630136] [88] RADIO
[20:00:50.634407] [88] RADIO_STATUS
[20:00:50.758132] [118] HEARTBEAT
[20:00:50.765385] [119] SYS_STATUS
[20:00:50.888130] [120] BATTERY_STATUS
[20:00:50.889302] [121] EXTENDED_SYS_STATE
[20:00:50.922375] [122] ATTITUDE_TARGET
[20:00:50.926079] [123] VFR_HUD
[20:00:50.930142] [124] SYSTEM_TIME
[20:00:51.549704] [89] RADIO
[20:00:51.552137] [89] RADIO_STATUS
[20:00:52.249383] [127] VFR_HUD
[20:00:52.593361] [90] RADIO
[20:00:52.596287] [90] RADIO_STATUS
[20:00:52.718311] [128] HEARTBEAT
[20:00:52.726336] [129] ATTITUDE_TARGET
[20:00:53.049598] [130] VFR_HUD
[20:00:53.618447] [91] RADIO
[20:00:53.620362] [91] RADIO_STATUS
[20:00:53.743461] [131] HEARTBEAT
[20:00:53.863707] [132] VFR_HUD
[20:00:54.537512] [92] RADIO
[20:00:54.540725] [92] RADIO_STATUS
[20:00:54.786673] [135] BATTERY_STATUS
[20:00:55.472594] [138] VFR_HUD
[20:00:55.593562] [93] RADIO
[20:00:55.596597] [93] RADIO_STATUS
[20:00:55.692671] [139] HEARTBEAT
[20:00:56.605936] [94] RADIO
[20:00:56.608626] [94] RADIO_STATUS
[20:00:56.653707] [141] HEARTBEAT
[20:00:56.661697] [142] ATTITUDE_TARGET
[20:00:57.081777] [143] VFR_HUD
[20:00:57.524957] [95] RADIO
[20:00:57.527719] [95] RADIO_STATUS
[20:00:57.875919] [145] VFR_HUD
[20:00:58.673954] [96] RADIO
[20:00:58.677016] [96] RADIO_STATUS
[20:00:58.802930] [146] HEARTBEAT
[20:00:58.808962] [147] SYS_STATUS
[20:00:58.924073] [148] BATTERY_STATUS
[20:00:59.041041] [149] ATTITUDE_TARGET
[20:00:59.046014] [150] VFR_HUD
[20:00:59.485072] [151] VFR_HUD
[20:00:59.594072] [97] RADIO
[20:00:59.600883] [97] RADIO_STATUS
[20:00:59.630030] [152] HEARTBEAT
[20:01:00.294188] [153] VFR_HUD
[20:01:00.629197] [154] HEARTBEAT
[20:01:00.682149] [98] RADIO
[20:01:00.685106] [98] RADIO_STATUS
[20:01:01.093278] [156] VFR_HUD
[20:01:01.662270] [99] RADIO
[20:01:01.665197] [99] RADIO_STATUS
[20:01:01.700534] [157] HEARTBEAT
[20:01:01.903308] [158] VFR_HUD
[20:01:02.581419] [100] RADIO
[20:01:02.584500] [100] RADIO_STATUS
[20:01:02.831473] [161] BATTERY_STATUS
[20:01:03.511495] [164] VFR_HUD
[20:01:03.622491] [165] HEARTBEAT
[20:01:03.649540] [101] RADIO
[20:01:03.651828] [101] RADIO_STATUS
[20:01:04.650856] [102] RADIO
[20:01:04.653974] [102] RADIO_STATUS
[20:01:04.698669] [167] HEARTBEAT
[20:01:04.705720] [168] ATTITUDE_TARGET
[20:01:05.125661] [169] VFR_HUD
[20:01:05.569742] [103] RADIO
[20:01:05.572633] [103] RADIO_STATUS
[20:01:05.695699] [170] HEARTBEAT
[20:01:05.920715] [171] VFR_HUD
[20:01:06.718850] [104] RADIO
[20:01:06.721806] [104] RADIO_STATUS
[20:01:07.639002] [105] RADIO
[20:01:07.642174] [105] RADIO_STATUS
[20:01:07.672958] [178] HEARTBEAT
[20:01:08.344072] [179] VFR_HUD
[20:01:08.788229] [106] RADIO
[20:01:08.791062] [106] RADIO_STATUS
[20:01:08.835110] [180] HEARTBEAT
[20:01:08.843534] [181] ATTITUDE_TARGET
[20:01:09.707219] [107] RADIO
[20:01:09.710392] [107] RADIO_STATUS
[20:01:09.741305] [183] HEARTBEAT
[20:01:10.626366] [108] RADIO
[20:01:10.629346] [108] RADIO_STATUS
[20:01:10.884566] [187] BATTERY_STATUS
[20:01:10.886464] [188] EXTENDED_SYS_STATE
[20:01:10.946413] [189] ATTITUDE_TARGET
[20:01:10.951507] [190] VFR_HUD
[20:01:10.955362] [191] SYSTEM_TIME
[20:01:11.436436] [192] VFR_HUD
[20:01:11.662501] [193] HEARTBEAT
[20:01:11.775479] [109] RADIO
[20:01:11.778575] [109] RADIO_STATUS
[20:01:12.251660] [194] VFR_HUD
[20:01:12.694567] [110] RADIO
[20:01:12.697625] [110] RADIO_STATUS
[20:01:12.824860] [195] HEARTBEAT
[20:01:12.832600] [196] ATTITUDE_TARGET
[20:01:13.614707] [111] RADIO
[20:01:13.616738] [111] RADIO_STATUS
[20:01:13.731629] [198] HEARTBEAT
[20:01:13.861806] [199] VFR_HUD
[20:01:14.763790] [112] RADIO
[20:01:14.765877] [112] RADIO_STATUS
[20:01:15.682866] [113] RADIO
[20:01:15.685819] [113] RADIO_STATUS
[20:01:16.262983] [207] VFR_HUD
[20:01:16.832314] [114] RADIO
[20:01:16.835113] [114] RADIO_STATUS
[20:01:16.879112] [208] HEARTBEAT
[20:01:16.887069] [209] ATTITUDE_TARGET
[20:01:17.072075] [210] VFR_HUD
[20:01:17.751535] [115] RADIO
[20:01:17.754212] [115] RADIO_STATUS
[20:01:17.872119] [212] VFR_HUD
[20:01:18.673594] [116] RADIO
[20:01:18.673809] [116] RADIO_STATUS
[20:01:18.925243] [215] BATTERY_STATUS
[20:01:19.480332] [218] VFR_HUD
[20:01:19.705437] [219] HEARTBEAT
[20:01:19.818522] [117] RADIO
[20:01:19.821346] [117] RADIO_STATUS
[20:01:20.289500] [220] VFR_HUD
[20:01:20.629440] [221] HEARTBEAT
[20:01:20.652384] [222] ATTITUDE_TARGET
[20:01:20.677399] [118] RADIO
[20:01:20.680381] [118] RADIO_STATUS
[20:01:21.657674] [119] RADIO
[20:01:21.660470] [119] RADIO_STATUS
[20:01:21.898570] [225] VFR_HUD
[20:01:22.806580] [120] RADIO
[20:01:22.809534] [120] RADIO_STATUS
[20:01:23.512728] [231] VFR_HUD
[20:01:23.623694] [232] HEARTBEAT
[20:01:23.725832] [121] RADIO
[20:01:23.728723] [121] RADIO_STATUS
[20:01:24.306811] [233] VFR_HUD
[20:01:24.670916] [234] HEARTBEAT
[20:01:24.678828] [235] ATTITUDE_TARGET
[20:01:24.875968] [122] RADIO
[20:01:24.878946] [122] RADIO_STATUS
[20:01:25.226001] [236] VFR_HUD
[20:01:25.795066] [123] RADIO
[20:01:25.798649] [123] RADIO_STATUS
[20:01:25.927103] [238] VFR_HUD
[20:01:26.714231] [124] RADIO
[20:01:26.716483] [124] RADIO_STATUS
[20:01:26.773464] [239] HEARTBEAT
[20:01:26.780157] [240] SYS_STATUS
[20:01:26.788116] [241] BATTERY_STATUS
[20:01:26.800422] [242] ATTITUDE_TARGET
[20:01:26.805169] [243] VFR_HUD
[20:01:27.535155] [244] VFR_HUD
[20:01:27.644296] [245] HEARTBEAT
[20:01:27.758821] [125] RADIO
[20:01:27.761490] [125] RADIO_STATUS
[20:01:28.333242] [246] VFR_HUD
[20:01:28.700334] [126] RADIO
[20:01:28.703279] [126] RADIO_STATUS
[20:01:28.806453] [247] HEARTBEAT
[20:01:28.814444] [248] ATTITUDE_TARGET
[20:01:29.701668] [127] RADIO
[20:01:29.704702] [127] RADIO_STATUS
[20:01:29.827492] [251] VFR_HUD
[20:01:30.643490] [252] HEARTBEAT
[20:01:30.650908] [253] SYS_STATUS
[20:01:30.684624] [254] BATTERY_STATUS
[20:01:30.686683] [255] EXTENDED_SYS_STATE
[20:01:30.694471] [0] ATTITUDE_TARGET
[20:01:30.699422] [1] VFR_HUD
[20:01:30.702665] [2] SYSTEM_TIME
[20:01:30.850523] [128] RADIO
[20:01:30.853429] [128] RADIO_STATUS
[20:01:31.655836] [4] HEARTBEAT
[20:01:31.769726] [129] RADIO
[20:01:31.772797] [129] RADIO_STATUS
[20:01:32.245704] [5] VFR_HUD
[20:01:32.694742] [130] RADIO
[20:01:32.697711] [130] RADIO_STATUS
[20:01:32.736872] [6] HEARTBEAT
[20:01:32.744786] [7] ATTITUDE_TARGET
[20:01:33.837826] [131] RADIO
[20:01:33.841168] [131] RADIO_STATUS
[20:01:33.877041] [10] VFR_HUD
[20:01:34.655940] [11] HEARTBEAT
[20:01:34.662948] [12] SYS_STATUS
[20:01:34.757875] [132] RADIO
[20:01:34.760951] [132] RADIO_STATUS
[20:01:34.826934] [13] BATTERY_STATUS
[20:01:34.835062] [14] ATTITUDE_TARGET
[20:01:34.839899] [15] VFR_HUD
[20:01:35.695358] [16] VFR_HUD
[20:01:35.698077] [17] HEARTBEAT
[20:01:35.815985] [133] RADIO
[20:01:35.818293] [133] RADIO_STATUS
[20:01:36.259325] [18] VFR_HUD
[20:01:36.827089] [134] RADIO
[20:01:36.830058] [134] RADIO_STATUS
[20:01:36.874136] [19] HEARTBEAT
[20:01:36.882117] [20] ATTITUDE_TARGET
[20:01:37.068546] [21] VFR_HUD
[20:01:37.747233] [135] RADIO
[20:01:37.751102] [135] RADIO_STATUS
[20:01:37.867471] [23] VFR_HUD
[20:01:38.684293] [24] HEARTBEAT
[20:01:38.690392] [25] SYS_STATUS
[20:01:38.895437] [136] RADIO
[20:01:38.898307] [136] RADIO_STATUS
[20:01:39.710541] [30] HEARTBEAT
[20:01:39.815443] [137] RADIO
[20:01:39.818467] [137] RADIO_STATUS
[20:01:40.285581] [31] VFR_HUD
[20:01:40.964637] [138] RADIO
[20:01:40.969536] [138] RADIO_STATUS
[20:01:41.659756] [35] HEARTBEAT
[20:01:41.883684] [139] RADIO
[20:01:41.886880] [139] RADIO_STATUS
[20:01:41.922761] [36] VFR_HUD
[20:01:42.701754] [37] HEARTBEAT
[20:01:42.708799] [38] SYS_STATUS
[20:01:42.802751] [140] RADIO
[20:01:42.805677] [140] RADIO_STATUS
[20:01:42.844018] [39] BATTERY_STATUS
[20:01:42.870761] [40] ATTITUDE_TARGET
[20:01:42.875756] [41] VFR_HUD
[20:01:43.612939] [42] VFR_HUD
[20:01:43.728848] [43] HEARTBEAT
[20:01:43.842819] [141] RADIO
[20:01:43.845773] [141] RADIO_STATUS
[20:01:44.315129] [44] VFR_HUD
[20:01:44.771061] [45] HEARTBEAT
[20:01:44.778977] [46] ATTITUDE_TARGET
[20:01:44.789086] [142] RADIO
[20:01:44.792340] [142] RADIO_STATUS
[20:01:45.117127] [47] VFR_HUD
[20:01:45.790165] [143] RADIO
[20:01:45.794054] [143] RADIO_STATUS
[20:01:45.926061] [49] VFR_HUD
[20:01:46.728154] [50] HEARTBEAT
[20:01:46.735347] [51] SYS_STATUS
[20:01:46.940183] [144] RADIO
[20:01:46.943183] [144] RADIO_STATUS
[20:01:47.640394] [56] HEARTBEAT
[20:01:47.859286] [145] RADIO
[20:01:47.862301] [145] RADIO_STATUS
[20:01:48.329366] [57] VFR_HUD
[20:01:48.799919] [58] HEARTBEAT
[20:01:48.805463] [59] ATTITUDE_TARGET
[20:01:48.898765] [146] RADIO
[20:01:48.901669] [146] RADIO_STATUS
[20:01:49.709740] [61] HEARTBEAT
[20:01:49.928585] [147] RADIO
[20:01:49.930538] [147] RADIO_STATUS
[20:01:49.968530] [62] VFR_HUD
[20:01:50.642108] [63] HEARTBEAT
[20:01:50.647756] [64] SYS_STATUS
[20:01:50.683043] [65] BATTERY_STATUS
[20:01:50.683808] [66] EXTENDED_SYS_STATE
[20:01:50.691849] [67] ATTITUDE_TARGET
[20:01:50.696656] [68] VFR_HUD
[20:01:50.700679] [69] SYSTEM_TIME
[20:01:50.847775] [148] RADIO
[20:01:50.850674] [148] RADIO_STATUS
[20:01:51.654289] [71] HEARTBEAT
[20:01:51.891951] [149] RADIO
[20:01:51.894842] [149] RADIO_STATUS
[20:01:52.242996] [72] VFR_HUD
[20:01:52.810905] [150] RADIO
[20:01:52.813860] [150] RADIO_STATUS
[20:01:53.037561] [75] VFR_HUD
[20:01:53.835388] [151] RADIO
[20:01:53.838002] [151] RADIO_STATUS
[20:01:53.956234] [77] VFR_HUD
[20:01:54.780217] [80] BATTERY_STATUS
[20:01:54.984370] [152] RADIO
[20:01:54.987371] [152] RADIO_STATUS
[20:01:55.455319] [83] VFR_HUD
[20:01:55.685907] [84] HEARTBEAT
[20:01:55.904386] [153] RADIO
[20:01:55.907195] [153] RADIO_STATUS
[20:01:56.265282] [85] VFR_HUD
[20:01:56.823295] [154] RADIO
[20:01:56.826228] [154] RADIO_STATUS
[20:01:56.870364] [86] HEARTBEAT
[20:01:56.878362] [87] ATTITUDE_TARGET
[20:01:57.063340] [88] VFR_HUD
[20:01:57.629425] [89] HEARTBEAT
[20:01:57.972523] [155] RADIO
[20:01:57.975421] [155] RADIO_STATUS
[20:01:58.679569] [91] HEARTBEAT
[20:01:58.686528] [92] SYS_STATUS
[20:01:58.805791] [93] BATTERY_STATUS
[20:01:58.813542] [94] ATTITUDE_TARGET
[20:01:58.843541] [95] VFR_HUD
[20:01:58.866060] [156] RADIO
[20:01:58.868637] [156] RADIO_STATUS
[20:01:59.697700] [97] HEARTBEAT
[20:01:59.935812] [157] RADIO
[20:01:59.939454] [157] RADIO_STATUS
[20:02:00.959825] [158] RADIO
[20:02:00.963041] [158] RADIO_STATUS
[20:02:01.081063] [101] VFR_HUD
[20:02:01.656121] [102] HEARTBEAT
[20:02:01.878889] [159] RADIO
[20:02:01.882298] [159] RADIO_STATUS
[20:02:01.918212] [103] VFR_HUD
[20:02:02.824180] [106] BATTERY_STATUS
[20:02:03.028214] [160] RADIO
[20:02:03.031066] [160] RADIO_STATUS
[20:02:03.165305] [107] ATTITUDE_TARGET
[20:02:03.170040] [108] VFR_HUD
[20:02:03.503043] [109] VFR_HUD
[20:02:03.722784] [110] HEARTBEAT
[20:02:03.946113] [161] RADIO
[20:02:03.949597] [161] RADIO_STATUS
[20:02:04.308226] [111] VFR_HUD
[20:02:04.985276] [162] RADIO
[20:02:04.988210] [162] RADIO_STATUS
[20:02:05.106288] [114] VFR_HUD
[20:02:05.671378] [115] HEARTBEAT
[20:02:06.014556] [163] RADIO
[20:02:06.017518] [163] RADIO_STATUS
[20:02:06.722497] [117] HEARTBEAT
[20:02:06.729455] [118] SYS_STATUS
[20:02:06.847546] [119] BATTERY_STATUS
[20:02:06.855641] [120] ATTITUDE_TARGET
[20:02:06.885624] [121] VFR_HUD
[20:02:06.908446] [164] RADIO
[20:02:06.911445] [164] RADIO_STATUS
[20:02:07.629620] [123] HEARTBEAT
[20:02:07.973571] [165] RADIO
[20:02:07.976520] [165] RADIO_STATUS
[20:02:08.323608] [124] VFR_HUD
[20:02:09.002709] [166] RADIO
[20:02:09.005619] [166] RADIO_STATUS
[20:02:09.041709] [127] VFR_HUD
[20:02:09.698813] [128] HEARTBEAT
[20:02:09.922989] [167] RADIO
[20:02:09.925875] [167] RADIO_STATUS
[20:02:10.623877] [130] HEARTBEAT
[20:02:11.072105] [168] RADIO
[20:02:11.074848] [168] RADIO_STATUS
[20:02:11.548044] [137] VFR_HUD
[20:02:11.991984] [169] RADIO
[20:02:11.994976] [169] RADIO_STATUS
[20:02:12.342101] [139] VFR_HUD
[20:02:12.706316] [140] HEARTBEAT
[20:02:12.714046] [141] ATTITUDE_TARGET
[20:02:13.059099] [170] RADIO
[20:02:13.062106] [170] RADIO_STATUS
[20:02:13.717353] [143] HEARTBEAT
[20:02:13.841283] [144] VFR_HUD
[20:02:14.060188] [171] RADIO
[20:02:14.063131] [171] RADIO_STATUS
[20:02:14.649634] [145] HEARTBEAT
[20:02:14.655407] [146] SYS_STATUS
[20:02:14.775335] [147] BATTERY_STATUS
[20:02:14.889653] [148] ATTITUDE_TARGET
[20:02:14.892342] [149] VFR_HUD
[20:02:14.981802] [172] RADIO
[20:02:14.983494] [172] RADIO_STATUS
[20:02:15.450891] [150] VFR_HUD
[20:02:15.681726] [151] HEARTBEAT
[20:02:16.019678] [173] RADIO
[20:02:16.022500] [173] RADIO_STATUS
[20:02:16.943557] [174] RADIO
[20:02:16.946501] [174] RADIO_STATUS
[20:02:17.059547] [155] VFR_HUD
[20:02:17.967773] [175] RADIO
[20:02:17.970773] [175] RADIO_STATUS
[20:02:18.680814] [158] HEARTBEAT
[20:02:18.687782] [159] SYS_STATUS
[20:02:18.727811] [160] BATTERY_STATUS
[20:02:18.735892] [161] ATTITUDE_TARGET
[20:02:18.739766] [162] VFR_HUD
[20:02:19.118816] [176] RADIO
[20:02:19.122133] [176] RADIO_STATUS
[20:02:19.470120] [163] VFR_HUD
[20:02:20.039140] [177] RADIO
[20:02:20.041941] [177] RADIO_STATUS
[20:02:20.284010] [165] VFR_HUD
[20:02:20.753052] [166] HEARTBEAT
[20:02:20.761004] [167] ATTITUDE_TARGET
[20:02:21.111039] [178] RADIO
[20:02:21.114037] [178] RADIO_STATUS
[20:02:21.654168] [169] HEARTBEAT
[20:02:21.893078] [170] VFR_HUD
[20:02:22.107162] [179] RADIO
[20:02:22.110077] [179] RADIO_STATUS
[20:02:22.822487] [173] BATTERY_STATUS
[20:02:22.934740] [174] ATTITUDE_TARGET
[20:02:22.939163] [175] VFR_HUD
[20:02:23.027203] [180] RADIO
[20:02:23.029185] [180] RADIO_STATUS
[20:02:23.497946] [176] VFR_HUD
[20:02:23.732337] [177] HEARTBEAT
[20:02:24.071327] [181] RADIO
[20:02:24.074288] [181] RADIO_STATUS
[20:02:24.655429] [179] HEARTBEAT
[20:02:24.663628] [180] ATTITUDE_TARGET
[20:02:25.095547] [182] RADIO
[20:02:25.101657] [182] RADIO_STATUS
[20:02:25.215793] [181] VFR_HUD
[20:02:25.680524] [182] HEARTBEAT
[20:02:26.014521] [183] RADIO
[20:02:26.017591] [183] RADIO_STATUS
[20:02:26.897783] [188] VFR_HUD
[20:02:27.163698] [184] RADIO
[20:02:27.165796] [184] RADIO_STATUS
[20:02:27.513700] [189] VFR_HUD
[20:02:27.628760] [190] HEARTBEAT
[20:02:28.082757] [185] RADIO
[20:02:28.086020] [185] RADIO_STATUS
[20:02:28.673804] [192] HEARTBEAT
[20:02:28.679840] [193] ATTITUDE_TARGET
[20:02:29.154969] [186] RADIO
[20:02:29.157884] [186] RADIO_STATUS
[20:02:29.698190] [195] HEARTBEAT
[20:02:29.936988] [196] VFR_HUD
[20:02:30.154041] [187] RADIO
[20:02:30.157079] [187] RADIO_STATUS
[20:02:30.739272] [197] HEARTBEAT
[20:02:30.746189] [198] SYS_STATUS
[20:02:30.864057] [199] BATTERY_STATUS
[20:02:30.865083] [200] EXTENDED_SYS_STATE
[20:02:30.985303] [201] ATTITUDE_TARGET
[20:02:30.990083] [202] VFR_HUD
[20:02:30.993066] [203] SYSTEM_TIME
[20:02:31.023096] [188] RADIO
[20:02:31.026109] [188] RADIO_STATUS
[20:02:31.547230] [204] VFR_HUD
[20:02:32.110136] [189] RADIO
[20:02:32.113159] [189] RADIO_STATUS
[20:02:32.231226] [206] VFR_HUD
[20:02:32.700263] [207] HEARTBEAT
[20:02:32.708321] [208] ATTITUDE_TARGET
[20:02:33.031275] [209] VFR_HUD
[20:02:33.058240] [190] RADIO
[20:02:33.061225] [190] RADIO_STATUS
[20:02:33.725564] [210] HEARTBEAT
[20:02:33.840367] [211] VFR_HUD
[20:02:34.059343] [191] RADIO
[20:02:34.062365] [191] RADIO_STATUS
[20:02:34.768661] [214] BATTERY_STATUS
[20:02:35.208454] [192] RADIO
[20:02:35.211489] [192] RADIO_STATUS
[20:02:35.450073] [217] VFR_HUD
[20:02:35.679558] [218] HEARTBEAT
[20:02:36.127584] [193] RADIO
[20:02:36.130570] [193] RADIO_STATUS
[20:02:36.717689] [220] HEARTBEAT
[20:02:36.725805] [221] ATTITUDE_TARGET
[20:02:37.052731] [194] RADIO
[20:02:37.055858] [194] RADIO_STATUS
[20:02:37.085701] [222] VFR_HUD
[20:02:37.622939] [223] HEARTBEAT
[20:02:37.857882] [224] VFR_HUD
[20:02:38.196935] [195] RADIO
[20:02:38.200059] [195] RADIO_STATUS
[20:02:39.116184] [196] RADIO
[20:02:39.119109] [196] RADIO_STATUS
[20:02:39.184103] [227] BATTERY_STATUS
[20:02:39.193895] [228] ATTITUDE_TARGET
[20:02:39.197140] [229] VFR_HUD
[20:02:39.479090] [230] VFR_HUD
[20:02:40.156105] [197] RADIO
[20:02:40.159061] [197] RADIO_STATUS
[20:02:40.282237] [232] VFR_HUD
[20:02:40.751409] [233] HEARTBEAT
[20:02:40.759455] [234] ATTITUDE_TARGET
[20:02:41.076247] [235] VFR_HUD
[20:02:41.104243] [198] RADIO
[20:02:41.106390] [198] RADIO_STATUS
[20:02:41.657336] [236] HEARTBEAT
[20:02:41.886377] [237] VFR_HUD
[20:02:42.106052] [199] RADIO
[20:02:42.108581] [199] RADIO_STATUS
[20:02:42.820417] [240] BATTERY_STATUS
[20:02:43.255059] [200] RADIO
[20:02:43.257362] [200] RADIO_STATUS
[20:02:43.496144] [243] VFR_HUD
[20:02:43.726711] [244] HEARTBEAT
[20:02:44.175083] [201] RADIO
[20:02:44.177553] [201] RADIO_STATUS
[20:02:44.654792] [246] HEARTBEAT
[20:02:44.662676] [247] ATTITUDE_TARGET
[20:02:45.104999] [248] VFR_HUD
[20:02:45.217864] [202] RADIO
[20:02:45.220661] [202] RADIO_STATUS
[20:02:45.670908] [249] HEARTBEAT
[20:02:45.904776] [250] VFR_HUD
[20:02:46.243824] [203] RADIO
[20:02:46.246716] [203] RADIO_STATUS
[20:02:46.846911] [253] BATTERY_STATUS
[20:02:46.854925] [254] ATTITUDE_TARGET
[20:02:46.885041] [255] VFR_HUD
[20:02:47.162965] [204] RADIO
[20:02:47.167823] [204] RADIO_STATUS
[20:02:47.628929] [1] HEARTBEAT
[20:02:48.207983] [205] RADIO
[20:02:48.210899] [205] RADIO_STATUS
[20:02:48.328979] [2] VFR_HUD
[20:02:48.797066] [3] HEARTBEAT
[20:02:48.805792] [4] ATTITUDE_TARGET
[20:02:49.123250] [5] VFR_HUD
[20:02:49.155224] [206] RADIO
[20:02:49.158148] [206] RADIO_STATUS
[20:02:49.701587] [6] HEARTBEAT
[20:02:49.937182] [7] VFR_HUD
[20:02:50.151480] [207] RADIO
[20:02:50.154150] [207] RADIO_STATUS
[20:02:50.617263] [8] HEARTBEAT
[20:02:50.637203] [9] SYS_STATUS
[20:02:50.676186] [10] BATTERY_STATUS
[20:02:50.677180] [11] EXTENDED_SYS_STATE
[20:02:50.686039] [12] ATTITUDE_TARGET
[20:02:50.690384] [13] VFR_HUD
[20:02:50.694258] [14] SYSTEM_TIME
[20:02:51.301833] [208] RADIO
[20:02:51.303322] [208] RADIO_STATUS
[20:02:51.541405] [15] VFR_HUD
[20:02:51.647666] [16] HEARTBEAT
[20:02:52.220673] [209] RADIO
[20:02:52.223503] [209] RADIO_STATUS
[20:02:52.699639] [18] HEARTBEAT
[20:02:52.707510] [19] ATTITUDE_TARGET
[20:02:53.139875] [210] RADIO
[20:02:53.142553] [210] RADIO_STATUS
[20:02:53.715650] [21] HEARTBEAT
[20:02:53.842001] [22] VFR_HUD
[20:02:54.289048] [211] RADIO
[20:02:54.291938] [211] RADIO_STATUS
[20:02:54.885841] [26] ATTITUDE_TARGET
[20:02:54.890735] [27] VFR_HUD
[20:02:55.207245] [212] RADIO
[20:02:55.209876] [212] RADIO_STATUS
[20:02:55.453603] [28] VFR_HUD
[20:02:55.672987] [29] HEARTBEAT
[20:02:56.246955] [30] VFR_HUD
[20:02:56.278891] [213] RADIO
[20:02:56.282142] [213] RADIO_STATUS
[20:02:56.836158] [31] HEARTBEAT
[20:02:56.842980] [32] ATTITUDE_TARGET
[20:02:57.062125] [33] VFR_HUD
[20:02:57.177084] [214] RADIO
[20:02:57.180126] [214] RADIO_STATUS
[20:02:57.856229] [35] VFR_HUD
[20:02:58.194117] [215] RADIO
[20:02:58.197084] [215] RADIO_STATUS
[20:02:58.677177] [36] HEARTBEAT
[20:02:58.684394] [37] SYS_STATUS
[20:02:58.724234] [38] BATTERY_STATUS
[20:02:58.732378] [39] ATTITUDE_TARGET
[20:02:58.737188] [40] VFR_HUD
[20:02:59.345337] [216] RADIO
[20:02:59.350133] [216] RADIO_STATUS
[20:02:59.701821] [41] VFR_HUD
[20:02:59.704890] [42] HEARTBEAT
[20:03:00.267374] [217] RADIO
[20:03:00.270478] [217] RADIO_STATUS
[20:03:00.303311] [43] VFR_HUD
[20:03:00.749438] [44] HEARTBEAT
[20:03:00.757422] [45] ATTITUDE_TARGET
[20:03:01.184605] [218] RADIO
[20:03:01.187346] [218] RADIO_STATUS
[20:03:01.655861] [47] HEARTBEAT
[20:03:01.884646] [48] VFR_HUD
[20:03:02.333579] [219] RADIO
[20:03:02.336722] [219] RADIO_STATUS
[20:03:02.930711] [52] ATTITUDE_TARGET
[20:03:02.935771] [53] VFR_HUD
[20:03:03.252718] [220] RADIO
[20:03:03.255793] [220] RADIO_STATUS
[20:03:03.493675] [54] VFR_HUD
[20:03:03.723790] [55] HEARTBEAT
[20:03:04.292815] [56] VFR_HUD
[20:03:04.319794] [221] RADIO
[20:03:04.322810] [221] RADIO_STATUS
[20:03:04.678893] [57] HEARTBEAT
[20:03:04.686901] [58] ATTITUDE_TARGET
[20:03:05.212094] [222] RADIO
[20:03:05.213907] [222] RADIO_STATUS
[20:03:05.913096] [61] VFR_HUD
[20:03:06.241045] [223] RADIO
[20:03:06.244004] [223] RADIO_STATUS
[20:03:06.724029] [62] HEARTBEAT
[20:03:06.731415] [63] SYS_STATUS
[20:03:06.770465] [64] BATTERY_STATUS
[20:03:06.778142] [65] ATTITUDE_TARGET
[20:03:06.785651] [66] VFR_HUD
[20:03:07.392154] [224] RADIO
[20:03:07.395116] [224] RADIO_STATUS
[20:03:07.638453] [67] VFR_HUD
[20:03:07.641172] [68] HEARTBEAT
[20:03:08.311305] [225] RADIO
[20:03:08.314399] [225] RADIO_STATUS
[20:03:08.350184] [69] VFR_HUD
[20:03:08.671428] [70] HEARTBEAT
[20:03:08.679650] [71] ATTITUDE_TARGET
[20:03:09.230325] [226] RADIO
[20:03:09.233316] [226] RADIO_STATUS
[20:03:09.696468] [73] HEARTBEAT
[20:03:09.936630] [74] VFR_HUD
[20:03:10.381346] [227] RADIO
[20:03:10.382518] [227] RADIO_STATUS
[20:03:10.616944] [75] HEARTBEAT
[20:03:10.635582] [76] SYS_STATUS
[20:03:10.674562] [77] BATTERY_STATUS
[20:03:10.676519] [78] EXTENDED_SYS_STATE
[20:03:10.684708] [79] ATTITUDE_TARGET
[20:03:10.688824] [80] VFR_HUD
[20:03:10.692501] [81] SYSTEM_TIME
[20:03:11.299740] [228] RADIO
[20:03:11.302604] [228] RADIO_STATUS
[20:03:11.539580] [82] VFR_HUD
[20:03:11.655210] [83] HEARTBEAT
[20:03:12.229695] [84] VFR_HUD
[20:03:12.338686] [229] RADIO
[20:03:12.341735] [229] RADIO_STATUS
[20:03:12.699510] [85] HEARTBEAT
[20:03:12.706769] [86] ATTITUDE_TARGET
[20:03:13.148824] [87] VFR_HUD
[20:03:13.263761] [230] RADIO
[20:03:13.266993] [230] RADIO_STATUS
[20:03:13.843868] [89] VFR_HUD
[20:03:14.286900] [231] RADIO
[20:03:14.289880] [231] RADIO_STATUS
[20:03:14.646056] [90] HEARTBEAT
[20:03:14.652042] [91] SYS_STATUS
[20:03:14.766971] [92] BATTERY_STATUS
[20:03:15.436164] [232] RADIO
[20:03:15.440131] [232] RADIO_STATUS
[20:03:15.672215] [96] HEARTBEAT
[20:03:16.247153] [97] VFR_HUD
[20:03:16.355182] [233] RADIO
[20:03:16.358187] [233] RADIO_STATUS
[20:03:16.834249] [98] HEARTBEAT
[20:03:16.842392] [99] ATTITUDE_TARGET
[20:03:17.061348] [100] VFR_HUD
[20:03:17.277345] [234] RADIO
[20:03:17.278173] [234] RADIO_STATUS
[20:03:17.855398] [102] VFR_HUD
[20:03:18.424345] [235] RADIO
[20:03:18.427455] [235] RADIO_STATUS
[20:03:18.672498] [103] HEARTBEAT
[20:03:18.679375] [104] SYS_STATUS
[20:03:19.343505] [236] RADIO
[20:03:19.346900] [236] RADIO_STATUS
[20:03:19.699838] [109] HEARTBEAT
[20:03:20.273568] [110] VFR_HUD
[20:03:20.388665] [237] RADIO
[20:03:20.391820] [237] RADIO_STATUS
[20:03:20.742692] [111] HEARTBEAT
[20:03:20.750638] [112] ATTITUDE_TARGET
[20:03:21.309973] [238] RADIO
[20:03:21.310774] [238] RADIO_STATUS
[20:03:21.654009] [114] HEARTBEAT
[20:03:21.882973] [115] VFR_HUD
[20:03:22.331899] [239] RADIO
[20:03:22.335087] [239] RADIO_STATUS
[20:03:22.689826] [116] HEARTBEAT
[20:03:22.696851] [117] SYS_STATUS
[20:03:22.810900] [118] BATTERY_STATUS
[20:03:23.480916] [240] RADIO
[20:03:23.484032] [240] RADIO_STATUS
[20:03:23.717163] [122] HEARTBEAT
[20:03:24.293883] [123] VFR_HUD
[20:03:24.319065] [241] RADIO
[20:03:24.322100] [241] RADIO_STATUS
[20:03:25.106297] [126] VFR_HUD
[20:03:25.320170] [242] RADIO
[20:03:25.323452] [242] RADIO_STATUS
[20:03:25.902550] [128] VFR_HUD
[20:03:26.469349] [243] RADIO
[20:03:26.472267] [243] RADIO_STATUS
[20:03:26.723578] [129] HEARTBEAT
[20:03:26.729346] [130] SYS_STATUS
[20:03:26.769284] [131] BATTERY_STATUS
[20:03:26.777425] [132] ATTITUDE_TARGET
[20:03:26.782318] [133] VFR_HUD
[20:03:27.390552] [244] RADIO
[20:03:27.393421] [244] RADIO_STATUS
[20:03:27.642437] [134] VFR_HUD
[20:03:27.645430] [135] HEARTBEAT
[20:03:28.326477] [136] VFR_HUD
[20:03:28.446546] [245] RADIO
[20:03:28.449536] [245] RADIO_STATUS
[20:03:28.794629] [137] HEARTBEAT
[20:03:28.802560] [138] ATTITUDE_TARGET
[20:03:29.350088] [246] RADIO
[20:03:29.352613] [246] RADIO_STATUS
[20:03:29.700970] [140] HEARTBEAT
[20:03:29.929763] [141] VFR_HUD
[20:03:30.378807] [247] RADIO
[20:03:30.381861] [247] RADIO_STATUS
[20:03:30.614875] [142] HEARTBEAT
[20:03:30.635685] [143] SYS_STATUS
[20:03:30.672925] [144] BATTERY_STATUS
[20:03:30.674781] [145] EXTENDED_SYS_STATE
[20:03:30.683005] [146] ATTITUDE_TARGET
[20:03:30.687811] [147] VFR_HUD
[20:03:30.690907] [148] SYSTEM_TIME
[20:03:31.527917] [248] RADIO
[20:03:31.530866] [248] RADIO_STATUS
[20:03:31.643931] [150] HEARTBEAT
[20:03:32.234050] [151] VFR_HUD
[20:03:32.349996] [249] RADIO
[20:03:32.352149] [249] RADIO_STATUS
[20:03:32.807145] [152] HEARTBEAT
[20:03:32.815995] [153] ATTITUDE_TARGET
[20:03:33.028293] [154] VFR_HUD
[20:03:33.367289] [250] RADIO
[20:03:33.370242] [250] RADIO_STATUS
[20:03:33.842217] [156] VFR_HUD
[20:03:34.515381] [251] RADIO
[20:03:34.519652] [251] RADIO_STATUS
[20:03:34.770433] [159] BATTERY_STATUS
[20:03:35.437924] [252] RADIO
[20:03:35.438292] [252] RADIO_STATUS
[20:03:35.473410] [162] VFR_HUD
[20:03:35.671551] [163] HEARTBEAT
[20:03:36.245485] [164] VFR_HUD
[20:03:36.474510] [253] RADIO
[20:03:36.477406] [253] RADIO_STATUS
[20:03:36.838677] [165] HEARTBEAT
[20:03:36.846546] [166] ATTITUDE_TARGET
[20:03:37.054887] [167] VFR_HUD
[20:03:37.393666] [254] RADIO
[20:03:37.396654] [254] RADIO_STATUS
[20:03:37.619699] [168] HEARTBEAT
[20:03:38.422791] [255] RADIO
[20:03:38.425708] [255] RADIO_STATUS
[20:03:38.670801] [170] HEARTBEAT
[20:03:38.677734] [171] SYS_STATUS
[20:03:38.796802] [172] BATTERY_STATUS
[20:03:38.803723] [173] ATTITUDE_TARGET
[20:03:38.835143] [174] VFR_HUD
[20:03:39.573891] [0] RADIO
[20:03:39.574811] [0] RADIO_STATUS
[20:03:39.689078] [176] HEARTBEAT
[20:03:40.272986] [177] VFR_HUD
[20:03:40.493861] [1] RADIO
[20:03:40.494986] [1] RADIO_STATUS
[20:03:41.072012] [180] VFR_HUD
[20:03:41.410952] [2] RADIO
[20:03:41.413988] [2] RADIO_STATUS
[20:03:41.647250] [181] HEARTBEAT
[20:03:42.561227] [3] RADIO
[20:03:42.563131] [3] RADIO_STATUS
[20:03:42.810251] [185] BATTERY_STATUS
[20:03:43.480271] [4] RADIO
[20:03:43.483321] [4] RADIO_STATUS
[20:03:43.519294] [188] VFR_HUD
[20:03:43.716267] [189] HEARTBEAT
[20:03:44.290674] [190] VFR_HUD
[20:03:44.519639] [5] RADIO
[20:03:44.522343] [5] RADIO_STATUS
[20:03:44.654407] [191] HEARTBEAT
[20:03:44.662366] [192] ATTITUDE_TARGET
[20:03:45.106145] [193] VFR_HUD
[20:03:45.548676] [6] RADIO
[20:03:45.551486] [6] RADIO_STATUS
[20:03:45.666272] [194] HEARTBEAT
[20:03:46.468747] [7] RADIO
[20:03:46.471861] [7] RADIO_STATUS
[20:03:46.716999] [196] HEARTBEAT
[20:03:46.722716] [197] SYS_STATUS
[20:03:46.841682] [198] BATTERY_STATUS
[20:03:46.849942] [199] ATTITUDE_TARGET
[20:03:46.879650] [200] VFR_HUD
[20:03:47.618036] [8] RADIO
[20:03:47.620810] [8] RADIO_STATUS
[20:03:47.660838] [202] HEARTBEAT
[20:03:48.317927] [203] VFR_HUD
[20:03:48.536903] [9] RADIO
[20:03:48.540060] [9] RADIO_STATUS
[20:03:49.118037] [206] VFR_HUD
[20:03:49.456944] [10] RADIO
[20:03:49.458967] [10] RADIO_STATUS
[20:03:49.699050] [207] HEARTBEAT
[20:03:50.606408] [11] RADIO
[20:03:50.609188] [11] RADIO_STATUS
[20:03:50.702177] [213] ATTITUDE_TARGET
[20:03:50.707095] [214] VFR_HUD
[20:03:50.711104] [215] SYSTEM_TIME
[20:03:51.525392] [12] RADIO
[20:03:51.528176] [12] RADIO_STATUS
[20:03:51.568463] [216] VFR_HUD
[20:03:52.231360] [218] VFR_HUD
[20:03:52.570376] [13] RADIO
[20:03:52.573372] [13] RADIO_STATUS
[20:03:52.700511] [219] HEARTBEAT
[20:03:52.708387] [220] ATTITUDE_TARGET
[20:03:53.484475] [14] RADIO
[20:03:53.487441] [14] RADIO_STATUS
[20:03:53.710595] [222] HEARTBEAT
[20:03:53.841661] [223] VFR_HUD
[20:03:54.513689] [15] RADIO
[20:03:54.516597] [15] RADIO_STATUS
[20:03:54.642657] [224] HEARTBEAT
[20:03:54.648775] [225] SYS_STATUS
[20:03:54.768826] [226] BATTERY_STATUS
[20:03:54.880640] [227] ATTITUDE_TARGET
[20:03:54.885997] [228] VFR_HUD
[20:03:55.443703] [229] VFR_HUD
[20:03:55.662750] [16] RADIO
[20:03:55.665958] [16] RADIO_STATUS
[20:03:55.696831] [230] HEARTBEAT
[20:03:56.472889] [17] RADIO
[20:03:56.475901] [17] RADIO_STATUS
[20:03:57.052876] [234] VFR_HUD
[20:03:57.501916] [18] RADIO
[20:03:57.504925] [18] RADIO_STATUS
[20:03:57.629825] [235] HEARTBEAT
[20:03:58.651231] [19] RADIO
[20:03:58.654042] [19] RADIO_STATUS
[20:03:58.906129] [239] BATTERY_STATUS
[20:03:59.461183] [242] VFR_HUD
[20:03:59.488439] [20] RADIO
[20:03:59.491527] [20] RADIO_STATUS
[20:04:00.381318] [244] VFR_HUD
[20:04:00.489182] [21] RADIO
[20:04:00.492108] [21] RADIO_STATUS
[20:04:00.739447] [245] HEARTBEAT
[20:04:00.747193] [246] ATTITUDE_TARGET
[20:04:01.081316] [247] VFR_HUD
[20:04:01.527224] [22] RADIO
[20:04:01.530467] [22] RADIO_STATUS
[20:04:01.644273] [248] HEARTBEAT
[20:04:01.883458] [249] VFR_HUD
[20:04:02.557283] [23] RADIO
[20:04:02.560304] [23] RADIO_STATUS
[20:04:02.807408] [252] BATTERY_STATUS
[20:04:02.924329] [253] ATTITUDE_TARGET
[20:04:02.929284] [254] VFR_HUD
[20:04:03.492482] [255] VFR_HUD
[20:04:03.706639] [24] RADIO
[20:04:03.709438] [24] RADIO_STATUS
[20:04:03.822498] [0] HEARTBEAT
[20:04:04.517965] [25] RADIO
[20:04:04.518600] [25] RADIO_STATUS
[20:04:04.645560] [2] HEARTBEAT
[20:04:04.653978] [3] ATTITUDE_TARGET
[20:04:05.101815] [4] VFR_HUD
[20:04:05.545839] [26] RADIO
[20:04:05.548689] [26] RADIO_STATUS
[20:04:05.661646] [5] HEARTBEAT
[20:04:06.694733] [27] RADIO
[20:04:06.697733] [27] RADIO_STATUS
[20:04:06.949853] [9] BATTERY_STATUS
[20:04:07.504975] [12] VFR_HUD
[20:04:07.538176] [28] RADIO
[20:04:07.540924] [28] RADIO_STATUS
[20:04:07.625863] [13] HEARTBEAT
[20:04:08.316229] [14] VFR_HUD
[20:04:08.534073] [29] RADIO
[20:04:08.535966] [29] RADIO_STATUS
[20:04:08.663013] [15] HEARTBEAT
[20:04:08.671093] [16] ATTITUDE_TARGET
[20:04:09.114592] [17] VFR_HUD
[20:04:09.685502] [30] RADIO
[20:04:09.685645] [30] RADIO_STATUS
[20:04:09.716486] [18] HEARTBEAT
[20:04:09.923211] [19] VFR_HUD
[20:04:10.601630] [31] RADIO
[20:04:10.604235] [31] RADIO_STATUS
[20:04:11.751392] [32] RADIO
[20:04:11.753545] [32] RADIO_STATUS
[20:04:12.226387] [29] VFR_HUD
[20:04:12.565530] [33] RADIO
[20:04:12.568375] [33] RADIO_STATUS
[20:04:12.694979] [30] HEARTBEAT
[20:04:12.702559] [31] ATTITUDE_TARGET
[20:04:13.589593] [34] RADIO
[20:04:13.592527] [34] RADIO_STATUS
[20:04:13.623608] [33] HEARTBEAT
[20:04:13.829468] [34] VFR_HUD
[20:04:14.738697] [35] RADIO
[20:04:14.741789] [35] RADIO_STATUS
[20:04:15.658724] [36] RADIO
[20:04:15.661699] [36] RADIO_STATUS
[20:04:15.702787] [40] VFR_HUD
[20:04:15.709422] [41] HEARTBEAT
[20:04:16.578873] [37] RADIO
[20:04:16.580919] [37] RADIO_STATUS
[20:04:16.707900] [43] HEARTBEAT
[20:04:16.717964] [44] ATTITUDE_TARGET
[20:04:17.049245] [45] VFR_HUD
[20:04:17.619257] [46] HEARTBEAT
[20:04:17.645981] [38] RADIO
[20:04:17.649076] [38] RADIO_STATUS
[20:04:17.847996] [47] VFR_HUD
[20:04:18.647067] [39] RADIO
[20:04:18.650318] [39] RADIO_STATUS
[20:04:19.457270] [53] VFR_HUD
[20:04:19.796159] [40] RADIO
[20:04:19.799221] [40] RADIO_STATUS
[20:04:20.272240] [55] VFR_HUD
[20:04:20.611245] [41] RADIO
[20:04:20.616138] [41] RADIO_STATUS
[20:04:20.741612] [56] HEARTBEAT
[20:04:20.749261] [57] ATTITUDE_TARGET
[20:04:21.066696] [58] VFR_HUD
[20:04:21.635581] [42] RADIO
[20:04:21.638393] [42] RADIO_STATUS
[20:04:21.881966] [60] VFR_HUD
[20:04:22.784620] [43] RADIO
[20:04:22.787759] [43] RADIO_STATUS
[20:04:23.704682] [44] RADIO
[20:04:23.707600] [44] RADIO_STATUS
[20:04:23.955897] [66] VFR_HUD
[20:04:23.958673] [67] HEARTBEAT
[20:04:24.623937] [45] RADIO
[20:04:24.626772] [45] RADIO_STATUS
[20:04:24.753838] [69] HEARTBEAT
[20:04:24.762033] [70] ATTITUDE_TARGET
[20:04:25.093781] [71] VFR_HUD
[20:04:25.661819] [72] HEARTBEAT
[20:04:25.773177] [46] RADIO
[20:04:25.776025] [46] RADIO_STATUS
[20:04:25.893883] [73] VFR_HUD
[20:04:26.691971] [47] RADIO
[20:04:26.694959] [47] RADIO_STATUS
[20:04:26.820012] [74] HEARTBEAT
[20:04:26.827104] [75] SYS_STATUS
[20:04:26.947031] [76] BATTERY_STATUS
[20:04:27.058963] [77] ATTITUDE_TARGET
[20:04:27.063980] [78] VFR_HUD
[20:04:27.617211] [80] HEARTBEAT
[20:04:27.841074] [48] RADIO
[20:04:27.844205] [48] RADIO_STATUS
[20:04:28.311162] [81] VFR_HUD
[20:04:28.760195] [49] RADIO
[20:04:28.763157] [49] RADIO_STATUS
[20:04:29.111223] [84] VFR_HUD
[20:04:29.679306] [50] RADIO
[20:04:29.682443] [50] RADIO_STATUS
[20:04:29.796324] [85] HEARTBEAT
[20:04:29.843460] [86] VFR_HUD
[20:04:30.828376] [51] RADIO
[20:04:30.831376] [51] RADIO_STATUS
[20:04:31.655723] [52] RADIO
[20:04:31.658422] [52] RADIO_STATUS
[20:04:32.667574] [53] RADIO
[20:04:32.670572] [53] RADIO_STATUS
[20:04:32.716703] [97] HEARTBEAT
[20:04:32.723802] [98] ATTITUDE_TARGET
[20:04:33.712708] [100] HEARTBEAT
[20:04:33.816673] [54] RADIO
[20:04:33.820131] [54] RADIO_STATUS
[20:04:33.937924] [101] VFR_HUD
[20:04:34.737985] [55] RADIO
[20:04:34.738958] [55] RADIO_STATUS
[20:04:35.885119] [56] RADIO
[20:04:35.888116] [56] RADIO_STATUS
[20:04:36.238159] [109] VFR_HUD
[20:04:36.805294] [57] RADIO
[20:04:36.808001] [57] RADIO_STATUS
[20:04:37.045568] [112] VFR_HUD
[20:04:37.723085] [58] RADIO
[20:04:37.726314] [58] RADIO_STATUS
[20:04:38.666228] [115] HEARTBEAT
[20:04:38.673452] [116] SYS_STATUS
[20:04:38.713168] [117] BATTERY_STATUS
[20:04:38.720196] [118] ATTITUDE_TARGET
[20:04:38.725311] [119] VFR_HUD
[20:04:38.874244] [59] RADIO
[20:04:38.877389] [59] RADIO_STATUS
[20:04:39.690232] [120] VFR_HUD
[20:04:39.693235] [121] HEARTBEAT
[20:04:39.793267] [60] RADIO
[20:04:39.796254] [60] RADIO_STATUS
[20:04:40.269434] [122] VFR_HUD
[20:04:40.713573] [61] RADIO
[20:04:40.716344] [61] RADIO_STATUS
[20:04:40.761949] [123] HEARTBEAT
[20:04:40.768412] [124] ATTITUDE_TARGET
[20:04:41.862483] [62] RADIO
[20:04:41.868940] [62] RADIO_STATUS
[20:04:41.902273] [127] VFR_HUD
[20:04:42.781608] [63] RADIO
[20:04:42.784639] [63] RADIO_STATUS
[20:04:43.722678] [133] VFR_HUD
[20:04:43.726115] [134] HEARTBEAT
[20:04:43.930641] [64] RADIO
[20:04:43.934049] [64] RADIO_STATUS
[20:04:44.282149] [135] VFR_HUD
[20:04:44.640952] [136] HEARTBEAT
[20:04:44.652507] [137] ATTITUDE_TARGET
[20:04:44.851866] [65] RADIO
[20:04:44.852861] [65] RADIO_STATUS
[20:04:45.769964] [66] RADIO
[20:04:45.773607] [66] RADIO_STATUS
[20:04:46.707337] [141] HEARTBEAT
[20:04:46.714095] [142] SYS_STATUS
[20:04:46.919113] [67] RADIO
[20:04:46.922143] [67] RADIO_STATUS
[20:04:47.499210] [146] VFR_HUD
[20:04:47.614204] [147] HEARTBEAT
[20:04:47.733354] [68] RADIO
[20:04:47.736281] [68] RADIO_STATUS
[20:04:48.317519] [148] VFR_HUD
[20:04:48.658273] [149] HEARTBEAT
[20:04:48.665460] [150] ATTITUDE_TARGET
[20:04:48.757838] [69] RADIO
[20:04:48.760327] [69] RADIO_STATUS
[20:04:49.802482] [70] RADIO
[20:04:49.805448] [70] RADIO_STATUS
[20:04:49.922568] [153] VFR_HUD
[20:04:50.826634] [71] RADIO
[20:04:50.829512] [71] RADIO_STATUS
[20:04:51.531703] [161] VFR_HUD
[20:04:51.745758] [72] RADIO
[20:04:51.748686] [72] RADIO_STATUS
[20:04:52.326005] [163] VFR_HUD
[20:04:52.684835] [164] HEARTBEAT
[20:04:52.693174] [165] ATTITUDE_TARGET
[20:04:52.894777] [73] RADIO
[20:04:52.897813] [73] RADIO_STATUS
[20:04:53.814530] [74] RADIO
[20:04:53.816999] [74] RADIO_STATUS
[20:04:54.634108] [169] HEARTBEAT
[20:04:54.639020] [170] SYS_STATUS
[20:04:54.753128] [171] BATTERY_STATUS
[20:04:54.963249] [75] RADIO
[20:04:54.967303] [75] RADIO_STATUS
[20:04:55.666051] [175] HEARTBEAT
[20:04:55.773632] [76] RADIO
[20:04:55.776113] [76] RADIO_STATUS
[20:04:56.702303] [177] HEARTBEAT
[20:04:56.710273] [178] ATTITUDE_TARGET
[20:04:56.802279] [77] RADIO
[20:04:56.805961] [77] RADIO_STATUS
[20:04:57.048310] [179] VFR_HUD
[20:04:57.853273] [181] VFR_HUD
[20:04:57.869386] [78] RADIO
[20:04:57.872311] [78] RADIO_STATUS
[20:04:58.664409] [182] HEARTBEAT
[20:04:58.671492] [183] SYS_STATUS
[20:04:58.710361] [184] BATTERY_STATUS
[20:04:58.718576] [185] ATTITUDE_TARGET
[20:04:58.723401] [186] VFR_HUD
[20:04:58.872414] [79] RADIO
[20:04:58.875431] [79] RADIO_STATUS
[20:04:59.791467] [80] RADIO
[20:04:59.794438] [80] RADIO_STATUS
[20:05:00.372575] [189] VFR_HUD
[20:05:00.736766] [190] HEARTBEAT
[20:05:00.743687] [191] ATTITUDE_TARGET
[20:05:00.830910] [81] RADIO
[20:05:00.834036] [81] RADIO_STATUS
[20:05:01.641658] [193] HEARTBEAT
[20:05:01.860713] [82] RADIO
[20:05:01.863775] [82] RADIO_STATUS
[20:05:01.992787] [194] VFR_HUD
[20:05:02.677804] [195] HEARTBEAT
[20:05:02.685237] [196] SYS_STATUS
[20:05:02.804947] [197] BATTERY_STATUS
[20:05:03.008865] [83] RADIO
[20:05:03.011869] [83] RADIO_STATUS
[20:05:03.711048] [201] HEARTBEAT
[20:05:03.819117] [84] RADIO
[20:05:03.821889] [84] RADIO_STATUS
[20:05:04.293768] [202] VFR_HUD
[20:05:04.749891] [203] HEARTBEAT
[20:05:04.756044] [204] ATTITUDE_TARGET
[20:05:04.848023] [85] RADIO
[20:05:04.851011] [85] RADIO_STATUS
[20:05:05.089351] [205] VFR_HUD
[20:05:05.888352] [207] VFR_HUD
[20:05:05.917279] [86] RADIO
[20:05:05.918252] [86] RADIO_STATUS
[20:05:06.710225] [208] HEARTBEAT
[20:05:06.717796] [209] SYS_STATUS
[20:05:06.756557] [210] BATTERY_STATUS
[20:05:06.764263] [211] ATTITUDE_TARGET
[20:05:06.769309] [212] VFR_HUD
[20:05:06.918432] [87] RADIO
[20:05:06.921298] [87] RADIO_STATUS
[20:05:07.624456] [213] VFR_HUD
[20:05:07.627655] [214] HEARTBEAT
[20:05:07.837420] [88] RADIO
[20:05:07.842052] [88] RADIO_STATUS
[20:05:08.313571] [215] VFR_HUD
[20:05:08.782539] [216] HEARTBEAT
[20:05:08.789707] [217] ATTITUDE_TARGET
[20:05:08.987753] [89] RADIO
[20:05:08.989665] [89] RADIO_STATUS
[20:05:09.685997] [219] HEARTBEAT
[20:05:09.906679] [90] RADIO
[20:05:09.909597] [90] RADIO_STATUS
[20:05:09.956614] [220] VFR_HUD
[20:05:10.724672] [221] HEARTBEAT
[20:05:10.730722] [222] SYS_STATUS
[20:05:10.830660] [91] RADIO
[20:05:10.833839] [91] RADIO_STATUS
[20:05:10.890717] [223] BATTERY_STATUS
[20:05:10.891682] [224] EXTENDED_SYS_STATE
[20:05:10.899790] [225] ATTITUDE_TARGET
[20:05:10.905980] [226] VFR_HUD
[20:05:10.908721] [227] SYSTEM_TIME
[20:05:11.538035] [228] VFR_HUD
[20:05:11.631853] [229] HEARTBEAT
[20:05:11.870791] [92] RADIO
[20:05:11.873765] [92] RADIO_STATUS
[20:05:12.215853] [230] VFR_HUD
[20:05:12.894907] [93] RADIO
[20:05:12.897861] [93] RADIO_STATUS
[20:05:13.136156] [233] VFR_HUD
[20:05:13.836037] [235] VFR_HUD
[20:05:13.939583] [94] RADIO
[20:05:13.942280] [94] RADIO_STATUS
[20:05:14.753267] [238] BATTERY_STATUS
[20:05:14.963239] [95] RADIO
[20:05:14.966553] [95] RADIO_STATUS
[20:05:15.439272] [241] VFR_HUD
[20:05:15.670335] [242] HEARTBEAT
[20:05:15.883281] [96] RADIO
[20:05:15.886268] [96] RADIO_STATUS
[20:05:16.234441] [243] VFR_HUD
[20:05:16.822435] [244] HEARTBEAT
[20:05:16.829467] [245] ATTITUDE_TARGET
[20:05:16.927370] [97] RADIO
[20:05:16.930989] [97] RADIO_STATUS
[20:05:17.048767] [246] VFR_HUD
[20:05:17.728500] [247] HEARTBEAT
[20:05:17.951946] [98] RADIO
[20:05:17.954512] [98] RADIO_STATUS
[20:05:18.664583] [249] HEARTBEAT
[20:05:18.671700] [250] SYS_STATUS
[20:05:18.711572] [251] BATTERY_STATUS
[20:05:18.719753] [252] ATTITUDE_TARGET
[20:05:18.723558] [253] VFR_HUD
[20:05:18.871747] [99] RADIO
[20:05:18.874476] [99] RADIO_STATUS
[20:05:19.687659] [254] VFR_HUD
[20:05:19.690682] [255] HEARTBEAT
[20:05:19.910723] [100] RADIO
[20:05:19.913706] [100] RADIO_STATUS
[20:05:20.260732] [0] VFR_HUD
[20:05:20.939764] [101] RADIO
[20:05:20.942748] [101] RADIO_STATUS
[20:05:21.060807] [3] VFR_HUD
[20:05:21.640903] [4] HEARTBEAT
[20:05:21.978935] [102] RADIO
[20:05:21.983017] [102] RADIO_STATUS
[20:05:22.798601] [8] BATTERY_STATUS
[20:05:23.008095] [103] RADIO
[20:05:23.011015] [103] RADIO_STATUS
[20:05:23.479091] [11] VFR_HUD
[20:05:23.709166] [12] HEARTBEAT
[20:05:23.928176] [104] RADIO
[20:05:23.933034] [104] RADIO_STATUS
[20:05:24.278242] [13] VFR_HUD
[20:05:24.643298] [14] HEARTBEAT
[20:05:24.650457] [15] ATTITUDE_TARGET
[20:05:24.967419] [105] RADIO
[20:05:24.970197] [105] RADIO_STATUS
[20:05:25.093166] [16] VFR_HUD
[20:05:25.653577] [17] HEARTBEAT
[20:05:25.997936] [106] RADIO
[20:05:26.000581] [106] RADIO_STATUS
[20:05:26.710468] [19] HEARTBEAT
[20:05:26.718137] [20] SYS_STATUS
[20:05:26.756403] [21] BATTERY_STATUS
[20:05:26.764551] [22] ATTITUDE_TARGET
[20:05:26.769470] [23] VFR_HUD
[20:05:26.918374] [107] RADIO
[20:05:26.919465] [107] RADIO_STATUS
[20:05:27.732243] [24] VFR_HUD
[20:05:27.734625] [25] HEARTBEAT
[20:05:27.955608] [108] RADIO
[20:05:27.958569] [108] RADIO_STATUS
[20:05:28.314184] [26] VFR_HUD
[20:05:28.985701] [109] RADIO
[20:05:28.988657] [109] RADIO_STATUS
[20:05:29.105674] [29] VFR_HUD
[20:05:29.686750] [30] HEARTBEAT
[20:05:29.904952] [110] RADIO
[20:05:29.907743] [110] RADIO_STATUS
[20:05:30.025936] [31] VFR_HUD
[20:05:30.852422] [34] BATTERY_STATUS
[20:05:30.853932] [35] EXTENDED_SYS_STATE
[20:05:30.886155] [36] ATTITUDE_TARGET
[20:05:30.891013] [37] VFR_HUD
[20:05:30.893914] [38] SYSTEM_TIME
[20:05:31.053924] [111] RADIO
[20:05:31.056884] [111] RADIO_STATUS
[20:05:31.523983] [39] VFR_HUD
[20:05:31.973092] [112] RADIO
[20:05:31.976075] [112] RADIO_STATUS
[20:05:32.324118] [41] VFR_HUD
[20:05:32.683199] [42] HEARTBEAT
[20:05:32.690217] [43] ATTITUDE_TARGET
[20:05:33.122205] [113] RADIO
[20:05:33.125250] [113] RADIO_STATUS
[20:05:33.162237] [44] VFR_HUD
[20:05:33.701525] [45] HEARTBEAT
[20:05:33.828250] [46] VFR_HUD
[20:05:34.042315] [114] RADIO
[20:05:34.044271] [114] RADIO_STATUS
[20:05:34.617695] [47] HEARTBEAT
[20:05:34.638383] [48] SYS_STATUS
[20:05:34.751403] [49] BATTERY_STATUS
[20:05:34.868595] [50] ATTITUDE_TARGET
[20:05:34.873464] [51] VFR_HUD
[20:05:34.961375] [115] RADIO
[20:05:34.964702] [115] RADIO_STATUS
[20:05:35.436570] [52] VFR_HUD
[20:05:35.657574] [53] HEARTBEAT
[20:05:36.005544] [116] RADIO
[20:05:36.008473] [116] RADIO_STATUS
[20:05:37.030615] [117] RADIO
[20:05:37.032652] [117] RADIO_STATUS
[20:05:37.068734] [57] VFR_HUD
[20:05:37.725908] [58] HEARTBEAT
[20:05:37.949755] [118] RADIO
[20:05:37.952691] [118] RADIO_STATUS
[20:05:39.100430] [119] RADIO
[20:05:39.102629] [119] RADIO_STATUS
[20:05:39.450447] [65] VFR_HUD
[20:05:40.018974] [120] RADIO
[20:05:40.022172] [120] RADIO_STATUS
[20:05:40.259029] [67] VFR_HUD
[20:05:40.728161] [68] HEARTBEAT
[20:05:40.736151] [69] ATTITUDE_TARGET
[20:05:40.943136] [121] RADIO
[20:05:40.946102] [121] RADIO_STATUS
[20:05:41.059829] [70] VFR_HUD
[20:05:41.638647] [71] HEARTBEAT
[20:05:41.868688] [72] VFR_HUD
[20:05:42.087272] [122] RADIO
[20:05:42.090282] [122] RADIO_STATUS
[20:05:42.796371] [75] BATTERY_STATUS
[20:05:42.913382] [76] ATTITUDE_TARGET
[20:05:42.918285] [77] VFR_HUD
[20:05:43.006590] [123] RADIO
[20:05:43.009366] [123] RADIO_STATUS
[20:05:43.482069] [78] VFR_HUD
[20:05:44.050454] [124] RADIO
[20:05:44.053655] [124] RADIO_STATUS
[20:05:44.640676] [81] HEARTBEAT
[20:05:44.649417] [82] ATTITUDE_TARGET
[20:05:44.964565] [125] RADIO
[20:05:44.967744] [125] RADIO_STATUS
[20:05:45.090563] [83] VFR_HUD
[20:05:45.995014] [126] RADIO
[20:05:45.999987] [126] RADIO_STATUS
[20:05:46.707870] [86] HEARTBEAT
[20:05:46.714890] [87] SYS_STATUS
[20:05:46.753861] [88] BATTERY_STATUS
[20:05:46.761860] [89] ATTITUDE_TARGET
[20:05:46.766946] [90] VFR_HUD
[20:05:47.145807] [127] RADIO
[20:05:47.149366] [127] RADIO_STATUS
[20:05:47.495776] [91] VFR_HUD
[20:05:47.616883] [92] HEARTBEAT
[20:05:48.064886] [128] RADIO
[20:05:48.068094] [128] RADIO_STATUS
[20:05:48.305861] [93] VFR_HUD
[20:05:48.654913] [94] HEARTBEAT
[20:05:48.662929] [95] ATTITUDE_TARGET
[20:05:49.213960] [129] RADIO
[20:05:49.217089] [129] RADIO_STATUS
[20:05:49.685081] [97] HEARTBEAT
[20:05:49.915069] [98] VFR_HUD
[20:05:50.134142] [130] RADIO
[20:05:50.137953] [130] RADIO_STATUS
[20:05:50.722262] [99] HEARTBEAT
[20:05:50.728209] [100] SYS_STATUS
[20:05:50.851303] [101] BATTERY_STATUS
[20:05:50.853369] [102] EXTENDED_SYS_STATE
[20:05:50.885237] [103] ATTITUDE_TARGET
[20:05:50.890161] [104] VFR_HUD
[20:05:50.893157] [105] SYSTEM_TIME
[20:05:51.053172] [131] RADIO
[20:05:51.057915] [131] RADIO_STATUS
[20:05:51.523410] [106] VFR_HUD
[20:05:52.093264] [132] RADIO
[20:05:52.095252] [132] RADIO_STATUS
[20:05:52.687722] [109] HEARTBEAT
[20:05:52.695347] [110] ATTITUDE_TARGET
[20:05:53.122418] [133] RADIO
[20:05:53.125420] [133] RADIO_STATUS
[20:05:53.164415] [111] VFR_HUD
[20:05:53.827522] [113] VFR_HUD
[20:05:54.041506] [134] RADIO
[20:05:54.044465] [134] RADIO_STATUS
[20:05:54.755620] [116] BATTERY_STATUS
[20:05:55.190702] [135] RADIO
[20:05:55.193651] [135] RADIO_STATUS
[20:05:55.431758] [119] VFR_HUD
[20:05:55.656688] [120] HEARTBEAT
[20:05:56.110758] [136] RADIO
[20:05:56.113131] [136] RADIO_STATUS
[20:05:56.699872] [122] HEARTBEAT
[20:05:56.707870] [123] ATTITUDE_TARGET
[20:05:57.039754] [124] VFR_HUD
[20:05:57.149961] [137] RADIO
[20:05:57.152840] [137] RADIO_STATUS
[20:05:57.605972] [125] HEARTBEAT
[20:05:57.840087] [126] VFR_HUD
[20:05:58.178981] [138] RADIO
[20:05:58.182780] [138] RADIO_STATUS
[20:05:58.815289] [129] BATTERY_STATUS
[20:05:58.823189] [130] ATTITUDE_TARGET
[20:05:58.827034] [131] VFR_HUD
[20:05:59.098023] [139] RADIO
[20:05:59.101015] [139] RADIO_STATUS
[20:05:59.449077] [132] VFR_HUD
[20:06:00.137188] [140] RADIO
[20:06:00.140141] [140] RADIO_STATUS
[20:06:00.726230] [135] HEARTBEAT
[20:06:00.735093] [136] ATTITUDE_TARGET
[20:06:01.057275] [137] VFR_HUD
[20:06:01.084403] [141] RADIO
[20:06:01.087242] [141] RADIO_STATUS
[20:06:01.633011] [138] HEARTBEAT
[20:06:01.872395] [139] VFR_HUD
[20:06:02.085401] [142] RADIO
[20:06:02.088500] [142] RADIO_STATUS
[20:06:02.794482] [142] BATTERY_STATUS
[20:06:03.234792] [143] RADIO
[20:06:03.237573] [143] RADIO_STATUS
[20:06:03.480576] [145] VFR_HUD
[20:06:03.700665] [146] HEARTBEAT
[20:06:04.153829] [144] RADIO
[20:06:04.156614] [144] RADIO_STATUS
[20:06:04.638737] [148] HEARTBEAT
[20:06:04.648499] [149] ATTITUDE_TARGET
[20:06:05.089709] [150] VFR_HUD
[20:06:05.205892] [145] RADIO
[20:06:05.207728] [145] RADIO_STATUS
[20:06:05.648918] [151] HEARTBEAT
[20:06:05.883985] [152] VFR_HUD
[20:06:06.223056] [146] RADIO
[20:06:06.225822] [146] RADIO_STATUS
[20:06:06.825953] [155] BATTERY_STATUS
[20:06:06.833957] [156] ATTITUDE_TARGET
[20:06:06.863876] [157] VFR_HUD
[20:06:07.141955] [147] RADIO
[20:06:07.145021] [147] RADIO_STATUS
[20:06:07.504944] [158] VFR_HUD
[20:06:07.613068] [159] HEARTBEAT
[20:06:08.187159] [148] RADIO
[20:06:08.190309] [148] RADIO_STATUS
[20:06:08.302038] [160] VFR_HUD
[20:06:08.771172] [161] HEARTBEAT
[20:06:08.778065] [162] ATTITUDE_TARGET
[20:06:09.102204] [163] VFR_HUD
[20:06:09.134188] [149] RADIO
[20:06:09.137150] [149] RADIO_STATUS
[20:06:09.683276] [164] HEARTBEAT
[20:06:09.911267] [165] VFR_HUD
[20:06:10.130275] [150] RADIO
[20:06:10.133962] [150] RADIO_STATUS
[20:06:10.843369] [168] BATTERY_STATUS
[20:06:10.844268] [169] EXTENDED_SYS_STATE
[20:06:11.279283] [151] RADIO
[20:06:11.283139] [151] RADIO_STATUS
[20:06:11.520782] [173] VFR_HUD
[20:06:11.626440] [174] HEARTBEAT
[20:06:12.199500] [152] RADIO
[20:06:12.202487] [152] RADIO_STATUS
[20:06:12.237442] [175] VFR_HUD
[20:06:12.684740] [176] HEARTBEAT
[20:06:12.691691] [177] ATTITUDE_TARGET
[20:06:13.134875] [178] VFR_HUD
[20:06:13.348634] [153] RADIO
[20:06:13.351575] [153] RADIO_STATUS
[20:06:13.694789] [179] HEARTBEAT
[20:06:13.823690] [180] VFR_HUD
[20:06:14.267991] [154] RADIO
[20:06:14.270909] [154] RADIO_STATUS
[20:06:14.864791] [184] ATTITUDE_TARGET
[20:06:14.870111] [185] VFR_HUD
[20:06:15.186820] [155] RADIO
[20:06:15.189745] [155] RADIO_STATUS
[20:06:15.548891] [186] VFR_HUD
[20:06:15.657855] [187] HEARTBEAT
[20:06:16.226938] [188] VFR_HUD
[20:06:16.258940] [156] RADIO
[20:06:16.261957] [156] RADIO_STATUS
[20:06:16.820171] [189] HEARTBEAT
[20:06:16.828059] [190] ATTITUDE_TARGET
[20:06:17.047073] [191] VFR_HUD
[20:06:17.255048] [157] RADIO
[20:06:17.257987] [157] RADIO_STATUS
[20:06:17.726561] [192] HEARTBEAT
[20:06:18.174241] [158] RADIO
[20:06:18.177348] [158] RADIO_STATUS
[20:06:19.323241] [159] RADIO
[20:06:19.326226] [159] RADIO_STATUS
[20:06:19.444305] [199] VFR_HUD
[20:06:19.669418] [200] HEARTBEAT
[20:06:20.243367] [160] RADIO
[20:06:20.246343] [160] RADIO_STATUS
[20:06:20.281415] [201] VFR_HUD
[20:06:20.722720] [202] HEARTBEAT
[20:06:20.730439] [203] ATTITUDE_TARGET
[20:06:21.285773] [161] RADIO
[20:06:21.285928] [161] RADIO_STATUS
[20:06:21.628605] [205] HEARTBEAT
[20:06:21.868628] [206] VFR_HUD
[20:06:22.311585] [162] RADIO
[20:06:22.317833] [162] RADIO_STATUS
[20:06:22.909729] [210] ATTITUDE_TARGET
[20:06:22.913605] [211] VFR_HUD
[20:06:23.231694] [163] RADIO
[20:06:23.235049] [163] RADIO_STATUS
[20:06:23.476753] [212] VFR_HUD
[20:06:23.697848] [213] HEARTBEAT
[20:06:24.271970] [214] VFR_HUD
[20:06:24.299174] [164] RADIO
[20:06:24.302040] [164] RADIO_STATUS
[20:06:24.618163] [215] HEARTBEAT
[20:06:24.639771] [216] ATTITUDE_TARGET
[20:06:25.299924] [165] RADIO
[20:06:25.302932] [165] RADIO_STATUS
[20:06:26.218985] [166] RADIO
[20:06:26.222177] [166] RADIO_STATUS
[20:06:26.697056] [220] HEARTBEAT
[20:06:26.704220] [221] SYS_STATUS
[20:06:27.368277] [167] RADIO
[20:06:27.371397] [167] RADIO_STATUS
[20:06:27.500174] [225] VFR_HUD
[20:06:27.714205] [226] HEARTBEAT
[20:06:28.288193] [168] RADIO
[20:06:28.291208] [168] RADIO_STATUS
[20:06:28.767265] [228] HEARTBEAT
[20:06:28.774284] [229] ATTITUDE_TARGET
[20:06:29.437625] [169] RADIO
[20:06:29.440404] [169] RADIO_STATUS
[20:06:29.683088] [231] HEARTBEAT
[20:06:29.907394] [232] VFR_HUD
[20:06:30.359387] [170] RADIO
[20:06:30.362514] [170] RADIO_STATUS
[20:06:30.960525] [237] ATTITUDE_TARGET
[20:06:30.968408] [238] VFR_HUD
[20:06:30.968661] [239] SYSTEM_TIME
[20:06:31.274446] [171] RADIO
[20:06:31.277396] [171] RADIO_STATUS
[20:06:31.519724] [240] VFR_HUD
[20:06:31.633911] [241] HEARTBEAT
[20:06:32.314651] [242] VFR_HUD
[20:06:32.341628] [172] RADIO
[20:06:32.344512] [172] RADIO_STATUS
[20:06:32.678708] [243] HEARTBEAT
[20:06:32.685905] [244] ATTITUDE_TARGET
[20:06:33.128806] [245] VFR_HUD
[20:06:33.249745] [173] RADIO
[20:06:33.252704] [173] RADIO_STATUS
[20:06:33.812811] [247] VFR_HUD
[20:06:34.261889] [174] RADIO
[20:06:34.264776] [174] RADIO_STATUS
[20:06:34.613018] [248] HEARTBEAT
[20:06:34.634147] [249] SYS_STATUS
[20:06:34.676913] [250] BATTERY_STATUS
[20:06:34.683920] [251] ATTITUDE_TARGET
[20:06:34.688963] [252] VFR_HUD
[20:06:35.412932] [175] RADIO
[20:06:35.416027] [175] RADIO_STATUS
[20:06:35.665656] [253] VFR_HUD
[20:06:35.667413] [254] HEARTBEAT
[20:06:36.235137] [255] VFR_HUD
[20:06:36.333946] [176] RADIO
[20:06:36.335183] [176] RADIO_STATUS
[20:06:36.692101] [0] HEARTBEAT
[20:06:36.701398] [1] ATTITUDE_TARGET
[20:06:37.033197] [2] VFR_HUD
[20:06:37.481269] [177] RADIO
[20:06:37.484228] [177] RADIO_STATUS
[20:06:37.832499] [4] VFR_HUD
[20:06:38.401442] [178] RADIO
[20:06:38.403323] [178] RADIO_STATUS
[20:06:38.654397] [5] HEARTBEAT
[20:06:38.660368] [6] SYS_STATUS
[20:06:38.700435] [7] BATTERY_STATUS
[20:06:38.708382] [8] ATTITUDE_TARGET
[20:06:38.713913] [9] VFR_HUD
[20:06:39.322434] [179] RADIO
[20:06:39.325440] [179] RADIO_STATUS
[20:06:39.679507] [11] HEARTBEAT
[20:06:40.259565] [12] VFR_HUD
[20:06:40.379552] [180] RADIO
[20:06:40.382667] [180] RADIO_STATUS
[20:06:40.727842] [13] HEARTBEAT
[20:06:40.735597] [14] ATTITUDE_TARGET
[20:06:41.287770] [181] RADIO
[20:06:41.293746] [181] RADIO_STATUS
[20:06:41.628784] [16] HEARTBEAT
[20:06:41.867798] [17] VFR_HUD
[20:06:42.311765] [182] RADIO
[20:06:42.315939] [182] RADIO_STATUS
[20:06:42.669783] [18] HEARTBEAT
[20:06:42.676863] [19] SYS_STATUS
[20:06:42.796818] [20] BATTERY_STATUS
[20:06:43.460982] [183] RADIO
[20:06:43.463876] [183] RADIO_STATUS
[20:06:43.581894] [23] VFR_HUD
[20:06:43.696927] [24] HEARTBEAT
[20:06:44.282964] [25] VFR_HUD
[20:06:44.379945] [184] RADIO
[20:06:44.384964] [184] RADIO_STATUS
[20:06:45.080022] [28] VFR_HUD
[20:06:45.302115] [185] RADIO
[20:06:45.305037] [185] RADIO_STATUS
[20:06:45.891222] [30] VFR_HUD
[20:06:46.449429] [186] RADIO
[20:06:46.451482] [186] RADIO_STATUS
[20:06:46.697264] [31] HEARTBEAT
[20:06:46.703360] [32] SYS_STATUS
[20:06:47.368416] [187] RADIO
[20:06:47.371499] [187] RADIO_STATUS
[20:06:47.714668] [37] HEARTBEAT
[20:06:48.298401] [38] VFR_HUD
[20:06:48.407450] [188] RADIO
[20:06:48.410506] [188] RADIO_STATUS
[20:06:48.767459] [39] HEARTBEAT
[20:06:48.774465] [40] ATTITUDE_TARGET
[20:06:49.327526] [189] RADIO
[20:06:49.330489] [189] RADIO_STATUS
[20:06:49.674059] [42] HEARTBEAT
[20:06:49.912606] [43] VFR_HUD
[20:06:50.356573] [190] RADIO
[20:06:50.359599] [190] RADIO_STATUS
[20:06:50.717201] [44] HEARTBEAT
[20:06:50.721631] [45] SYS_STATUS
[20:06:50.839905] [46] BATTERY_STATUS
[20:06:50.841930] [47] EXTENDED_SYS_STATE
[20:06:51.505872] [191] RADIO
[20:06:51.508816] [191] RADIO_STATUS
[20:06:51.621776] [52] HEARTBEAT
[20:06:52.316197] [53] VFR_HUD
[20:06:52.425003] [192] RADIO
[20:06:52.426985] [192] RADIO_STATUS
[20:06:52.783939] [54] HEARTBEAT
[20:06:52.791906] [55] ATTITUDE_TARGET
[20:06:53.129884] [56] VFR_HUD
[20:06:53.345071] [193] RADIO
[20:06:53.346873] [193] RADIO_STATUS
[20:06:53.813970] [58] VFR_HUD
[20:06:54.493174] [194] RADIO
[20:06:54.496005] [194] RADIO_STATUS
[20:06:54.609247] [59] HEARTBEAT
[20:06:55.414094] [195] RADIO
[20:06:55.417075] [195] RADIO_STATUS
[20:06:55.665332] [64] VFR_HUD
[20:06:55.668249] [65] HEARTBEAT
[20:06:56.224348] [66] VFR_HUD
[20:06:56.453191] [196] RADIO
[20:06:56.456237] [196] RADIO_STATUS
[20:06:56.812301] [67] HEARTBEAT
[20:06:56.820322] [68] ATTITUDE_TARGET
