[19:25:50.348787] [210] RADIO
[19:25:50.350770] [210] RADIO_STATUS
[19:25:50.469824] [211] VFR_HUD
[19:25:51.498069] [211] RADIO
[19:25:51.503787] [211] RADIO_STATUS
[19:25:52.090115] [219] VFR_HUD
[19:25:52.193173] [220] HEARTBEAT
[19:25:52.417195] [212] RADIO
[19:25:52.420102] [212] RADIO_STATUS
[19:25:52.767352] [221] VFR_HUD
[19:25:53.113380] [222] HEARTBEAT
[19:25:53.153354] [223] ATTITUDE_TARGET
[19:25:53.336318] [213] RADIO
[19:25:53.339311] [213] RADIO_STATUS
[19:25:53.390392] JAMMING_START
[19:25:54.388595] [226] VFR_HUD
[19:25:54.485554] [214] RADIO
[19:25:54.488433] [214] RADIO_STATUS
[19:25:55.193555] [227] HEARTBEAT
[19:25:55.200523] [228] SYS_STATUS
[19:25:55.384503] [215] RADIO
[19:25:55.387487] [215] RADIO_STATUS
[19:25:56.211715] [233] HEARTBEAT
[19:25:56.330794] [216] RADIO
[19:25:56.333688] [216] RADIO_STATUS
[19:25:57.364869] [217] RADIO
[19:25:57.367759] [217] RADIO_STATUS
[19:25:58.170994] [238] HEARTBEAT
[19:25:58.393945] [218] RADIO
[19:25:58.397018] [218] RADIO_STATUS
[19:25:59.544104] [219] RADIO
[19:25:59.547043] [219] RADIO_STATUS
[19:26:00.019384] [245] VFR_HUD
[19:26:00.463328] [220] RADIO
[19:26:00.466170] [220] RADIO_STATUS
[19:26:00.814318] [247] VFR_HUD
[19:26:01.382539] [221] RADIO
[19:26:01.385378] [221] RADIO_STATUS
[19:26:02.434608] [252] VFR_HUD
[19:26:02.531526] [222] RADIO
[19:26:02.534473] [222] RADIO_STATUS
[19:26:03.239601] [253] HEARTBEAT
[19:26:03.246635] [254] SYS_STATUS
[19:26:03.451639] [223] RADIO
[19:26:03.454625] [223] RADIO_STATUS
[19:26:04.601789] [224] RADIO
[19:26:04.604794] [224] RADIO_STATUS
[19:26:04.853879] [4] VFR_HUD
[19:26:05.416921] [225] RADIO
[19:26:05.419865] [225] RADIO_STATUS
[19:26:05.536918] [7] VFR_HUD
[19:26:06.441083] [226] RADIO
[19:26:06.444038] [226] RADIO_STATUS
[19:26:07.590183] [227] RADIO
[19:26:07.593133] [227] RADIO_STATUS
[19:26:08.510354] [228] RADIO
[19:26:08.512323] [228] RADIO_STATUS
[19:26:08.860411] [17] VFR_HUD
[19:26:09.429538] [229] RADIO
[19:26:09.432458] [229] RADIO_STATUS
[19:26:10.130657] [21] HEARTBEAT
[19:26:10.370584] [22] VFR_HUD
[19:26:10.473625] [230] RADIO
[19:26:10.476863] [230] RADIO_STATUS
[19:26:11.166728] [23] HEARTBEAT
[19:26:11.173781] [24] SYS_STATUS
[19:26:11.296737] [25] BATTERY_STATUS
[19:26:11.298687] [26] EXTENDED_SYS_STATE
[19:26:11.330790] [27] ATTITUDE_TARGET
[19:26:11.335717] [28] VFR_HUD
[19:26:11.338715] [29] SYSTEM_TIME
[19:26:11.498744] [231] RADIO
[19:26:11.501782] [231] RADIO_STATUS
[19:26:12.647917] [232] RADIO
[19:26:12.650840] [232] RADIO_STATUS
[19:26:13.458065] [233] RADIO
[19:26:13.460983] [233] RADIO_STATUS
[19:26:13.578124] [35] VFR_HUD
[19:26:14.487230] [234] RADIO
[19:26:14.490165] [234] RADIO_STATUS
[19:26:15.195471] [38] HEARTBEAT
[19:26:15.202354] [39] SYS_STATUS
[19:26:15.637319] [235] RADIO
[19:26:15.640301] [235] RADIO_STATUS
[19:26:16.213482] [44] HEARTBEAT
[19:26:16.556430] [236] RADIO
[19:26:16.559402] [236] RADIO_STATUS
[19:26:16.906541] [45] VFR_HUD
[19:26:17.475596] [237] RADIO
[19:26:17.478527] [237] RADIO_STATUS
[19:26:18.172686] [49] HEARTBEAT
[19:26:18.625682] [238] RADIO
[19:26:18.628637] [238] RADIO_STATUS
[19:26:19.213932] [51] HEARTBEAT
[19:26:19.220793] [52] SYS_STATUS
[19:26:19.340806] [53] BATTERY_STATUS
[19:26:19.545822] [239] RADIO
[19:26:19.548783] [239] RADIO_STATUS
[19:26:20.464969] [240] RADIO
[19:26:20.468561] [240] RADIO_STATUS
[19:26:21.505117] [241] RADIO
[19:26:21.508051] [241] RADIO_STATUS
[19:26:21.626147] [61] VFR_HUD
[19:26:22.535299] [242] RADIO
[19:26:22.538182] [242] RADIO_STATUS
[19:26:23.245343] [66] BATTERY_STATUS
[19:26:23.685357] [243] RADIO
[19:26:23.688354] [243] RADIO_STATUS
[19:26:23.931543] [69] VFR_HUD
[19:26:24.160424] [70] HEARTBEAT
[19:26:24.604452] [244] RADIO
[19:26:24.607382] [244] RADIO_STATUS
[19:26:25.524599] [245] RADIO
[19:26:25.527677] [245] RADIO_STATUS
[19:26:26.220800] [75] HEARTBEAT
[19:26:26.564811] [246] RADIO
[19:26:26.567840] [246] RADIO_STATUS
[19:26:27.262964] [77] HEARTBEAT
[19:26:27.269867] [78] SYS_STATUS
[19:26:27.383933] [79] BATTERY_STATUS
[19:26:27.595049] [247] RADIO
[19:26:27.596943] [247] RADIO_STATUS
[1] RADIO
[19:25:29.430827] [189] RADIO_STATUS
[19:25:30.123995] [143] HEARTBEAT
[19:25:30.348594] [190] RADIO
[19:25:30.349942] [190] RADIO_STATUS
[19:25:30.385996] [144] VFR_HUD
[19:25:31.267086] [191] RADIO
[19:25:31.270041] [191] RADIO_STATUS
[19:25:31.331177] [147] BATTERY_STATUS
[19:25:31.333017] [148] EXTENDED_SYS_STATE
[19:25:31.340082] [149] ATTITUDE_TARGET
[19:25:31.345797] [150] VFR_HUD
[19:25:31.349035] [151] SYSTEM_TIME
[19:25:32.192236] [153] HEARTBEAT
[19:25:32.306205] [192] RADIO
[19:25:32.309159] [192] RADIO_STATUS
[19:25:33.236366] [155] HEARTBEAT
[19:25:33.244456] [156] ATTITUDE_TARGET
[19:25:33.254350] [193] RADIO
[19:25:33.257287] [193] RADIO_STATUS
[19:25:33.361460] [155] HEARTBEAT
[19:25:33.369378] [156] ATTITUDE_TARGET
[19:25:33.577418] [157] VFR_HUD
[19:25:34.255484] [194] RADIO
[19:25:34.258467] [194] RADIO_STATUS
[19:25:34.376494] [159] VFR_HUD
[19:25:35.404876] [195] RADIO
[19:25:35.407718] [195] RADIO_STATUS
[19:25:36.323758] [196] RADIO
[19:25:36.326721] [196] RADIO_STATUS
[19:25:36.794835] [167] VFR_HUD
[19:25:37.243889] [197] RADIO
[19:25:37.246824] [197] RADIO_STATUS
[19:25:38.169039] [171] HEARTBEAT
[19:25:38.392989] [198] RADIO
[19:25:38.395978] [198] RADIO_STATUS
[19:25:38.431051] [172] VFR_HUD
[19:25:39.312169] [199] RADIO
[19:25:39.315097] [199] RADIO_STATUS
[19:25:39.353267] [175] BATTERY_STATUS
[19:25:39.380230] [176] ATTITUDE_TARGET
[19:25:39.385332] [177] VFR_HUD
[19:25:40.122282] [178] VFR_HUD
[19:25:40.129361] [179] HEARTBEAT
[19:25:40.462441] [200] RADIO
[19:25:40.465498] [200] RADIO_STATUS
[19:25:41.276454] [201] RADIO
[19:25:41.279445] [201] RADIO_STATUS
[19:25:41.627536] [183] VFR_HUD
[19:25:42.300608] [202] RADIO
[19:25:42.303625] [202] RADIO_STATUS
[19:25:42.420667] [185] VFR_HUD
[19:25:43.450510] [203] RADIO
[19:25:43.452833] [203] RADIO_STATUS
[19:25:43.593881] [188] BATTERY_STATUS
[19:25:43.602402] [189] ATTITUDE_TARGET
[19:25:43.631890] [190] VFR_HUD
[19:25:44.369950] [204] RADIO
[19:25:44.372903] [204] RADIO_STATUS
[19:25:44.841056] [193] VFR_HUD
[19:35:22.436372] JAMMING_STOP
] [149] VFR_HUD
[19:26:48.745943] [12] RADIO
[19:26:48.748907] [12] RADIO_STATUS
[19:26:49.226039] [152] HEARTBEAT
[19:26:49.233028] [153] ATTITUDE_TARGET
[19:26:49.665012] [13] RADIO
[19:26:49.667963] [13] RADIO_STATUS
[19:26:50.366226] [156] VFR_HUD
[19:26:50.590170] [14] RADIO
[19:26:50.593129] [14] RADIO_STATUS
[19:26:51.421365] [159] BATTERY_STATUS
[19:26:51.423270] [160] EXTENDED_SYS_STATE
[19:26:51.431333] [161] ATTITUDE_TARGET
[19:26:51.436371] [162] VFR_HUD
[19:26:51.439312] [163] SYSTEM_TIME
[19:26:51.734349] [15] RADIO
[19:26:51.737339] [15] RADIO_STATUS
[19:26:52.654482] [16] RADIO
[19:26:52.657486] [16] RADIO_STATUS
[19:26:53.139586] [167] HEARTBEAT
[19:26:53.148791] [168] ATTITUDE_TARGET
[19:26:53.694683] [169] VFR_HUD
[19:26:53.710610] [17] RADIO
[19:26:53.713603] [17] RADIO_STATUS
[19:26:54.723757] [18] RADIO
[19:26:54.726714] [18] RADIO_STATUS
[19:26:55.643858] [19] RADIO
[19:26:55.646859] [19] RADIO_STATUS
[19:26:56.125982] [177] VFR_HUD
[19:26:56.128959] [178] HEARTBEAT
[19:26:56.794089] [20] RADIO
[19:26:56.797072] [20] RADIO_STATUS
[19:26:57.154147] [180] HEARTBEAT
[19:26:57.162075] [181] ATTITUDE_TARGET
[19:26:57.713186] [21] RADIO
[19:26:57.716281] [21] RADIO_STATUS
[19:26:58.414383] [184] VFR_HUD
[19:26:58.633387] [22] RADIO
[19:26:58.636311] [22] RADIO_STATUS
[19:26:59.460486] [188] ATTITUDE_TARGET
[19:26:59.465483] [189] VFR_HUD
[19:26:59.782546] [23] RADIO
[19:26:59.785523] [23] RADIO_STATUS
[19:27:00.034531] [190] VFR_HUD
[19:27:00.702631] [24] RADIO
[19:27:00.705772] [24] RADIO_STATUS
[19:27:00.745819] [192] VFR_HUD
[19:27:01.747787] [25] RADIO
[19:27:01.750782] [25] RADIO_STATUS
[19:27:02.198959] [196] HEARTBEAT
[19:27:02.327847] [197] VFR_HUD
[19:27:02.771922] [26] RADIO
[19:27:02.774964] [26] RADIO_STATUS
[19:27:03.257031] [200] BATTERY_STATUS
[19:27:03.691064] [27] RADIO
[19:27:03.694017] [27] RADIO_STATUS
[19:27:04.042114] [203] VFR_HUD
[19:27:04.158167] [204] HEARTBEAT
[19:27:04.841254] [28] RADIO
[19:27:04.844192] [28] RADIO_STATUS
[19:27:05.201408] [206] HEARTBEAT
[19:27:05.209368] [207] ATTITUDE_TARGET
[19:27:05.552325] [208] VFR_HUD
[19:27:05.653789] [29] RADIO
[19:27:05.653912] [29] RADIO_STATUS
[19:27:06.341436] [210] VFR_HUD
[19:27:06.679481] [30] RADIO
[19:27:06.682483] [30] RADIO_STATUS
[19:27:07.829657] [31] RADIO
[19:27:07.832641] [31] RADIO_STATUS
[19:27:08.749801] [32] RADIO
[19:27:08.752754] [32] RADIO_STATUS
[19:27:09.669919] [33] RADIO
[19:27:09.672814] [33] RADIO_STATUS
[19:27:10.135991] [222] HEARTBEAT
[19:27:10.369957] [223] VFR_HUD
[19:27:10.819016] [34] RADIO
[19:27:10.820989] [34] RADIO_STATUS
[19:27:11.738158] [35] RADIO
[19:27:11.740167] [35] RADIO_STATUS
[19:27:12.088295] [231] VFR_HUD
[19:27:12.204257] [232] HEARTBEAT
[19:27:12.887330] [36] RADIO
[19:27:12.890305] [36] RADIO_STATUS
[19:27:13.807438] [37] RADIO
[19:27:13.810667] [37] RADIO_STATUS
[19:27:14.387627] [238] VFR_HUD
[19:27:14.726595] [38] RADIO
[19:27:14.729576] [38] RADIO_STATUS
[19:27:15.875963] [39] RADIO
[19:27:15.878777] [39] RADIO_STATUS
[19:27:16.795944] [40] RADIO
[19:27:16.798896] [40] RADIO_STATUS
[19:27:17.274968] [247] HEARTBEAT
[19:27:17.282970] [248] ATTITUDE_TARGET
[19:27:17.720992] [41] RADIO
[19:27:17.723976] [41] RADIO_STATUS
[19:27:18.187138] [250] HEARTBEAT
[19:27:18.416133] [251] VFR_HUD
[19:27:18.865313] [42] RADIO
[19:27:18.868130] [42] RADIO_STATUS
[19:27:19.784296] [43] RADIO
[19:27:19.787324] [43] RADIO_STATUS
[19:27:20.265464] [1] VFR_HUD
[19:27:20.268457] [2] HEARTBEAT
[19:27:20.933503] [44] RADIO
[19:27:20.936448] [44] RADIO_STATUS
[19:27:21.853699] [45] RADIO
[19:27:21.856579] [45] RADIO_STATUS
[19:27:22.434267] [8] VFR_HUD
[19:27:22.772811] [46] RADIO
[19:27:22.775766] [46] RADIO_STATUS
[19:27:23.922940] [47] RADIO
[19:27:23.925878] [47] RADIO_STATUS
[19:27:24.168997] [14] VFR_HUD
[19:27:24.171953] [15] HEARTBEAT
[19:27:24.733051] [16] VFR_HUD
[19:27:24.765120] [48] RADIO
[19:27:24.768018] [48] RADIO_STATUS
[19:27:25.762328] [49] RADIO
[19:27:25.765171] [49] RADIO_STATUS
[19:27:26.911334] [50] RADIO
[19:27:26.914320] [50] RADIO_STATUS
[19:27:27.830588] [51] RADIO
[19:27:27.833438] [51] RADIO_STATUS
[19:27:28.177597] [28] HEARTBEAT
[19:27:28.980724] [52] RADIO
[19:27:28.984039] [52] RADIO_STATUS
[19:27:29.340807] [30] HEARTBEAT
[19:27:29.347797] [31] ATTITUDE_TARGET
[19:27:29.899852] [53] RADIO
[19:27:29.902827] [53] RADIO_STATUS
[19:27:30.480909] [34] VFR_HUD
[19:27:30.820112] [54] RADIO
[19:27:30.822994] [54] RADIO_STATUS
[19:27:31.970137] [55] RADIO
[19:27:31.972111] [55] RADIO_STATUS
[19:27:32.008192] [42] VFR_HUD
[19:27:32.780379] [44] VFR_HUD
[19:27:32.807402] [56] RADIO
[19:27:32.810333] [56] RADIO_STATUS
[19:27:33.809368] [57] RADIO
[19:27:33.812368] [57] RADIO_STATUS
[19:27:34.958535] [58] RADIO
[19:27:34.961609] [58] RADIO_STATUS
[19:27:35.206684] [50] HEARTBEAT
[19:27:35.213823] [51] SYS_STATUS
[19:27:35.878679] [59] RADIO
[19:27:35.881682] [59] RADIO_STATUS
[19:27:36.224769] [56] HEARTBEAT
[19:27:36.809966] [57] VFR_HUD
[19:27:37.031955] [60] RADIO
[19:27:37.034853] [60] RADIO_STATUS
[19:27:37.947987] [61] RADIO
[19:27:37.950983] [61] RADIO_STATUS
[19:27:38.868140] [62] RADIO
[19:27:38.871219] [62] RADIO_STATUS
[19:27:39.109258] [63] HEARTBEAT
[19:27:40.017323] [63] RADIO
[19:27:40.020384] [63] RADIO_STATUS
[19:27:40.828434] [70] VFR_HUD
[19:27:40.839428] [64] RADIO
[19:27:40.842518] [64] RADIO_STATUS
[19:27:41.857541] [65] RADIO
[19:27:41.860497] [65] RADIO_STATUS
[19:27:42.327651] [75] VFR_HUD
[19:27:43.006721] [66] RADIO
[19:27:43.009670] [66] RADIO_STATUS
[19:27:43.134961] [76] HEARTBEAT
[19:27:43.141756] [77] SYS_STATUS
[19:27:43.261776] [78] BATTERY_STATUS
[19:27:43.925855] [67] RADIO
[19:27:43.928832] [67] RADIO_STATUS
[19:27:44.845016] [68] RADIO
[19:27:44.847976] [68] RADIO_STATUS
[19:27:45.546101] [86] VFR_HUD
[19:27:45.995148] [69] RADIO
[19:27:45.998146] [69] RADIO_STATUS
[19:27:46.914276] [70] RADIO
[19:27:46.917340] [70] RADIO_STATUS
[19:27:48.064427] [71] RADIO
[19:27:48.067417] [71] RADIO_STATUS
[19:27:48.890582] [72] RADIO
[19:27:48.893552] [72] RADIO_STATUS
[19:27:49.463757] [97] HEARTBEAT
[19:27:49.471656] [98] ATTITUDE_TARGET
[19:27:49.903745] [73] RADIO
[19:27:49.906651] [73] RADIO_STATUS
[19:27:50.139840] [100] HEARTBEAT
[19:27:50.379776] [101] VFR_HUD
[19:27:51.053989] [74] RADIO
[19:27:51.057202] [74] RADIO_STATUS
[19:27:51.181932] [102] HEARTBEAT
[19:27:51.189309] [103] SYS_STATUS
[19:27:51.344958] [106] ATTITUDE_TARGET
[19:27:51.349966] [107] VFR_HUD
[19:27:51.353893] [108] SYSTEM_TIME
[19:27:51.973022] [75] RADIO
[19:27:51.975984] [75] RADIO_STATUS
[19:27:52.320221] [110] HEARTBEAT
[19:27:52.893099] [76] RADIO
[19:27:52.896247] [76] RADIO_STATUS
[19:27:53.594228] [114] VFR_HUD
[19:27:54.042344] [77] RADIO
[19:27:54.045324] [77] RADIO_STATUS
[19:27:54.962409] [78] RADIO
[19:27:54.965404] [78] RADIO_STATUS
[19:27:56.111772] [79] RADIO
[19:27:56.114609] [79] RADIO_STATUS
[19:27:56.922776] [124] VFR_HUD
[19:27:56.954949] [80] RADIO
[19:27:56.957674] [80] RADIO_STATUS
[19:27:57.951848] [81] RADIO
[19:27:57.954781] [81] RADIO_STATUS
[19:27:58.188010] [128] HEARTBEAT
[19:27:58.427006] [129] VFR_HUD
[19:27:59.100039] [82] RADIO
[19:27:59.103000] [82] RADIO_STATUS
[19:27:59.229109] [130] HEARTBEAT
[19:27:59.235094] [131] SYS_STATUS
[19:27:59.350127] [132] BATTERY_STATUS
[19:28:00.020292] [83] RADIO
[19:28:00.023179] [83] RADIO_STATUS
[19:28:00.939497] [84] RADIO
[19:28:00.942339] [84] RADIO_STATUS
[19:28:01.520485] [140] VFR_HUD
[19:28:01.979512] [85] RADIO
[19:28:01.982484] [85] RADIO_STATUS
[19:28:03.008666] [86] RADIO
[19:28:03.011618] [86] RADIO_STATUS
[19:28:03.258750] [145] BATTERY_STATUS
[19:28:03.938762] [148] VFR_HUD
[19:28:04.047812] [87] RADIO
[19:28:04.050760] [87] RADIO_STATUS
[19:28:04.178770] [149] HEARTBEAT
[19:28:04.967893] [88] RADIO
[19:28:04.970939] [88] RADIO_STATUS
[19:28:05.559984] [153] VFR_HUD
[19:28:05.997005] [89] RADIO
[19:28:05.999928] [89] RADIO_STATUS
[19:28:06.238020] [154] HEARTBEAT
[19:28:07.150144] [90] RADIO
[19:28:07.153126] [90] RADIO_STATUS
[19:28:07.284885] [159] ATTITUDE_TARGET
[19:28:07.288156] [160] VFR_HUD
[19:28:08.066265] [91] RADIO
[19:28:08.069319] [91] RADIO_STATUS
[19:28:08.986377] [92] RADIO
[19:28:08.989396] [92] RADIO_STATUS
[19:28:09.566539] [166] VFR_HUD
[19:28:10.135693] [93] RADIO
[19:28:10.138572] [93] RADIO_STATUS
[19:28:10.178570] [167] HEARTBEAT
[19:28:11.055701] [94] RADIO
[19:28:11.058701] [94] RADIO_STATUS
[19:28:11.312832] [171] BATTERY_STATUS
[19:28:11.314736] [172] EXTENDED_SYS_STATE
[19:28:11.984909] [176] VFR_HUD
[19:28:12.203881] [95] RADIO
[19:28:12.206879] [95] RADIO_STATUS
[19:28:12.246994] [177] HEARTBEAT
[19:28:13.014051] [96] RADIO
[19:28:13.017033] [96] RADIO_STATUS
[19:28:13.144083] [179] HEARTBEAT
[19:28:13.152124] [180] ATTITUDE_TARGET
[19:28:13.594099] [181] VFR_HUD
[19:28:14.043158] [97] RADIO
[19:28:14.046076] [97] RADIO_STATUS
[19:28:14.160163] [182] HEARTBEAT
[19:28:15.193342] [98] RADIO
[19:28:15.196696] [98] RADIO_STATUS
[19:28:15.321423] [184] HEARTBEAT
[19:28:15.328334] [185] SYS_STATUS
[19:28:15.448426] [186] BATTERY_STATUS
[19:28:16.112431] [99] RADIO
[19:28:16.115444] [99] RADIO_STATUS
[19:28:17.032608] [100] RADIO
[19:28:17.035527] [100] RADIO_STATUS
[19:28:17.624723] [194] VFR_HUD
[19:28:18.181665] [101] RADIO
[19:28:18.184678] [101] RADIO_STATUS
[19:28:19.100812] [102] RADIO
[19:28:19.103850] [102] RADIO_STATUS
[19:28:19.350984] [199] BATTERY_STATUS
[19:28:20.021318] [103] RADIO
[19:28:20.023974] [103] RADIO_STATUS
[19:28:20.058982] [202] VFR_HUD
[19:28:21.066105] [104] RADIO
[19:28:21.069066] [104] RADIO_STATUS
[19:28:21.190232] [205] HEARTBEAT
[19:28:21.198181] [206] ATTITUDE_TARGET
[19:28:22.094306] [105] RADIO
[19:28:22.097295] [105] RADIO_STATUS
[19:28:22.331367] [209] VFR_HUD
[19:28:23.240419] [106] RADIO
[19:28:23.243377] [106] RADIO_STATUS
[19:28:23.383484] [212] BATTERY_STATUS
[19:28:23.391443] [213] ATTITUDE_TARGET
[19:28:23.421469] [214] VFR_HUD
[19:28:23.940527] [215] VFR_HUD
[19:28:24.159577] [107] RADIO
[19:28:24.162583] [107] RADIO_STATUS
[19:28:25.079760] [108] RADIO
[19:28:25.082754] [108] RADIO_STATUS
[19:28:25.113779] [218] HEARTBEAT
[19:28:25.659852] [220] VFR_HUD
[19:28:26.229862] [109] RADIO
[19:28:26.232971] [109] RADIO_STATUS
[19:28:27.149010] [110] RADIO
[19:28:27.151935] [110] RADIO_STATUS
[19:28:27.960186] [228] VFR_HUD
[19:28:28.069237] [111] RADIO
[19:28:28.072247] [111] RADIO_STATUS
[19:28:28.103157] [229] HEARTBEAT
[19:28:29.106259] [231] HEARTBEAT
[19:28:29.129345] [232] ATTITUDE_TARGET
[19:28:29.219206] [112] RADIO
[19:28:29.222245] [112] RADIO_STATUS
[19:28:30.138383] [113] RADIO
[19:28:30.141369] [113] RADIO_STATUS
[19:28:30.379510] [235] VFR_HUD
[19:28:31.287550] [114] RADIO
[19:28:31.290501] [114] RADIO_STATUS
[19:28:32.207746] [115] RADIO
[19:28:32.210647] [115] RADIO_STATUS
[19:28:33.126886] [116] RADIO
[19:28:33.129821] [116] RADIO_STATUS
[19:28:34.173106] [249] HEARTBEAT
[19:28:34.276940] [117] RADIO
[19:28:34.280177] [117] RADIO_STATUS
[19:28:35.197114] [118] RADIO
[19:28:35.200111] [118] RADIO_STATUS
[19:28:36.007274] [0] VFR_HUD
[19:28:36.116353] [119] RADIO
[19:28:36.119342] [119] RADIO_STATUS
[19:28:37.165389] [3] HEARTBEAT
[19:28:37.173430] [4] ATTITUDE_TARGET
[19:28:37.265371] [120] RADIO
[19:28:37.268419] [120] RADIO_STATUS
[19:28:38.185516] [121] RADIO
[19:28:38.188509] [121] RADIO_STATUS
[19:28:38.301593] [6] HEARTBEAT
[19:28:38.324552] [7] VFR_HUD
[19:28:39.105637] [122] RADIO
[19:28:39.108622] [122] RADIO_STATUS
[19:28:39.472752] [11] ATTITUDE_TARGET
[19:28:39.477737] [12] VFR_HUD
[19:28:40.254796] [123] RADIO
[19:28:40.257766] [123] RADIO_STATUS
[19:28:40.736891] [15] VFR_HUD
[19:28:41.174148] [124] RADIO
[19:28:41.176936] [124] RADIO_STATUS
[19:28:42.323096] [125] RADIO
[19:28:42.326074] [125] RADIO_STATUS
[19:28:42.373966] [20] VFR_HUD
[19:28:43.243257] [126] RADIO
[19:28:43.246267] [126] RADIO_STATUS
[19:28:44.165352] [127] RADIO_STATUS
[19:28:45.212631] [29] HEARTBEAT
[19:28:45.220545] [30] ATTITUDE_TARGET
[19:28:45.230610] [128] RADIO
[19:28:45.233543] [128] RADIO_STATUS
[19:28:45.557615] [31] VFR_HUD
[19:28:46.231942] [129] RADIO
[19:28:46.233824] [129] RADIO_STATUS
[19:28:46.351728] [33] VFR_HUD
[19:28:47.155811] [130] RADIO
[19:28:47.158827] [130] RADIO_STATUS
[19:28:48.299995] [131] RADIO
[19:28:48.302964] [131] RADIO_STATUS
[19:28:48.771131] [41] VFR_HUD
[19:28:49.159147] [132] RADIO
[19:28:49.162320] [132] RADIO_STATUS
[19:28:50.151364] [45] HEARTBEAT
[19:28:50.264263] [133] RADIO
[19:28:50.267216] [133] RADIO_STATUS
[19:28:50.391446] [46] VFR_HUD
[19:28:51.288513] [134] RADIO
[19:28:51.292790] [134] RADIO_STATUS
[19:28:52.208564] [135] RADIO
[19:28:52.211617] [135] RADIO_STATUS
[19:28:52.253655] [54] VFR_HUD
[19:28:52.255648] [55] HEARTBEAT
[19:28:53.251778] [136] RADIO
[19:28:53.254765] [136] RADIO_STATUS
[19:28:54.276989] [137] RADIO
[19:28:54.278871] [137] RADIO_STATUS
[19:28:54.396985] [61] VFR_HUD
[19:28:55.196028] [138] RADIO
[19:28:55.199016] [138] RADIO_STATUS
[19:28:56.122220] [68] HEARTBEAT
[19:28:56.346322] [139] RADIO
[19:28:56.349329] [139] RADIO_STATUS
[19:28:56.822305] [69] VFR_HUD
[19:28:57.265371] [140] RADIO
[19:28:57.268359] [140] RADIO_STATUS
[19:28:57.313380] [70] HEARTBEAT
[19:28:57.320338] [71] ATTITUDE_TARGET
[19:28:58.206468] [73] HEARTBEAT
[19:28:58.415488] [141] RADIO
[19:28:58.418452] [141] RADIO_STATUS
[19:28:59.123680] [75] HEARTBEAT
[19:28:59.131324] [76] SYS_STATUS
[19:28:59.334641] [142] RADIO
[19:28:59.337643] [142] RADIO_STATUS
[19:29:00.140991] [81] HEARTBEAT
[19:29:00.254794] [143] RADIO
[19:29:00.257714] [143] RADIO_STATUS
[19:29:00.736898] [82] VFR_HUD
[19:29:01.304006] [83] HEARTBEAT
[19:29:01.311951] [84] ATTITUDE_TARGET
[19:29:01.403978] [144] RADIO
[19:29:01.407185] [144] RADIO_STATUS
[19:29:02.324110] [145] RADIO
[19:29:02.327085] [145] RADIO_STATUS
[19:29:02.445203] [87] VFR_HUD
[19:29:03.243270] [146] RADIO
[19:29:03.246231] [146] RADIO_STATUS
[19:29:03.949394] [93] VFR_HUD
[19:29:04.179377] [94] HEARTBEAT
[19:29:04.393384] [147] RADIO
[19:29:04.396406] [147] RADIO_STATUS
[19:29:04.744427] [95] VFR_HUD
[19:29:05.312503] [148] RADIO
[19:29:05.315515] [148] RADIO_STATUS
[19:29:06.462710] [149] RADIO
[19:29:06.465748] [149] RADIO_STATUS
[19:29:07.169828] [101] HEARTBEAT
[19:29:07.176846] [102] SYS_STATUS
[19:29:07.355819] [150] RADIO
[19:29:07.358755] [150] RADIO_STATUS
[19:29:08.187906] [107] HEARTBEAT
[19:29:08.301905] [151] RADIO
[19:29:08.304863] [151] RADIO_STATUS
[19:29:09.451122] [152] RADIO
[19:29:09.454114] [152] RADIO_STATUS
[19:29:10.371212] [153] RADIO
[19:29:10.374303] [153] RADIO_STATUS
[19:29:10.492278] [113] VFR_HUD
[19:29:11.290369] [154] RADIO
[19:29:11.293372] [154] RADIO_STATUS
[19:29:12.440488] [155] RADIO
[19:29:12.443494] [155] RADIO_STATUS
[19:29:12.790644] [123] VFR_HUD
[19:29:13.177656] [124] HEARTBEAT
[19:29:13.184556] [125] ATTITUDE_TARGET
[19:29:13.359625] [156] RADIO
[19:29:13.362565] [156] RADIO_STATUS
[19:29:14.508776] [157] RADIO
[19:29:14.511751] [157] RADIO_STATUS
[19:29:15.222917] [129] HEARTBEAT
[19:29:15.228850] [130] SYS_STATUS
[19:29:15.268926] [131] BATTERY_STATUS
[19:29:15.276873] [132] ATTITUDE_TARGET
[19:29:15.281833] [133] VFR_HUD
[19:29:15.323871] [158] RADIO
[19:29:15.326833] [158] RADIO_STATUS
[19:29:16.245006] [134] VFR_HUD
[19:29:16.248021] [135] HEARTBEAT
[19:29:16.349042] [159] RADIO
[19:29:16.350939] [159] RADIO_STATUS
[19:29:17.393121] [160] RADIO
[19:29:17.396089] [160] RADIO_STATUS
[19:29:18.418289] [161] RADIO
[19:29:18.421268] [161] RADIO_STATUS
[19:29:19.337417] [162] RADIO
[19:29:19.340433] [162] RADIO_STATUS
[19:29:20.487636] [163] RADIO
[19:29:20.490564] [163] RADIO_STATUS
[19:29:20.837763] [149] VFR_HUD
[19:29:21.407080] [164] RADIO
[19:29:21.409773] [164] RADIO_STATUS
[19:29:22.119972] [153] HEARTBEAT
[19:29:22.556879] [165] RADIO
[19:29:22.558874] [165] RADIO_STATUS
[19:29:23.145063] [155] HEARTBEAT
[19:29:23.151017] [156] SYS_STATUS
[19:29:23.271032] [157] BATTERY_STATUS
[19:29:23.476188] [166] RADIO
[19:29:23.479027] [166] RADIO_STATUS
[19:29:24.395170] [167] RADIO
[19:29:24.398153] [167] RADIO_STATUS
[19:29:25.434411] [168] RADIO
[19:29:25.437586] [168] RADIO_STATUS
[19:29:25.555416] [165] VFR_HUD
[19:29:26.464555] [169] RADIO
[19:29:26.467433] [169] RADIO_STATUS
[19:29:27.172678] [168] HEARTBEAT
[19:29:27.179636] [169] SYS_STATUS
[19:29:27.383699] [170] RADIO
[19:29:27.386588] [170] RADIO_STATUS
[19:29:28.533720] [171] RADIO
[19:29:28.536644] [171] RADIO_STATUS
[19:29:29.452809] [172] RADIO
[19:29:29.455753] [172] RADIO_STATUS
[19:29:30.148964] [179] HEARTBEAT
[19:29:30.388913] [180] VFR_HUD
[19:29:30.602971] [173] RADIO
[19:29:30.605914] [173] RADIO_STATUS
[19:29:31.316044] [183] BATTERY_STATUS
[19:29:31.318026] [184] EXTENDED_SYS_STATE
[19:29:31.523046] [174] RADIO
[19:29:31.525990] [174] RADIO_STATUS
[19:29:32.443141] [175] RADIO
[19:29:32.446125] [175] RADIO_STATUS
[19:29:33.482271] [176] RADIO
[19:29:33.485319] [176] RADIO_STATUS
[19:29:33.608399] [193] VFR_HUD
[19:29:34.511418] [177] RADIO
[19:29:34.514519] [177] RADIO_STATUS
[19:29:35.431626] [178] RADIO
[19:29:35.434544] [178] RADIO_STATUS
[19:29:36.142765] [202] HEARTBEAT
[19:29:36.581805] [179] RADIO
[19:29:36.583870] [179] RADIO_STATUS
[19:29:36.931851] [203] VFR_HUD
[19:29:37.500881] [180] RADIO
[19:29:37.503848] [180] RADIO_STATUS
[19:29:37.539939] [206] VFR_HUD
[19:29:38.202212] [207] HEARTBEAT
[19:29:38.421000] [181] RADIO
[19:29:38.423950] [181] RADIO_STATUS
[19:29:39.570239] [182] RADIO
[19:29:39.573183] [182] RADIO_STATUS
[19:29:39.639224] [211] BATTERY_STATUS
[19:29:39.646219] [212] ATTITUDE_TARGET
[19:29:39.651194] [213] VFR_HUD
[19:29:40.491333] [183] RADIO
[19:29:40.494423] [183] RADIO_STATUS
[19:29:40.737445] [216] VFR_HUD
[19:29:41.531562] [219] VFR_HUD
[19:29:41.558497] [184] RADIO
[19:29:41.561664] [184] RADIO_STATUS
[19:29:42.106622] [220] HEARTBEAT
[19:29:42.560585] [185] RADIO
[19:29:42.563606] [185] RADIO_STATUS
[19:29:43.479782] [186] RADIO
[19:29:43.482772] [186] RADIO_STATUS
[19:29:43.950863] [227] VFR_HUD
[19:29:44.180949] [228] HEARTBEAT
[19:29:44.630001] [187] RADIO
[19:29:44.633184] [187] RADIO_STATUS
[19:29:45.344109] [230] HEARTBEAT
[19:29:45.352065] [231] ATTITUDE_TARGET
[19:29:45.549106] [188] RADIO
[19:29:45.552033] [188] RADIO_STATUS
[19:29:46.134255] [233] HEARTBEAT
[19:29:46.469902] [189] RADIO
[19:29:46.471259] [189] RADIO_STATUS
[19:29:47.302509] [237] BATTERY_STATUS
[19:29:47.309397] [238] ATTITUDE_TARGET
[19:29:47.340411] [239] VFR_HUD
[19:29:47.618448] [190] RADIO
[19:29:47.621439] [190] RADIO_STATUS
[19:29:48.537563] [191] RADIO
[19:29:48.540492] [191] RADIO_STATUS
[19:29:48.783615] [242] VFR_HUD
[19:29:49.577735] [245] VFR_HUD
[19:29:49.609725] [192] RADIO
[19:29:49.612673] [192] RADIO_STATUS
[19:29:50.152823] [246] HEARTBEAT
[19:29:50.606954] [193] RADIO
[19:29:50.609905] [193] RADIO_STATUS
[19:29:51.526096] [194] RADIO
[19:29:51.528967] [194] RADIO_STATUS
[19:29:52.002074] [255] VFR_HUD
[19:29:52.676562] [195] RADIO
[19:29:52.679099] [195] RADIO_STATUS
[19:29:53.156219] [2] HEARTBEAT
[19:29:53.163681] [3] ATTITUDE_TARGET
[19:29:53.595209] [196] RADIO
[19:29:53.598197] [196] RADIO_STATUS
[19:29:54.171461] [5] HEARTBEAT
[19:29:54.514444] [197] RADIO
[19:29:54.517371] [197] RADIO_STATUS
[19:29:55.347553] [9] BATTERY_STATUS
[19:29:55.355451] [10] ATTITUDE_TARGET
[19:29:55.385483] [11] VFR_HUD
[19:29:55.664643] [198] RADIO
[19:29:55.667484] [198] RADIO_STATUS
[19:29:56.583802] [199] RADIO
[19:29:56.586645] [199] RADIO_STATUS
[19:29:56.824712] [14] VFR_HUD
[19:29:57.623863] [17] VFR_HUD
[19:29:57.634781] [200] RADIO
[19:29:57.637953] [200] RADIO_STATUS
[19:29:58.198961] [18] HEARTBEAT
[19:29:58.652946] [201] RADIO
[19:29:58.655904] [201] RADIO_STATUS
[19:29:59.136018] [20] HEARTBEAT
[19:29:59.142997] [21] SYS_STATUS
[19:29:59.572044] [202] RADIO
[19:29:59.575001] [202] RADIO_STATUS
[19:29:59.923167] [25] VFR_HUD
[19:30:00.722184] [203] RADIO
[19:30:00.725103] [203] RADIO_STATUS
[19:30:01.229296] [28] HEARTBEAT
[19:30:01.237232] [29] ATTITUDE_TARGET
[19:30:01.559286] [204] RADIO
[19:30:01.562261] [204] RADIO_STATUS
[19:30:02.342455] [32] VFR_HUD
[19:30:02.561443] [205] RADIO
[19:30:02.564503] [205] RADIO_STATUS
[19:30:03.388624] [36] ATTITUDE_TARGET
[19:30:03.393569] [37] VFR_HUD
[19:30:03.709711] [206] RADIO
[19:30:03.712590] [206] RADIO_STATUS
[19:30:03.949697] [38] VFR_HUD
[19:30:04.629734] [207] RADIO
[19:30:04.631804] [207] RADIO_STATUS
[19:30:05.669939] [43] VFR_HUD
[19:30:05.698326] [208] RADIO
[19:30:05.699938] [208] RADIO_STATUS
[19:30:06.698079] [209] RADIO
[19:30:06.701050] [209] RADIO_STATUS
[19:30:07.618215] [210] RADIO
[19:30:07.621156] [210] RADIO_STATUS
[19:30:07.968374] [51] VFR_HUD
[19:30:08.767354] [211] RADIO
[19:30:08.770466] [211] RADIO_STATUS
[19:30:09.127497] [54] HEARTBEAT
[19:30:09.136100] [55] ATTITUDE_TARGET
[19:30:09.687463] [212] RADIO
[19:30:09.690428] [212] RADIO_STATUS
[19:30:10.392572] [58] VFR_HUD
[19:30:10.606684] [213] RADIO
[19:30:10.609517] [213] RADIO_STATUS
[19:30:11.443748] [61] BATTERY_STATUS
[19:30:11.445673] [62] EXTENDED_SYS_STATE
[19:30:11.452870] [63] ATTITUDE_TARGET
[19:30:11.457679] [64] VFR_HUD
[19:30:11.461761] [65] SYSTEM_TIME
[19:30:11.756769] [214] RADIO
[19:30:11.759764] [214] RADIO_STATUS
[19:30:12.675893] [215] RADIO
[19:30:12.678845] [215] RADIO_STATUS
[19:30:13.721090] [216] RADIO
[19:30:13.724043] [216] RADIO_STATUS
[19:30:14.745247] [217] RADIO
[19:30:14.748238] [217] RADIO_STATUS
[19:30:15.665432] [218] RADIO
[19:30:15.668417] [218] RADIO_STATUS
[19:30:16.015469] [79] VFR_HUD
[19:30:16.131504] [80] HEARTBEAT
[19:30:16.814556] [219] RADIO
[19:30:16.817537] [219] RADIO_STATUS
[19:30:17.174582] [82] HEARTBEAT
[19:30:17.185439] [83] ATTITUDE_TARGET
[19:30:17.520628] [84] VFR_HUD
[19:30:17.734627] [220] RADIO
[19:30:17.736669] [220] RADIO_STATUS
[19:30:18.314764] [86] VFR_HUD
[19:30:18.653803] [221] RADIO
[19:30:18.655729] [221] RADIO_STATUS
[19:30:19.480004] [90] ATTITUDE_TARGET
[19:30:19.484954] [91] VFR_HUD
[19:30:19.801017] [222] RADIO
[19:30:19.803950] [222] RADIO_STATUS
[19:30:20.721010] [223] RADIO
[19:30:20.723981] [223] RADIO_STATUS
[19:30:21.645308] [224] RADIO
[19:30:21.648192] [224] RADIO_STATUS
[19:30:22.340298] [99] VFR_HUD
[19:30:22.789415] [225] RADIO
[19:30:22.792286] [225] RADIO_STATUS
[19:30:23.709426] [226] RADIO
[19:30:23.712365] [226] RADIO_STATUS
[19:30:24.180555] [106] HEARTBEAT
[19:30:24.859587] [227] RADIO
[19:30:24.862555] [227] RADIO_STATUS
[19:30:25.221783] [108] HEARTBEAT
[19:30:25.227556] [109] ATTITUDE_TARGET
[19:30:25.564648] [110] VFR_HUD
[19:30:25.778635] [228] RADIO
[19:30:25.781730] [228] RADIO_STATUS
[19:30:26.359814] [112] VFR_HUD
[19:30:26.697842] [229] RADIO
[19:30:26.700743] [229] RADIO_STATUS
[19:30:27.525046] [116] ATTITUDE_TARGET
[19:30:27.529915] [117] VFR_HUD
[19:30:27.847957] [230] RADIO
[19:30:27.850948] [230] RADIO_STATUS
[19:30:28.767052] [231] RADIO
[19:30:28.770057] [231] RADIO_STATUS
[19:30:28.806085] [120] VFR_HUD
[19:30:29.252187] [121] HEARTBEAT
[19:30:29.260196] [122] ATTITUDE_TARGET
[19:30:29.806338] [232] RADIO
[19:30:29.809219] [232] RADIO_STATUS
[19:30:30.167387] [124] HEARTBEAT
[19:30:30.387291] [125] VFR_HUD
[19:30:30.836427] [233] RADIO
[19:30:30.839381] [233] RADIO_STATUS
[19:30:31.755453] [234] RADIO
[19:30:31.758382] [234] RADIO_STATUS
[19:30:32.101593] [134] HEARTBEAT
[19:30:32.905637] [235] RADIO
[19:30:32.908553] [235] RADIO_STATUS
[19:30:33.264755] [136] HEARTBEAT
[19:30:33.272658] [137] ATTITUDE_TARGET
[19:30:33.605691] [138] VFR_HUD
[19:30:33.824720] [236] RADIO
[19:30:33.827651] [236] RADIO_STATUS
[19:30:34.405816] [140] VFR_HUD
[19:30:34.744809] [237] RADIO
[19:30:34.746844] [237] RADIO_STATUS
[19:30:35.894082] [238] RADIO
[19:30:35.896979] [238] RADIO_STATUS
[19:30:35.932066] [146] VFR_HUD
[19:30:36.139083] [147] HEARTBEAT
[19:30:36.813316] [239] RADIO
[19:30:36.816166] [239] RADIO_STATUS
[19:30:36.852116] [148] VFR_HUD
[19:30:37.733268] [240] RADIO
[19:30:37.736270] [240] RADIO_STATUS
[19:30:38.198456] [152] HEARTBEAT
[19:30:38.882408] [241] RADIO
[19:30:38.885414] [241] RADIO_STATUS
[19:30:39.130554] [154] HEARTBEAT
[19:30:39.137558] [155] SYS_STATUS
[19:30:39.802592] [242] RADIO
[19:30:39.805529] [242] RADIO_STATUS
[19:30:40.148719] [160] HEARTBEAT
[19:30:40.732690] [161] VFR_HUD
[19:30:40.951711] [243] RADIO
[19:30:40.954690] [243] RADIO_STATUS
[19:30:41.436786] [162] HEARTBEAT
[19:30:41.444811] [163] ATTITUDE_TARGET
[19:30:41.870874] [244] RADIO
[19:30:41.873793] [244] RADIO_STATUS
[19:30:42.789966] [245] RADIO
[19:30:42.792932] [245] RADIO_STATUS
[19:30:43.939096] [246] RADIO
[19:30:43.942119] [246] RADIO_STATUS
[19:30:43.978190] [172] VFR_HUD
[19:30:44.185145] [173] HEARTBEAT
[19:30:44.750203] [174] VFR_HUD
[19:30:44.782230] [247] RADIO
[19:30:44.785159] [247] RADIO_STATUS
[19:30:45.100583] [175] HEARTBEAT
[19:30:45.337299] [176] ATTITUDE_TARGET
[19:30:45.778426] [248] RADIO
[19:30:45.781455] [248] RADIO_STATUS
[19:30:46.927500] [249] RADIO
[19:30:46.930512] [249] RADIO_STATUS
[19:30:47.181623] [180] HEARTBEAT
[19:30:47.188771] [181] SYS_STATUS
[19:30:47.227542] [182] BATTERY_STATUS
[19:30:47.235541] [183] ATTITUDE_TARGET
[19:30:47.240627] [184] VFR_HUD
[19:30:47.849671] [250] RADIO
[19:30:47.852788] [250] RADIO_STATUS
[19:30:48.205683] [185] VFR_HUD
[19:30:48.208727] [186] HEARTBEAT
[19:30:48.999771] [251] RADIO
[19:30:49.002765] [251] RADIO_STATUS
[19:30:49.358906] [188] HEARTBEAT
[19:30:49.367048] [189] ATTITUDE_TARGET
[19:30:49.918920] [252] RADIO
[19:30:49.921880] [252] RADIO_STATUS
[19:30:50.839055] [253] RADIO
[19:30:50.842000] [253] RADIO_STATUS
[19:30:51.989231] [254] RADIO
[19:30:51.992133] [254] RADIO_STATUS
[19:30:52.799253] [202] VFR_HUD
[19:30:52.827759] [255] RADIO
[19:30:52.829248] [255] RADIO_STATUS
[19:30:53.828638] [0] RADIO
[19:30:53.831395] [0] RADIO_STATUS
[19:30:54.977568] [1] RADIO
[19:30:54.980519] [1] RADIO_STATUS
[19:30:55.119614] [209] SYS_STATUS
[19:30:55.162634] [210] BATTERY_STATUS
[19:30:55.170577] [211] ATTITUDE_TARGET
[19:30:55.175552] [212] VFR_HUD
[19:30:55.898660] [2] RADIO
[19:30:55.901705] [2] RADIO_STATUS
[19:30:56.819002] [3] RADIO
[19:30:56.821867] [3] RADIO_STATUS
[19:30:57.519106] [218] VFR_HUD
[19:30:57.968065] [4] RADIO
[19:30:57.970986] [4] RADIO_STATUS
[19:30:58.887205] [5] RADIO
[19:30:58.890108] [5] RADIO_STATUS
[19:30:59.812265] [6] RADIO
[19:30:59.815250] [6] RADIO_STATUS
[19:31:00.847450] [7] RADIO
[19:31:00.849390] [7] RADIO_STATUS
[19:31:01.206593] [229] HEARTBEAT
[19:31:01.215450] [230] ATTITUDE_TARGET
[19:31:01.876673] [8] RADIO
[19:31:01.879686] [8] RADIO_STATUS
[19:31:02.112754] [232] HEARTBEAT
[19:31:03.025841] [9] RADIO
[19:31:03.028643] [9] RADIO_STATUS
[19:31:03.153918] [234] HEARTBEAT
[19:31:03.160711] [235] SYS_STATUS
[19:31:03.275783] [236] BATTERY_STATUS
[19:31:03.944945] [10] RADIO
[19:31:03.947822] [10] RADIO_STATUS
[19:31:04.864979] [11] RADIO
[19:31:04.867953] [11] RADIO_STATUS
[19:31:05.571074] [244] VFR_HUD
[19:31:06.014200] [12] RADIO
[19:31:06.017061] [12] RADIO_STATUS
[19:31:06.933336] [13] RADIO
[19:31:06.936310] [13] RADIO_STATUS
[19:31:07.760520] [250] ATTITUDE_TARGET
[19:31:07.765443] [251] VFR_HUD
[19:31:08.083973] [14] RADIO
[19:31:08.086559] [14] RADIO_STATUS
[19:31:08.117565] [253] HEARTBEAT
[19:31:08.894631] [254] VFR_HUD
[19:31:08.926608] [15] RADIO
[19:31:08.929594] [15] RADIO_STATUS
[19:31:09.252699] [255] HEARTBEAT
[19:31:09.260680] [0] ATTITUDE_TARGET
[19:31:09.922846] [16] RADIO
[19:31:09.925768] [16] RADIO_STATUS
[19:31:10.163888] [2] HEARTBEAT
[19:31:10.392868] [3] VFR_HUD
[19:31:11.071930] [17] RADIO
[19:31:11.074899] [17] RADIO_STATUS
[19:31:11.191984] [9] VFR_HUD
[19:31:11.201010] [10] SYSTEM_TIME
[19:31:11.991062] [18] RADIO
[19:31:11.993975] [18] RADIO_STATUS
[19:31:12.911173] [19] RADIO
[19:31:12.914355] [19] RADIO_STATUS
[19:31:13.617250] [16] VFR_HUD
[19:31:14.060358] [20] RADIO
[19:31:14.063381] [20] RADIO_STATUS
[19:31:14.980451] [21] RADIO
[19:31:14.983418] [21] RADIO_STATUS
[19:31:15.900545] [22] RADIO
[19:31:15.903504] [22] RADIO_STATUS
[19:31:16.941036] [23] RADIO
[19:31:16.942696] [23] RADIO_STATUS
[19:31:17.304828] [27] HEARTBEAT
[19:31:17.312771] [28] ATTITUDE_TARGET
[19:31:17.969865] [24] RADIO
[19:31:17.972814] [24] RADIO_STATUS
[19:31:18.210926] [30] HEARTBEAT
[19:31:19.119295] [25] RADIO
[19:31:19.121996] [25] RADIO_STATUS
[19:31:19.247045] [32] HEARTBEAT
[19:31:19.254080] [33] SYS_STATUS
[19:31:19.374069] [34] BATTERY_STATUS
[19:31:20.039112] [26] RADIO
[19:31:20.042157] [26] RADIO_STATUS
[19:31:20.745216] [39] VFR_HUD
[19:31:20.958392] [27] RADIO
[19:31:20.961246] [27] RADIO_STATUS
[19:31:21.548405] [40] HEARTBEAT
[19:31:21.556350] [41] ATTITUDE_TARGET
[19:31:21.660423] [42] VFR_HUD
[19:31:22.112411] [28] RADIO
[19:31:22.114549] [28] RADIO_STATUS
[19:31:22.142428] [43] HEARTBEAT
[19:31:23.028511] [29] RADIO
[19:31:23.031488] [29] RADIO_STATUS
[19:31:23.277646] [47] BATTERY_STATUS
[19:31:23.948610] [30] RADIO
[19:31:23.951592] [30] RADIO_STATUS
[19:31:23.986654] [50] VFR_HUD
[19:31:24.193690] [51] HEARTBEAT
[19:31:25.097794] [31] RADIO
[19:31:25.100723] [31] RADIO_STATUS
[19:31:26.016977] [32] RADIO
[19:31:26.019977] [32] RADIO_STATUS
[19:31:26.142981] [56] HEARTBEAT
[19:31:26.937084] [33] RADIO
[19:31:26.939980] [33] RADIO_STATUS
[19:31:27.311141] [60] BATTERY_STATUS
[19:31:27.319140] [61] ATTITUDE_TARGET
[19:31:27.360087] [62] VFR_HUD
[19:31:28.086273] [34] RADIO
[19:31:28.089159] [34] RADIO_STATUS
[19:31:28.798336] [65] VFR_HUD
[19:31:29.006337] [35] RADIO
[19:31:29.009265] [35] RADIO_STATUS
[19:31:29.598586] [68] VFR_HUD
[19:31:30.155506] [36] RADIO
[19:31:30.157469] [36] RADIO_STATUS
[19:31:30.969624] [37] RADIO
[19:31:30.972580] [37] RADIO_STATUS
[19:31:31.994763] [38] RADIO
[19:31:31.997769] [38] RADIO_STATUS
[19:31:32.032892] [78] VFR_HUD
[19:31:33.039905] [39] RADIO
[19:31:33.042865] [39] RADIO_STATUS
[19:31:33.169979] [81] HEARTBEAT
[19:31:33.177922] [82] ATTITUDE_TARGET
[19:31:33.619997] [83] VFR_HUD
[19:31:34.063992] [40] RADIO
[19:31:34.066986] [40] RADIO_STATUS
[19:31:34.983136] [41] RADIO
[19:31:34.986071] [41] RADIO_STATUS
[19:31:36.133318] [42] RADIO
[19:31:36.135218] [42] RADIO_STATUS
[19:31:36.489391] [91] VFR_HUD
[19:31:36.493864] [92] HEARTBEAT
[19:31:37.052433] [43] RADIO
[19:31:37.055438] [43] RADIO_STATUS
[19:31:37.633566] [96] VFR_HUD
[19:31:38.201634] [44] RADIO
[19:31:38.204586] [44] RADIO_STATUS
[19:31:38.235623] [97] HEARTBEAT
[19:31:39.121693] [45] RADIO
[19:31:39.124643] [45] RADIO_STATUS
[19:31:39.932863] [104] VFR_HUD
[19:31:40.041833] [46] RADIO
[19:31:40.044750] [46] RADIO_STATUS
[19:31:41.086958] [47] RADIO
[19:31:41.089920] [47] RADIO_STATUS
[19:31:41.217082] [107] HEARTBEAT
[19:31:41.225062] [108] ATTITUDE_TARGET
[19:31:42.111097] [48] RADIO
[19:31:42.114028] [48] RADIO_STATUS
[19:31:42.227076] [110] HEARTBEAT
[19:31:42.357085] [111] VFR_HUD
[19:31:43.031178] [49] RADIO
[19:31:43.034151] [49] RADIO_STATUS
[19:31:43.404312] [114] BATTERY_STATUS
[19:31:43.412297] [115] ATTITUDE_TARGET
[19:31:43.442289] [116] VFR_HUD
[19:31:43.973327] [117] VFR_HUD
[19:31:44.180745] [50] RADIO
[19:31:44.183311] [50] RADIO_STATUS
[19:31:45.100491] [51] RADIO
[19:31:45.103435] [51] RADIO_STATUS
[19:31:46.136607] [123] HEARTBEAT
[19:31:46.249537] [52] RADIO
[19:31:46.252540] [52] RADIO_STATUS
[19:31:47.059655] [53] RADIO
[19:31:47.062669] [53] RADIO_STATUS
[19:31:47.351738] [129] VFR_HUD
[19:31:47.979913] [130] VFR_HUD
[19:31:48.088840] [54] RADIO
[19:31:48.091801] [54] RADIO_STATUS
[19:31:49.138538] [133] HEARTBEAT
[19:31:49.145980] [134] ATTITUDE_TARGET
[19:31:49.238037] [55] RADIO
[19:31:49.240961] [55] RADIO_STATUS
[19:31:50.157157] [56] RADIO
[19:31:50.160088] [56] RADIO_STATUS
[19:31:50.274168] [136] HEARTBEAT
[19:31:50.403254] [137] VFR_HUD
[19:31:51.077246] [57] RADIO
[19:31:51.080237] [57] RADIO_STATUS
[19:31:51.451394] [142] ATTITUDE_TARGET
[19:31:51.456312] [143] VFR_HUD
[19:31:51.460270] [144] SYSTEM_TIME
[19:31:52.230458] [58] RADIO
[19:31:52.233400] [58] RADIO_STATUS
[19:31:53.146588] [59] RADIO
[19:31:53.149498] [59] RADIO_STATUS
[19:31:53.727658] [150] VFR_HUD
[19:31:54.296718] [60] RADIO
[19:31:54.298641] [60] RADIO_STATUS
[19:31:55.215818] [61] RADIO
[19:31:55.218788] [61] RADIO_STATUS
[19:31:55.256848] [155] BATTERY_STATUS
[19:31:55.283853] [156] ATTITUDE_TARGET
[19:31:55.288799] [157] VFR_HUD
[19:31:56.026909] [158] VFR_HUD
[19:31:56.134938] [62] RADIO
[19:31:56.137905] [62] RADIO_STATUS
[19:31:56.168954] [159] HEARTBEAT
[19:31:57.185192] [161] HEARTBEAT
[19:31:57.193991] [162] ATTITUDE_TARGET
[19:31:57.285025] [63] RADIO
[19:31:57.288072] [63] RADIO_STATUS
[19:31:57.531101] [163] VFR_HUD
[19:31:58.204189] [64] RADIO
[19:31:58.207284] [64] RADIO_STATUS
[19:31:58.325218] [165] VFR_HUD
[19:31:59.124304] [65] RADIO
[19:31:59.127242] [65] RADIO_STATUS
[19:32:00.273428] [66] RADIO
[19:32:00.276447] [66] RADIO_STATUS
[19:32:00.749581] [173] VFR_HUD
[19:32:01.193553] [67] RADIO
[19:32:01.196491] [67] RADIO_STATUS
[19:32:02.123746] [177] HEARTBEAT
[19:32:02.342842] [68] RADIO
[19:32:02.345666] [68] RADIO_STATUS
[19:32:03.261906] [69] RADIO
[19:32:03.264885] [69] RADIO_STATUS
[19:32:04.182075] [70] RADIO
[19:32:04.185081] [70] RADIO_STATUS
[19:32:04.227129] [184] VFR_HUD
[19:32:04.230058] [185] HEARTBEAT
[19:32:05.232190] [187] HEARTBEAT
[19:32:05.240155] [188] ATTITUDE_TARGET
[19:32:05.250127] [71] RADIO
[19:32:05.253127] [71] RADIO_STATUS
[19:32:05.573231] [189] VFR_HUD
[19:32:06.251320] [72] RADIO
[19:32:06.254252] [72] RADIO_STATUS
[19:32:06.372491] [191] VFR_HUD
[19:32:07.176411] [73] RADIO
[19:32:07.177387] [73] RADIO_STATUS
[19:32:08.320638] [74] RADIO
[19:32:08.323612] [74] RADIO_STATUS
[19:32:08.796778] [199] VFR_HUD
[19:32:09.240759] [75] RADIO
[19:32:09.243747] [75] RADIO_STATUS
[19:32:10.166934] [203] HEARTBEAT
[19:32:10.390937] [76] RADIO
[19:32:10.393835] [76] RADIO_STATUS
[19:32:10.439883] [204] VFR_HUD
[19:32:11.308973] [77] RADIO
[19:32:11.311951] [77] RADIO_STATUS
[19:32:12.120104] [212] VFR_HUD
[19:32:12.127070] [213] HEARTBEAT
[19:32:12.229050] [78] RADIO
[19:32:12.232090] [78] RADIO_STATUS
[19:32:13.278301] [215] HEARTBEAT
[19:32:13.286281] [216] ATTITUDE_TARGET
[19:32:13.296294] [79] RADIO
[19:32:13.299235] [79] RADIO_STATUS
[19:32:14.298567] [80] RADIO
[19:32:14.301427] [80] RADIO_STATUS
[19:32:14.420155] [219] VFR_HUD
[19:32:15.217539] [81] RADIO
[19:32:15.220528] [81] RADIO_STATUS
[19:32:16.144685] [226] HEARTBEAT
[19:32:16.367699] [82] RADIO
[19:32:16.370698] [82] RADIO_STATUS
[19:32:16.718757] [227] VFR_HUD
[19:32:17.286763] [83] RADIO
[19:32:17.289749] [83] RADIO_STATUS
[19:32:18.206917] [84] RADIO
[19:32:18.209877] [84] RADIO_STATUS
[19:32:19.150116] [233] HEARTBEAT
[19:32:19.156463] [234] SYS_STATUS
[19:32:19.196051] [235] BATTERY_STATUS
[19:32:19.204057] [236] ATTITUDE_TARGET
[19:32:19.209192] [237] VFR_HUD
[19:32:19.358399] [85] RADIO
[19:32:19.361106] [85] RADIO_STATUS
[19:32:20.174635] [238] VFR_HUD
[19:32:20.177228] [239] HEARTBEAT
[19:32:20.278189] [86] RADIO
[19:32:20.281233] [86] RADIO_STATUS
[19:32:21.317431] [87] RADIO
[19:32:21.320379] [87] RADIO_STATUS
[19:32:22.347545] [88] RADIO
[19:32:22.350809] [88] RADIO_STATUS
[19:32:22.468607] [245] VFR_HUD
[19:32:23.267709] [89] RADIO
[19:32:23.270637] [89] RADIO_STATUS
[19:32:23.967800] [251] VFR_HUD
[19:32:24.197837] [252] HEARTBEAT
[19:32:24.416925] [90] RADIO
[19:32:24.419829] [90] RADIO_STATUS
[19:32:24.767881] [253] VFR_HUD
[19:32:25.336000] [91] RADIO
[19:32:25.338976] [91] RADIO_STATUS
[19:32:26.256105] [92] RADIO
[19:32:26.259074] [92] RADIO_STATUS
[19:32:27.199317] [3] HEARTBEAT
[19:32:27.206260] [4] SYS_STATUS
[19:32:27.245506] [5] BATTERY_STATUS
[19:32:27.253259] [6] ATTITUDE_TARGET
[19:32:27.258324] [7] VFR_HUD
[19:32:27.407274] [93] RADIO
[19:32:27.410319] [93] RADIO_STATUS
[19:32:28.223443] [8] VFR_HUD
[19:32:28.226475] [9] HEARTBEAT
[19:32:28.326457] [94] RADIO
[19:32:28.329495] [94] RADIO_STATUS
[19:32:28.802457] [10] VFR_HUD
[19:32:29.366593] [95] RADIO
[19:32:29.368521] [95] RADIO_STATUS
[19:32:30.395712] [96] RADIO
[19:32:30.398731] [96] RADIO_STATUS
[19:32:31.315865] [97] RADIO
[19:32:31.318783] [97] RADIO_STATUS
[19:32:32.015937] [23] VFR_HUD
[19:32:32.465033] [98] RADIO
[19:32:32.468127] [98] RADIO_STATUS
[19:32:33.175178] [26] HEARTBEAT
[19:32:33.182139] [27] ATTITUDE_TARGET
[19:32:33.384217] [99] RADIO
[19:32:33.387070] [99] RADIO_STATUS
[19:32:34.304229] [100] RADIO
[19:32:34.307224] [100] RADIO_STATUS
[19:32:34.354267] [30] VFR_HUD
[19:32:35.122386] [31] HEARTBEAT
[19:32:35.129454] [32] SYS_STATUS
[19:32:35.244479] [33] BATTERY_STATUS
[19:32:35.454459] [101] RADIO
[19:32:35.457449] [101] RADIO_STATUS
[19:32:36.260616] [37] HEARTBEAT
[19:32:36.373568] [102] RADIO
[19:32:36.377809] [102] RADIO_STATUS
[19:32:37.310650] [103] RADIO
[19:32:37.313607] [103] RADIO_STATUS
[19:32:37.423692] [39] HEARTBEAT
[19:32:37.431659] [40] ATTITUDE_TARGET
[19:32:37.539687] [41] VFR_HUD
[19:32:38.443790] [104] RADIO
[19:32:38.446828] [104] RADIO_STATUS
[19:32:39.362895] [105] RADIO
[19:32:39.365847] [105] RADIO_STATUS
[19:32:40.513104] [106] RADIO
[19:32:40.516089] [106] RADIO_STATUS
[19:32:40.864176] [51] VFR_HUD
[19:32:41.433302] [107] RADIO
[19:32:41.436216] [107] RADIO_STATUS
[19:32:42.134378] [55] HEARTBEAT
[19:32:42.353506] [108] RADIO
[19:32:42.355441] [108] RADIO_STATUS
[19:32:43.292604] [59] BATTERY_STATUS
[19:32:43.502566] [109] RADIO
[19:32:43.505565] [109] RADIO_STATUS
[19:32:44.422824] [110] RADIO
[19:32:44.424668] [110] RADIO_STATUS
[19:32:45.341885] [111] RADIO
[19:32:45.344840] [111] RADIO_STATUS
[19:32:45.588022] [67] VFR_HUD
[19:32:46.492017] [112] RADIO
[19:32:46.495002] [112] RADIO_STATUS
[19:32:47.411189] [113] RADIO
[19:32:47.414246] [113] RADIO_STATUS
[19:32:48.561331] [114] RADIO
[19:32:48.564311] [114] RADIO_STATUS
[19:32:48.911375] [77] VFR_HUD
[19:32:49.481438] [115] RADIO
[19:32:49.484375] [115] RADIO_STATUS
[19:32:50.182790] [81] HEARTBEAT
[19:32:50.401637] [116] RADIO
[19:32:50.403578] [116] RADIO_STATUS
[19:32:51.219735] [83] HEARTBEAT
[19:32:51.226756] [84] SYS_STATUS
[19:32:51.349777] [85] BATTERY_STATUS
[19:32:51.350748] [86] EXTENDED_SYS_STATE
[19:32:51.383772] [87] ATTITUDE_TARGET
[19:32:51.387847] [88] VFR_HUD
[19:32:51.391702] [89] SYSTEM_TIME
[19:32:51.550809] [117] RADIO
[19:32:51.553715] [117] RADIO_STATUS
[19:32:52.470942] [118] RADIO
[19:32:52.473847] [118] RADIO_STATUS
[19:32:52.716928] [92] VFR_HUD
[19:32:53.395036] [119] RADIO
[19:32:53.397997] [119] RADIO_STATUS
[19:32:53.511037] [95] VFR_HUD
[19:32:54.540125] [120] RADIO
[19:32:54.543131] [120] RADIO_STATUS
[19:32:55.249295] [100] BATTERY_STATUS
[19:32:55.459279] [121] RADIO
[19:32:55.462247] [121] RADIO_STATUS
[19:32:55.935390] [103] VFR_HUD
[19:32:56.164555] [104] HEARTBEAT
[19:32:56.608449] [122] RADIO
[19:32:56.611435] [122] RADIO_STATUS
[19:32:57.527514] [123] RADIO
[19:32:57.530531] [123] RADIO_STATUS
[19:32:58.104651] [109] HEARTBEAT
[19:32:58.447668] [124] RADIO
[19:32:58.450640] [124] RADIO_STATUS
[19:32:59.281865] [113] BATTERY_STATUS
[19:32:59.289806] [114] ATTITUDE_TARGET
[19:32:59.319780] [115] VFR_HUD
[19:32:59.597894] [125] RADIO
[19:32:59.600786] [125] RADIO_STATUS
[19:33:00.517945] [126] RADIO
[19:33:00.521002] [126] RADIO_STATUS
[19:33:00.770020] [118] VFR_HUD
[19:33:01.437128] [127] RADIO
[19:33:01.440004] [127] RADIO_STATUS
[19:33:01.558106] [121] VFR_HUD
[19:33:02.586545] [128] RADIO
[19:33:02.589267] [128] RADIO_STATUS
[19:33:03.296372] [126] BATTERY_STATUS
[19:33:03.505282] [129] RADIO
[19:33:03.508282] [129] RADIO_STATUS
[19:33:03.981566] [129] VFR_HUD
[19:33:04.201513] [130] HEARTBEAT
[19:33:04.655518] [130] RADIO
[19:33:04.658423] [130] RADIO_STATUS
[19:33:05.140608] [132] HEARTBEAT
[19:33:05.150436] [133] ATTITUDE_TARGET
[19:33:05.574645] [131] RADIO
[19:33:05.577712] [131] RADIO_STATUS
[19:33:05.624679] [134] VFR_HUD
[19:33:06.150793] [135] HEARTBEAT
[19:33:06.493764] [132] RADIO
[19:33:06.496743] [132] RADIO_STATUS
[19:33:07.312021] [137] HEARTBEAT
[19:33:07.318914] [138] SYS_STATUS
[19:33:07.643931] [133] RADIO
[19:33:07.646989] [133] RADIO_STATUS
[19:33:08.563095] [134] RADIO
[19:33:08.566131] [134] RADIO_STATUS
[19:33:09.483231] [135] RADIO
[19:33:09.486203] [135] RADIO_STATUS
[19:33:09.604272] [147] VFR_HUD
[19:33:10.184316] [148] HEARTBEAT
[19:33:10.633461] [136] RADIO
[19:33:10.636449] [136] RADIO_STATUS
[19:33:11.552496] [137] RADIO
[19:33:11.555457] [137] RADIO_STATUS
[19:33:12.702677] [138] RADIO
[19:33:12.705719] [138] RADIO_STATUS
[19:33:13.187838] [160] HEARTBEAT
[19:33:13.195745] [161] ATTITUDE_TARGET
[19:33:13.622792] [139] RADIO
[19:33:13.624749] [139] RADIO_STATUS
[19:33:14.198960] [163] HEARTBEAT
[19:33:14.327943] [164] VFR_HUD
[19:33:14.542009] [140] RADIO
[19:33:14.544953] [140] RADIO_STATUS
[19:33:15.369078] [168] ATTITUDE_TARGET
[19:33:15.374070] [169] VFR_HUD
[19:33:15.691149] [141] RADIO
[19:33:15.694244] [141] RADIO_STATUS
[19:33:15.932215] [170] VFR_HUD
[19:33:16.157179] [171] HEARTBEAT
[19:33:16.611207] [142] RADIO
[19:33:16.614173] [142] RADIO_STATUS
[19:33:17.530448] [143] RADIO
[19:33:17.533309] [143] RADIO_STATUS
[19:33:17.651398] [175] VFR_HUD
[19:33:18.679744] [144] RADIO
[19:33:18.682491] [144] RADIO_STATUS
[19:33:19.599616] [145] RADIO
[19:33:19.602591] [145] RADIO_STATUS
[19:33:19.950674] [183] VFR_HUD
[19:33:20.749814] [146] RADIO
[19:33:20.751744] [146] RADIO_STATUS
[19:33:21.095958] [186] HEARTBEAT
[19:33:21.227940] [187] ATTITUDE_TARGET
[19:33:21.668986] [147] RADIO
[19:33:21.671951] [147] RADIO_STATUS
[19:33:22.245082] [189] HEARTBEAT
[19:33:22.375074] [190] VFR_HUD
[19:33:22.590105] [148] RADIO
[19:33:22.592116] [148] RADIO_STATUS
[19:33:23.422393] [193] BATTERY_STATUS
[19:33:23.430266] [194] ATTITUDE_TARGET
[19:33:23.460210] [195] VFR_HUD
[19:33:23.738264] [149] RADIO
[19:33:23.741289] [149] RADIO_STATUS
[19:33:23.984346] [196] VFR_HUD
[19:33:24.658473] [150] RADIO
[19:33:24.661422] [150] RADIO_STATUS
[19:33:25.577602] [151] RADIO
[19:33:25.580459] [151] RADIO_STATUS
[19:33:25.698529] [201] VFR_HUD
[19:33:26.726640] [152] RADIO
[19:33:26.729602] [152] RADIO_STATUS
[19:33:27.204746] [204] HEARTBEAT
[19:33:27.211815] [205] SYS_STATUS
[19:33:27.647105] [153] RADIO
[19:33:27.648877] [153] RADIO_STATUS
[19:33:27.996828] [209] VFR_HUD
[19:33:28.117085] [210] HEARTBEAT
[19:33:28.794926] [154] RADIO
[19:33:28.797907] [154] RADIO_STATUS
[19:33:29.155215] [212] HEARTBEAT
[19:33:29.163100] [213] ATTITUDE_TARGET
[19:33:29.715084] [155] RADIO
[19:33:29.718083] [155] RADIO_STATUS
[19:33:30.415185] [216] VFR_HUD
[19:33:30.635242] [156] RADIO
[19:33:30.637193] [156] RADIO_STATUS
[19:33:31.680482] [157] RADIO
[19:33:31.682457] [157] RADIO_STATUS
[19:33:32.599572] [158] RADIO
[19:33:32.602546] [158] RADIO_STATUS
[19:33:32.720610] [226] VFR_HUD
[19:33:33.211617] [227] HEARTBEAT
[19:33:33.219699] [228] ATTITUDE_TARGET
[19:33:33.623669] [159] RADIO
[19:33:33.626642] [159] RADIO_STATUS
[19:33:34.094803] [230] HEARTBEAT
[19:33:34.323773] [231] VFR_HUD
[19:33:34.772827] [160] RADIO
[19:33:34.775811] [160] RADIO_STATUS
[19:33:35.692018] [161] RADIO
[19:33:35.694953] [161] RADIO_STATUS
[19:33:36.043130] [237] VFR_HUD
[19:33:36.164109] [238] HEARTBEAT
[19:33:36.612131] [162] RADIO
[19:33:36.615185] [162] RADIO_STATUS
[19:33:37.202212] [240] HEARTBEAT
[19:33:37.210188] [241] ATTITUDE_TARGET
[19:33:37.542258] [242] VFR_HUD
[19:33:37.762269] [163] RADIO
[19:33:37.764248] [163] RADIO_STATUS
[19:33:38.342366] [244] VFR_HUD
[19:33:38.681352] [164] RADIO
[19:33:38.684344] [164] RADIO_STATUS
[19:33:39.831599] [165] RADIO
[19:33:39.834527] [165] RADIO_STATUS
[19:33:40.640646] [166] RADIO
[19:33:40.643619] [166] RADIO_STATUS
[19:33:40.766675] [252] VFR_HUD
[19:33:41.229814] [254] ATTITUDE_TARGET
[19:33:41.670772] [167] RADIO
[19:33:41.673786] [167] RADIO_STATUS
[19:33:42.376157] [1] VFR_HUD
[19:33:42.818975] [168] RADIO
[19:33:42.822187] [168] RADIO_STATUS
[19:33:43.739038] [169] RADIO
[19:33:43.742070] [169] RADIO_STATUS
[19:33:44.089146] [7] VFR_HUD
[19:33:44.105372] [8] HEARTBEAT
[19:33:44.658182] [170] RADIO
[19:33:44.661127] [170] RADIO_STATUS
[19:33:45.247354] [10] HEARTBEAT
[19:33:45.255309] [11] ATTITUDE_TARGET
[19:33:45.588305] [12] VFR_HUD
[19:33:45.697352] [171] RADIO
[19:33:45.700320] [171] RADIO_STATUS
[19:33:46.388494] [14] VFR_HUD
[19:33:46.727503] [172] RADIO
[19:33:46.730502] [172] RADIO_STATUS
[19:33:47.766994] [173] RADIO
[19:33:47.769662] [173] RADIO_STATUS
[19:33:48.112787] [21] HEARTBEAT
[19:33:48.686973] [174] RADIO
[19:33:48.689775] [174] RADIO_STATUS
[19:33:48.807812] [22] VFR_HUD
[19:33:49.715937] [175] RADIO
[19:33:49.718901] [175] RADIO_STATUS
[19:33:50.183042] [26] HEARTBEAT
[19:33:50.417022] [27] VFR_HUD
[19:33:50.866092] [176] RADIO
[19:33:50.869031] [176] RADIO_STATUS
[19:33:51.119144] [28] HEARTBEAT
[19:33:51.126113] [29] SYS_STATUS
[19:33:51.172187] [33] VFR_HUD
[19:33:51.176399] [34] SYSTEM_TIME
[19:33:51.786268] [177] RADIO
[19:33:51.789162] [177] RADIO_STATUS
[19:33:52.133844] [36] HEARTBEAT
[19:33:52.705348] [178] RADIO
[19:33:52.708301] [178] RADIO_STATUS
[19:33:53.295504] [38] HEARTBEAT
[19:33:53.303546] [39] ATTITUDE_TARGET
[19:33:53.854514] [179] RADIO
[19:33:53.857499] [179] RADIO_STATUS
[19:33:54.774869] [180] RADIO
[19:33:54.777620] [180] RADIO_STATUS
[19:33:55.694909] [181] RADIO
[19:33:55.697809] [181] RADIO_STATUS
[19:33:55.934817] [48] VFR_HUD
[19:33:56.165866] [49] HEARTBEAT
[19:33:56.734933] [50] VFR_HUD
[19:33:56.766840] [182] RADIO
[19:33:56.769804] [182] RADIO_STATUS
[19:33:57.323042] [51] HEARTBEAT
[19:33:57.331173] [52] ATTITUDE_TARGET
[19:33:57.763063] [183] RADIO
[19:33:57.766161] [183] RADIO_STATUS
[19:33:58.912211] [184] RADIO
[19:33:58.915190] [184] RADIO_STATUS
[19:33:59.166309] [56] HEARTBEAT
[19:33:59.172304] [57] SYS_STATUS
[19:33:59.212403] [58] BATTERY_STATUS
[19:33:59.220324] [59] ATTITUDE_TARGET
[19:33:59.225255] [60] VFR_HUD
[19:33:59.833401] [185] RADIO
[19:33:59.836334] [185] RADIO_STATUS
[19:34:00.180445] [62] HEARTBEAT
[19:34:00.753567] [186] RADIO
[19:34:00.756471] [186] RADIO_STATUS
[19:34:00.803474] [63] VFR_HUD
[19:34:01.902647] [187] RADIO
[19:34:01.905630] [187] RADIO_STATUS
[19:34:02.483756] [68] VFR_HUD
[19:34:02.822785] [188] RADIO
[19:34:02.825766] [188] RADIO_STATUS
[19:34:03.742890] [189] RADIO
[19:34:03.745908] [189] RADIO_STATUS
[19:34:04.209007] [75] HEARTBEAT
[19:34:04.795034] [76] VFR_HUD
[19:34:04.816045] [190] RADIO
[19:34:04.819008] [190] RADIO_STATUS
[19:34:05.143089] [77] HEARTBEAT
[19:34:05.150102] [78] ATTITUDE_TARGET
[19:34:05.812181] [191] RADIO
[19:34:05.815124] [191] RADIO_STATUS
[19:34:06.168272] [80] HEARTBEAT
[19:34:06.962333] [192] RADIO
[19:34:06.964323] [192] RADIO_STATUS
[19:34:07.214391] [82] HEARTBEAT
[19:34:07.250557] [83] SYS_STATUS
[19:34:07.258356] [84] BATTERY_STATUS
[19:34:07.273357] [85] ATTITUDE_TARGET
[19:34:07.278336] [86] VFR_HUD
[19:34:07.881602] [193] RADIO
[19:34:07.884439] [193] RADIO_STATUS
[19:34:08.800563] [194] RADIO
[19:34:08.803551] [194] RADIO_STATUS
[19:34:08.839578] [89] VFR_HUD
[19:34:09.506710] [92] VFR_HUD
[19:34:09.950673] [195] RADIO
[19:34:09.953682] [195] RADIO_STATUS
[19:34:10.869894] [196] RADIO
[19:34:10.872939] [196] RADIO_STATUS
[19:34:11.117965] [95] HEARTBEAT
[19:34:11.124936] [96] SYS_STATUS
[19:34:11.788976] [197] RADIO
[19:34:11.792127] [197] RADIO_STATUS
[19:34:12.829141] [198] RADIO
[19:34:12.832109] [198] RADIO_STATUS
[19:34:13.188255] [105] HEARTBEAT
[19:34:13.196246] [106] ATTITUDE_TARGET
[19:34:13.858321] [199] RADIO
[19:34:13.861206] [199] RADIO_STATUS
[19:34:14.099380] [108] HEARTBEAT
[19:34:14.328412] [109] VFR_HUD
[19:34:15.008796] [200] RADIO
[19:34:15.011423] [200] RADIO_STATUS
[19:34:15.136483] [110] HEARTBEAT
[19:34:15.143476] [111] SYS_STATUS
[19:34:15.257505] [112] BATTERY_STATUS
[19:34:15.927619] [201] RADIO
[19:34:15.930560] [201] RADIO_STATUS
[19:34:16.847717] [202] RADIO
[19:34:16.850662] [202] RADIO_STATUS
[19:34:17.552828] [120] VFR_HUD
[19:34:17.996929] [203] RADIO
[19:34:17.999817] [203] RADIO_STATUS
[19:34:18.811925] [204] RADIO
[19:34:18.814917] [204] RADIO_STATUS
[19:34:19.170065] [123] HEARTBEAT
[19:34:19.176957] [124] SYS_STATUS
[19:34:19.216187] [125] BATTERY_STATUS
[19:34:19.223975] [126] ATTITUDE_TARGET
[19:34:19.228987] [127] VFR_HUD
[19:34:19.838106] [205] RADIO
[19:34:19.841033] [205] RADIO_STATUS
[19:34:20.313250] [128] VFR_HUD
[19:34:20.316367] [129] HEARTBEAT
[19:34:20.878345] [130] VFR_HUD
[19:34:20.894327] [206] RADIO
[19:34:20.897259] [206] RADIO_STATUS
[19:34:21.241335] [132] ATTITUDE_TARGET
[19:34:21.906383] [207] RADIO
[19:34:21.909379] [207] RADIO_STATUS
[19:34:22.377547] [135] VFR_HUD
[19:34:23.056898] [208] RADIO
[19:34:23.059448] [208] RADIO_STATUS
[19:34:23.184556] [136] HEARTBEAT
[19:34:23.191549] [137] SYS_STATUS
[19:34:23.311557] [138] BATTERY_STATUS
[19:34:23.975828] [209] RADIO
[19:34:23.978639] [209] RADIO_STATUS
[19:34:24.895803] [210] RADIO
[19:34:24.898798] [210] RADIO_STATUS
[19:34:25.595980] [146] VFR_HUD
[19:34:26.045029] [211] RADIO
[19:34:26.047949] [211] RADIO_STATUS
[19:34:26.860039] [212] RADIO
[19:34:26.863064] [212] RADIO_STATUS
[19:34:27.213224] [149] HEARTBEAT
[19:34:27.219181] [150] SYS_STATUS
[19:34:27.884377] [213] RADIO
[19:34:27.887195] [213] RADIO_STATUS
[19:34:27.923222] [154] VFR_HUD
[19:34:28.120283] [155] HEARTBEAT
[19:34:28.924408] [156] VFR_HUD
[19:34:28.940459] [214] RADIO
[19:34:28.943655] [214] RADIO_STATUS
[19:34:29.288531] [157] HEARTBEAT
[19:34:29.295516] [158] ATTITUDE_TARGET
[19:34:29.504536] [159] VFR_HUD
[19:34:29.952564] [215] RADIO
[19:34:29.955666] [215] RADIO_STATUS
[19:34:30.188604] [160] HEARTBEAT
[19:34:30.872676] [216] RADIO
[19:34:30.874641] [216] RADIO_STATUS
[19:34:31.248775] [164] BATTERY_STATUS
[19:34:31.250676] [165] EXTENDED_SYS_STATE
[19:34:31.258743] [166] ATTITUDE_TARGET
[19:34:31.263803] [167] VFR_HUD
[19:34:31.266713] [168] SYSTEM_TIME
[19:34:32.021890] [217] RADIO
[19:34:32.025013] [217] RADIO_STATUS
[19:34:32.723022] [171] VFR_HUD
[19:34:32.942056] [218] RADIO
[19:34:32.944924] [218] RADIO_STATUS
[19:34:33.523117] [174] VFR_HUD
[19:34:34.092173] [219] RADIO
[19:34:34.095125] [219] RADIO_STATUS
[19:34:34.901317] [220] RADIO
[19:34:34.904274] [220] RADIO_STATUS
[19:34:35.261435] [179] BATTERY_STATUS
[19:34:35.931528] [221] RADIO
[19:34:35.934449] [221] RADIO_STATUS
[19:34:35.969513] [182] VFR_HUD
[19:34:36.167639] [183] HEARTBEAT
[19:34:36.970614] [222] RADIO
[19:34:36.973558] [222] RADIO_STATUS
[19:34:37.092658] [185] HEARTBEAT
[19:34:37.555726] [187] VFR_HUD
[19:34:38.001034] [223] RADIO
[19:34:38.002673] [223] RADIO_STATUS
[19:34:38.115745] [188] HEARTBEAT
[19:34:38.918833] [224] RADIO
[19:34:38.921903] [224] RADIO_STATUS
[19:34:40.068955] [225] RADIO
[19:34:40.072470] [225] RADIO_STATUS
[19:34:40.769088] [197] VFR_HUD
[19:34:40.988089] [226] RADIO
[19:34:40.991057] [226] RADIO_STATUS
[19:34:41.569265] [200] VFR_HUD
[19:34:42.138380] [227] RADIO
[19:34:42.141277] [227] RADIO_STATUS
[19:34:42.172279] [201] HEARTBEAT
[19:34:43.057496] [228] RADIO
[19:34:43.060780] [228] RADIO_STATUS
[19:34:43.091537] [203] HEARTBEAT
[19:34:43.126538] [204] SYS_STATUS
[19:34:43.134528] [205] BATTERY_STATUS
[19:34:43.149519] [206] ATTITUDE_TARGET
[19:34:43.154472] [207] VFR_HUD
[19:34:43.977570] [229] RADIO
[19:34:43.980652] [229] RADIO_STATUS
[19:34:44.228611] [208] VFR_HUD
[19:34:44.231614] [209] HEARTBEAT
[19:34:45.016689] [230] RADIO
[19:34:45.019746] [230] RADIO_STATUS
[19:34:45.151743] [211] HEARTBEAT
[19:34:45.159747] [212] ATTITUDE_TARGET
[19:34:45.596763] [213] VFR_HUD
[19:34:46.046915] [231] RADIO
[19:34:46.049816] [231] RADIO_STATUS
[19:34:46.162904] [214] HEARTBEAT
[19:34:46.965985] [232] RADIO
[19:34:46.969028] [232] RADIO_STATUS
[19:34:48.116293] [233] RADIO
[19:34:48.118190] [233] RADIO_STATUS
[19:34:48.821312] [223] VFR_HUD
[19:34:49.035323] [234] RADIO
[19:34:49.038359] [234] RADIO_STATUS
[19:34:49.289371] [224] HEARTBEAT
[19:34:49.297413] [225] ATTITUDE_TARGET
[19:34:50.184502] [235] RADIO
[19:34:50.187473] [235] RADIO_STATUS
[19:34:50.218552] [227] HEARTBEAT
[19:34:51.103631] [236] RADIO
[19:34:51.106613] [236] RADIO_STATUS
[19:34:51.362732] [231] BATTERY_STATUS
[19:34:51.363618] [232] EXTENDED_SYS_STATE
[19:34:51.396669] [233] ATTITUDE_TARGET
[19:34:51.400624] [234] VFR_HUD
[19:34:51.404647] [235] SYSTEM_TIME
[19:34:51.914740] [236] VFR_HUD
[19:34:52.023869] [237] RADIO
[19:34:52.026714] [237] RADIO_STATUS
[19:34:53.173916] [238] RADIO
[19:34:53.177125] [238] RADIO_STATUS
[19:34:53.428030] [239] HEARTBEAT
[19:34:53.435982] [240] ATTITUDE_TARGET
[19:34:54.093112] [239] RADIO
[19:34:54.096085] [239] RADIO_STATUS
[19:34:54.209132] [242] HEARTBEAT
[19:34:54.339115] [243] VFR_HUD
[19:34:55.012222] [240] RADIO
[19:34:55.015166] [240] RADIO_STATUS
[19:34:55.948010] [249] VFR_HUD
[19:34:56.161359] [241] RADIO
[19:34:56.164467] [241] RADIO_STATUS
[19:34:57.080549] [242] RADIO
[19:34:57.083715] [242] RADIO_STATUS
[19:34:57.661618] [254] VFR_HUD
[19:34:58.230659] [243] RADIO
[19:34:58.233790] [243] RADIO_STATUS
[19:34:59.149737] [244] RADIO
[19:34:59.152676] [244] RADIO_STATUS
[19:34:59.398895] [3] BATTERY_STATUS
[19:34:59.959924] [6] VFR_HUD
[19:35:00.068955] [245] RADIO
[19:35:00.071872] [245] RADIO_STATUS
[19:35:00.194977] [7] HEARTBEAT
[19:35:00.782504] [8] VFR_HUD
[19:35:01.136017] [246] RADIO
[19:35:01.138963] [246] RADIO_STATUS
[19:35:01.238063] [9] HEARTBEAT
[19:35:01.246046] [10] ATTITUDE_TARGET
[19:35:02.138145] [247] RADIO
[19:35:02.141110] [247] RADIO_STATUS
[19:35:02.379214] [13] VFR_HUD
[19:35:03.058269] [248] RADIO
[19:35:03.061334] [248] RADIO_STATUS
[19:35:03.988505] [19] VFR_HUD
[19:35:04.207500] [249] RADIO
[19:35:04.210508] [249] RADIO_STATUS
[19:35:05.127639] [250] RADIO
[19:35:05.130613] [250] RADIO_STATUS
[19:35:05.175644] [22] HEARTBEAT
[19:35:05.183666] [23] ATTITUDE_TARGET
[19:35:05.707634] [24] VFR_HUD
[19:35:06.276721] [251] RADIO
[19:35:06.279704] [251] RADIO_STATUS
[19:35:07.086864] [252] RADIO
[19:35:07.089911] [252] RADIO_STATUS
[19:35:07.445919] [29] BATTERY_STATUS
