[02:00:51.007069] [252] RADIO
[02:00:51.009937] [252] RADIO_STATUS
[02:00:51.241974] [106] HEARTBEAT
[02:00:51.362115] [107] VFR_HUD
[02:00:52.037901] [253] RADIO
[02:00:52.039107] [253] RADIO_STATUS
[02:00:52.165099] [108] HEARTBEAT
[02:00:52.172103] [109] SYS_STATUS
[02:00:53.077234] [113] VFR_HUD
[02:00:53.104779] [254] RADIO
[02:00:53.107157] [254] RADIO_STATUS
[02:00:53.192235] [114] HEARTBEAT
[02:00:53.778370] [115] VFR_HUD
[02:00:54.105343] [255] RADIO
[02:00:54.108361] [255] RADIO_STATUS
[02:00:54.235475] [116] HEARTBEAT
[02:00:54.243393] [117] ATTITUDE_TARGET
[02:00:54.581562] [118] VFR_HUD
[02:00:55.024621] [0] RADIO
[02:00:55.027503] [0] RADIO_STATUS
[02:00:55.375648] [120] VFR_HUD
[02:00:56.064780] [1] RADIO
[02:00:56.067700] [1] RADIO_STATUS
[02:00:56.997006] [126] VFR_HUD
[02:00:57.017884] [2] RADIO
[02:00:57.020820] [2] RADIO_STATUS
[02:00:57.210955] [127] HEARTBEAT
[02:00:58.014107] [3] RADIO
[02:00:58.017003] [3] RADIO_STATUS
[02:00:58.130152] [129] HEARTBEAT
[02:00:59.059284] [4] RADIO
[02:00:59.062237] [4] RADIO_STATUS
[02:00:59.175445] [132] HEARTBEAT
[02:00:59.416346] [133] VFR_HUD
[02:01:00.083409] [5] RADIO
[02:01:00.086404] [5] RADIO_STATUS
[02:01:00.211456] [134] HEARTBEAT
[02:01:00.218460] [135] SYS_STATUS
[02:01:01.002654] [6] RADIO
[02:01:01.005800] [6] RADIO_STATUS
[02:01:01.123705] [139] VFR_HUD
[02:01:01.141695] [140] HEARTBEAT
[02:01:01.812724] [141] VFR_HUD
[02:01:02.152977] [7] RADIO
[02:01:02.154883] [7] RADIO_STATUS
[02:01:02.627958] [144] VFR_HUD
[02:01:03.070950] [8] RADIO
[02:01:03.074096] [8] RADIO_STATUS
[02:01:03.422048] [146] VFR_HUD
[02:01:04.116121] [9] RADIO
[02:01:04.119070] [9] RADIO_STATUS
[02:01:05.036198] [10] RADIO
[02:01:05.039186] [10] RADIO_STATUS
[02:01:05.266356] [152] VFR_HUD
[02:01:05.269292] [153] HEARTBEAT
[02:01:06.059374] [11] RADIO
[02:01:06.062310] [11] RADIO_STATUS
[02:01:07.103500] [12] RADIO
[02:01:07.106459] [12] RADIO_STATUS
[02:01:07.229555] [158] HEARTBEAT
[02:01:07.250137] JAMMING_START
[02:01:07.329501] [159] VFR_HUD
[02:01:08.127653] [13] RADIO
[02:01:08.130643] [13] RADIO_STATUS
[02:01:08.270715] [164] ATTITUDE_TARGET
[02:01:08.275654] [165] VFR_HUD
[02:01:08.279649] [166] SYSTEM_TIME
[02:01:09.047764] [14] RADIO
[02:01:09.050706] [14] RADIO_STATUS
[02:01:09.163825] [168] HEARTBEAT
[02:01:10.196922] [15] RADIO
[02:01:10.199863] [15] RADIO_STATUS
[02:01:10.547070] [172] VFR_HUD
[02:01:11.116078] [16] RADIO
[02:01:11.119090] [16] RADIO_STATUS
[02:01:11.466191] [174] VFR_HUD
[02:01:12.183361] [17] RADIO
[02:01:12.186247] [17] RADIO_STATUS
[02:01:13.086526] [18] RADIO
[02:01:13.089655] [18] RADIO_STATUS
[02:01:13.765663] [182] VFR_HUD
[02:01:14.104642] [19] RADIO
[02:01:14.107616] [19] RADIO_STATUS
[02:01:15.140842] [186] HEARTBEAT
[02:01:15.253819] [20] RADIO
[02:01:15.256772] [20] RADIO_STATUS
[02:01:16.174045] [21] RADIO
[02:01:16.176014] [21] RADIO_STATUS
[02:01:16.302096] [188] HEARTBEAT
[02:01:16.309063] [189] SYS_STATUS
[02:01:17.093198] [22] RADIO
[02:01:17.096371] [22] RADIO_STATUS
[02:01:17.209234] [194] HEARTBEAT
[02:01:18.242318] [23] RADIO
[02:01:18.245300] [23] RADIO_STATUS
[02:01:18.370399] [197] ATTITUDE_TARGET
[02:01:18.592418] [198] VFR_HUD
[02:01:19.161512] [24] RADIO
[02:01:19.165836] [24] RADIO_STATUS
[02:01:19.511646] [200] VFR_HUD
[02:01:20.310743] [25] RADIO
[02:01:20.313726] [25] RADIO_STATUS
[02:01:22.150059] [27] RADIO
[02:01:22.153054] [27] RADIO_STATUS
[02:01:23.185310] [212] HEARTBEAT
[02:01:23.299232] [28] RADIO
[02:01:23.302365] [28] RADIO_STATUS
[02:01:23.431301] [213] VFR_HUD
[02:01:24.219409] [29] RADIO
[02:01:24.221320] [29] RADIO_STATUS
[02:01:25.138616] [30] RADIO
[02:01:25.141488] [30] RADIO_STATUS
[02:01:25.850616] [221] VFR_HUD
[02:01:26.287723] [31] RADIO
[02:01:26.290609] [31] RADIO_STATUS
[02:01:26.417731] [222] HEARTBEAT
[02:01:26.425713] [223] ATTITUDE_TARGET
[02:01:26.649778] [224] VFR_HUD
[02:01:27.207853] [32] RADIO
[02:01:27.210801] [32] RADIO_STATUS
[02:01:27.250995] [225] HEARTBEAT
[02:01:28.203079] [232] VFR_HUD
[02:01:28.205999] [233] SYSTEM_TIME
[02:01:28.247098] [33] RADIO
[02:01:28.254032] [33] RADIO_STATUS
[02:01:28.949183] [234] VFR_HUD
[02:01:29.163208] [235] HEARTBEAT
[02:01:29.194162] [34] RADIO
[02:01:29.197166] [34] RADIO_STATUS
[02:01:29.856489] [236] VFR_HUD
[02:01:30.196359] [35] RADIO
[02:01:30.198376] [35] RADIO_STATUS
[02:01:30.546470] [239] VFR_HUD
[02:01:31.231586] [240] HEARTBEAT
[02:01:31.263566] [36] RADIO
[02:01:31.266555] [36] RADIO_STATUS
[02:01:31.466593] [241] VFR_HUD
[02:01:32.164436] [242] HEARTBEAT
[02:01:32.170796] [243] SYS_STATUS
[02:01:32.182919] [37] RADIO
[02:01:32.186023] [37] RADIO_STATUS
[02:01:32.290811] [244] BATTERY_STATUS
[02:01:32.402766] [245] ATTITUDE_TARGET
[02:01:32.407707] [246] VFR_HUD
[02:01:32.965935] [247] VFR_HUD
[02:01:33.185037] [38] RADIO
[02:01:33.189413] [38] RADIO_STATUS
[02:01:33.301889] [248] HEARTBEAT
[02:01:33.765992] [249] VFR_HUD
[02:01:34.334103] [39] RADIO
[02:01:34.337043] [39] RADIO_STATUS
[02:01:34.586154] [252] VFR_HUD
[02:01:35.150222] [253] HEARTBEAT
[02:01:35.254249] [40] RADIO
[02:01:35.257995] [40] RADIO_STATUS
[02:01:36.366439] [3] VFR_HUD
[02:01:36.382541] [41] RADIO
[02:01:36.385359] [41] RADIO_STATUS
[02:01:36.984503] [4] VFR_HUD
[02:01:37.209589] [5] HEARTBEAT
[02:01:37.241568] [42] RADIO
[02:01:37.244627] [42] RADIO_STATUS
[02:01:37.903633] [6] VFR_HUD
[02:01:38.128765] [7] HEARTBEAT
[02:01:38.151781] [8] ATTITUDE_TARGET
[02:01:38.242718] [43] RADIO
[02:01:38.245790] [43] RADIO_STATUS
[02:01:39.287936] [44] RADIO
[02:01:39.289877] [44] RADIO_STATUS
[02:01:40.312096] [45] RADIO
[02:01:40.315261] [45] RADIO_STATUS
[02:01:41.231254] [46] RADIO
[02:01:41.234175] [46] RADIO_STATUS
[02:01:41.357266] [17] VFR_HUD
[02:01:41.360175] [18] HEARTBEAT
[02:01:42.380366] [47] RADIO
[02:01:42.383363] [47] RADIO_STATUS
[02:01:43.186571] [23] HEARTBEAT
[02:01:43.299495] [48] RADIO
[02:01:43.302467] [48] RADIO_STATUS
[02:01:44.219666] [49] RADIO
[02:01:44.222592] [49] RADIO_STATUS
[02:01:44.474842] [27] BATTERY_STATUS
[02:01:44.816827] [28] ATTITUDE_TARGET
[02:01:44.820834] [29] VFR_HUD
[02:01:45.150894] [31] HEARTBEAT
[02:01:45.258880] [50] RADIO
[02:01:45.261858] [50] RADIO_STATUS
[02:01:46.188996] [33] HEARTBEAT
[02:01:46.196999] [34] ATTITUDE_TARGET
[02:01:46.289029] [51] RADIO
[02:01:46.291966] [51] RADIO_STATUS
[02:01:46.534081] [35] VFR_HUD
[02:01:47.214187] [36] HEARTBEAT
[02:01:47.328156] [52] RADIO
[02:01:47.331164] [52] RADIO_STATUS
[02:01:48.357354] [53] RADIO
[02:01:48.360319] [53] RADIO_STATUS
[02:01:48.938426] [45] VFR_HUD
[02:01:49.277469] [54] RADIO
[02:01:49.280847] [54] RADIO_STATUS
[02:01:49.752559] [47] VFR_HUD
[02:01:50.426671] [55] RADIO
[02:01:50.428621] [55] RADIO_STATUS
[02:01:50.546700] [50] VFR_HUD
[02:01:51.136754] [51] HEARTBEAT
[02:01:51.345770] [56] RADIO
[02:01:51.348833] [56] RADIO_STATUS
[02:01:52.265926] [57] RADIO
[02:01:52.268928] [57] RADIO_STATUS
[02:01:53.207138] [58] VFR_HUD
[02:01:53.209103] [59] HEARTBEAT
[02:01:53.321129] [58] RADIO
[02:01:53.324050] [58] RADIO_STATUS
[02:01:54.334259] [59] RADIO
[02:01:54.337215] [59] RADIO_STATUS
[02:01:54.586330] [63] VFR_HUD
[02:01:55.140450] [64] HEARTBEAT
[02:01:55.374481] [65] VFR_HUD
[02:01:55.401517] [60] RADIO
[02:01:55.404436] [60] RADIO_STATUS
[02:01:56.302573] [66] HEARTBEAT
[02:01:56.308629] [67] SYS_STATUS
[02:01:56.321566] [61] RADIO
[02:01:56.324518] [61] RADIO_STATUS
[02:01:56.541688] [69] ATTITUDE_TARGET
[02:01:56.545592] [70] VFR_HUD
[02:01:56.984653] [71] VFR_HUD
[02:01:57.323729] [62] RADIO
[02:01:57.326754] [62] RADIO_STATUS
[02:01:57.903803] [73] VFR_HUD
[02:01:58.471917] [63] RADIO
[02:01:58.474881] [63] RADIO_STATUS
[02:01:58.603968] [76] VFR_HUD
[02:01:59.168195] [77] HEARTBEAT
[02:01:59.287094] [64] RADIO
[02:01:59.290288] [64] RADIO_STATUS
[02:02:00.311248] [65] RADIO
[02:02:00.314297] [65] RADIO_STATUS
[02:02:01.461464] [66] RADIO
[02:02:01.464631] [66] RADIO_STATUS
[02:02:02.280631] [87] HEARTBEAT
[02:02:02.288580] [88] ATTITUDE_TARGET
[02:02:02.298602] [67] RADIO
[02:02:02.301553] [67] RADIO_STATUS
[02:02:02.621635] [89] VFR_HUD
[02:02:03.189915] [90] HEARTBEAT
[02:02:03.300748] [68] RADIO
[02:02:03.303790] [68] RADIO_STATUS
[02:02:04.363915] [94] BATTERY_STATUS
[02:02:04.373137] [95] ATTITUDE_TARGET
[02:02:04.401942] [96] VFR_HUD
[02:02:04.428957] [69] RADIO
[02:02:04.431902] [69] RADIO_STATUS
[02:02:05.146089] [98] HEARTBEAT
[02:02:05.369148] [70] RADIO
[02:02:05.372277] [70] RADIO_STATUS
[02:02:05.852148] [99] VFR_HUD
[02:02:06.519241] [71] RADIO
[02:02:06.522223] [71] RADIO_STATUS
[02:02:07.215383] [103] HEARTBEAT
[02:02:07.329360] [72] RADIO
[02:02:07.332301] [72] RADIO_STATUS
[02:02:07.455382] [104] VFR_HUD
[02:02:08.358476] [73] RADIO
[02:02:08.361454] [73] RADIO_STATUS
[02:02:08.938707] [112] VFR_HUD
[02:02:09.164761] [113] HEARTBEAT
[02:02:09.507726] [74] RADIO
[02:02:09.510975] [74] RADIO_STATUS
[02:02:10.426860] [75] RADIO
[02:02:10.429842] [75] RADIO_STATUS
[02:02:11.369069] [119] VFR_HUD
[02:02:11.467071] [76] RADIO
[02:02:11.470030] [76] RADIO_STATUS
[02:02:12.414148] [77] RADIO
[02:02:12.417143] [77] RADIO_STATUS
[02:02:12.966236] [125] VFR_HUD
[02:02:13.197275] [126] HEARTBEAT
[02:02:13.415304] [78] RADIO
[02:02:13.418279] [78] RADIO_STATUS
[02:02:13.766355] [127] VFR_HUD
[02:02:14.565488] [79] RADIO
[02:02:14.568492] [79] RADIO_STATUS
[02:02:15.150804] [131] HEARTBEAT
[02:02:15.386878] [132] VFR_HUD
[02:02:15.483600] [80] RADIO
[02:02:15.486566] [80] RADIO_STATUS
[02:02:16.403705] [81] RADIO
[02:02:16.406704] [81] RADIO_STATUS
[02:02:17.219927] [138] VFR_HUD
[02:02:17.222857] [139] HEARTBEAT
[02:02:17.443933] [82] RADIO
[02:02:17.446850] [82] RADIO_STATUS
[02:02:18.143166] [141] HEARTBEAT
[02:02:18.151087] [142] ATTITUDE_TARGET
[02:02:18.473063] [83] RADIO
[02:02:18.476041] [83] RADIO_STATUS
[02:02:18.605069] [143] VFR_HUD
[02:02:19.403266] [145] VFR_HUD
[02:02:19.512238] [84] RADIO
[02:02:19.515205] [84] RADIO_STATUS
[02:02:20.449436] [149] ATTITUDE_TARGET
[02:02:20.453382] [150] VFR_HUD
[02:02:20.459375] [85] RADIO
[02:02:20.462594] [85] RADIO_STATUS
[02:02:21.023457] [151] VFR_HUD
[02:02:21.252570] [152] HEARTBEAT
[02:02:21.461630] [86] RADIO
[02:02:21.466033] [86] RADIO_STATUS
[02:02:21.811610] [153] VFR_HUD
[02:02:22.613797] [87] RADIO
[02:02:22.613929] [87] RADIO_STATUS
[02:02:22.731885] [156] VFR_HUD
[02:02:23.186886] [157] HEARTBEAT
[02:02:23.420883] [158] VFR_HUD
[02:02:23.452890] [88] RADIO
[02:02:23.455952] [88] RADIO_STATUS
[02:02:24.402098] [163] VFR_HUD
[02:02:24.429073] [89] RADIO
[02:02:24.432074] [89] RADIO_STATUS
[02:02:25.030142] [164] VFR_HUD
[02:02:25.155228] [165] HEARTBEAT
[02:02:25.498397] [90] RADIO
[02:02:25.500174] [90] RADIO_STATUS
[02:02:26.189354] [167] HEARTBEAT
[02:02:26.196320] [168] ATTITUDE_TARGET
[02:02:26.518385] [91] RADIO
[02:02:26.521365] [91] RADIO_STATUS
[02:02:26.557682] [169] VFR_HUD
[02:02:27.324569] [170] HEARTBEAT
[02:02:27.347514] [171] VFR_HUD
[02:02:27.438568] [92] RADIO
[02:02:27.441513] [92] RADIO_STATUS
[02:02:28.482729] [93] RADIO
[02:02:28.485681] [93] RADIO_STATUS
[02:02:28.938084] [179] VFR_HUD
[02:02:29.163838] [180] HEARTBEAT
[02:02:29.507001] [94] RADIO
[02:02:29.509876] [94] RADIO_STATUS
[02:02:30.656057] [95] RADIO
[02:02:30.659033] [95] RADIO_STATUS
[02:02:31.137150] [185] HEARTBEAT
[02:02:31.357163] [186] VFR_HUD
[02:02:31.471157] [96] RADIO
[02:02:31.474163] [96] RADIO_STATUS
[02:02:32.164300] [187] HEARTBEAT
[02:02:32.171318] [188] SYS_STATUS
[02:02:32.496348] [97] RADIO
[02:02:32.499312] [97] RADIO_STATUS
[02:02:33.076596] [192] VFR_HUD
[02:02:33.201451] [193] HEARTBEAT
[02:02:33.540522] [98] RADIO
[02:02:33.543529] [98] RADIO_STATUS
[02:02:34.234665] [195] HEARTBEAT
[02:02:34.242659] [196] ATTITUDE_TARGET
[02:02:34.564754] [99] RADIO
[02:02:34.567847] [99] RADIO_STATUS
[02:02:34.602754] [197] VFR_HUD
[02:02:35.374892] [199] VFR_HUD
[02:02:35.484013] [100] RADIO
[02:02:35.486915] [100] RADIO_STATUS
[02:02:36.525052] [101] RADIO
[02:02:36.528040] [101] RADIO_STATUS
[02:02:37.340217] [205] VFR_HUD
[02:02:37.343173] [206] HEARTBEAT
[02:02:37.553394] [102] RADIO
[02:02:37.556184] [102] RADIO_STATUS
[02:02:37.805264] [207] VFR_HUD
[02:02:38.703381] [103] RADIO
[02:02:38.706341] [103] RADIO_STATUS
[02:02:39.183539] [211] HEARTBEAT
[02:02:39.406912] [212] VFR_HUD
[02:02:39.512524] [104] RADIO
[02:02:39.515537] [104] RADIO_STATUS
[02:02:40.210720] [213] HEARTBEAT
[02:02:40.217677] [214] SYS_STATUS
[02:02:40.545744] [105] RADIO
[02:02:40.548749] [105] RADIO_STATUS
[02:02:41.117898] [219] HEARTBEAT
[02:02:41.691140] [106] RADIO
[02:02:41.694010] [106] RADIO_STATUS
[02:02:41.740930] [220] VFR_HUD
[02:02:42.500090] [107] RADIO
[02:02:42.503057] [107] RADIO_STATUS
[02:02:42.620087] [223] VFR_HUD
[02:02:43.420175] [225] VFR_HUD
[02:02:43.529231] [108] RADIO
[02:02:43.532167] [108] RADIO_STATUS
[02:02:44.569794] [109] RADIO
[02:02:44.572398] [109] RADIO_STATUS
[02:02:45.599520] [110] RADIO
[02:02:45.602482] [110] RADIO_STATUS
[02:02:45.949580] [233] VFR_HUD
[02:02:46.540607] [236] VFR_HUD
[02:02:46.748701] [111] RADIO
[02:02:46.751643] [111] RADIO_STATUS
[02:02:47.340730] [238] VFR_HUD
[02:02:47.557759] [112] RADIO
[02:02:47.560716] [112] RADIO_STATUS
[02:02:48.273957] [241] BATTERY_STATUS
[02:02:48.275791] [242] EXTENDED_SYS_STATE
[02:02:48.283869] [243] ATTITUDE_TARGET
[02:02:48.288885] [244] VFR_HUD
[02:02:48.291832] [245] SYSTEM_TIME
[02:02:48.587053] [113] RADIO
[02:02:48.589901] [113] RADIO_STATUS
[02:02:49.163083] [247] HEARTBEAT
[02:02:49.627056] [114] RADIO
[02:02:49.630140] [114] RADIO_STATUS
[02:02:50.326325] [249] HEARTBEAT
[02:02:50.334227] [250] ATTITUDE_TARGET
[02:02:50.547229] [251] VFR_HUD
[02:02:50.580733] [115] RADIO
[02:02:50.582203] [115] RADIO_STATUS
[02:02:51.123382] [252] HEARTBEAT
[02:02:51.467358] [253] VFR_HUD
[02:02:51.576417] [116] RADIO
[02:02:51.579345] [116] RADIO_STATUS
[02:02:52.632633] [1] ATTITUDE_TARGET
[02:02:52.637617] [2] VFR_HUD
[02:02:52.649593] [117] RADIO
[02:02:52.651549] [117] RADIO_STATUS
[02:02:52.971709] [3] VFR_HUD
[02:02:53.201717] [4] HEARTBEAT
[02:02:53.645788] [118] RADIO
[02:02:53.648797] [118] RADIO_STATUS
[02:02:53.766837] [5] VFR_HUD
[02:02:54.573410] [119] RADIO
[02:02:54.573936] [119] RADIO_STATUS
[02:02:54.604021] [8] VFR_HUD
[02:02:55.151247] [9] HEARTBEAT
[02:02:55.387101] [10] VFR_HUD
[02:02:55.612160] [120] RADIO
[02:02:55.615105] [120] RADIO_STATUS
[02:02:56.317576] [13] BATTERY_STATUS
[02:02:56.325187] [14] ATTITUDE_TARGET
[02:02:56.355170] [15] VFR_HUD
[02:02:56.633304] [121] RADIO
[02:02:56.636366] [121] RADIO_STATUS
[02:02:57.209398] [17] HEARTBEAT
[02:02:57.678406] [122] RADIO
[02:02:57.681441] [122] RADIO_STATUS
[02:02:57.805385] [18] VFR_HUD
[02:02:58.593596] [21] VFR_HUD
[02:02:58.625575] [123] RADIO
[02:02:58.628550] [123] RADIO_STATUS
[02:02:59.183925] [22] HEARTBEAT
[02:02:59.622766] [124] RADIO
[02:02:59.625655] [124] RADIO_STATUS
[02:03:00.678981] [27] ATTITUDE_TARGET
[02:03:00.683897] [28] VFR_HUD
[02:03:00.694896] [125] RADIO
[02:03:00.697884] [125] RADIO_STATUS
[02:03:01.118051] [30] HEARTBEAT
[02:03:01.692070] [126] RADIO
[02:03:01.695035] [126] RADIO_STATUS
[02:03:01.824087] [31] VFR_HUD
[02:03:02.612264] [127] RADIO
[02:03:02.615176] [127] RADIO_STATUS
[02:03:02.650252] [34] VFR_HUD
[02:03:03.188370] [35] HEARTBEAT
[02:03:03.422296] [36] VFR_HUD
[02:03:03.651319] [128] RADIO
[02:03:03.654339] [128] RADIO_STATUS
[02:03:04.681664] [129] RADIO
[02:03:04.684487] [129] RADIO_STATUS
[02:03:05.720695] [130] RADIO
[02:03:05.723665] [130] RADIO_STATUS
[02:03:05.951770] [44] VFR_HUD
[02:03:06.640836] [131] RADIO
[02:03:06.643785] [131] RADIO_STATUS
[02:03:07.222001] [48] HEARTBEAT
[02:03:07.669989] [132] RADIO
[02:03:07.672937] [132] RADIO_STATUS
[02:03:08.290118] [55] VFR_HUD
[02:03:08.294147] [56] SYSTEM_TIME
[02:03:08.710125] [133] RADIO
[02:03:08.713089] [133] RADIO_STATUS
[02:03:08.941138] [57] VFR_HUD
[02:03:09.166202] [58] HEARTBEAT
[02:03:09.739309] [134] RADIO
[02:03:09.742245] [134] RADIO_STATUS
[02:03:10.658435] [135] RADIO
[02:03:10.661387] [135] RADIO_STATUS
[02:03:11.134558] [63] HEARTBEAT
[02:03:11.468603] [64] VFR_HUD
[02:03:11.697585] [136] RADIO
[02:03:11.700538] [136] RADIO_STATUS
[02:03:12.165686] [65] HEARTBEAT
[02:03:12.172662] [66] SYS_STATUS
[02:03:12.404772] [68] ATTITUDE_TARGET
[02:03:12.409663] [69] VFR_HUD
[02:03:12.726694] [137] RADIO
[02:03:12.729699] [137] RADIO_STATUS
[02:03:12.972723] [70] VFR_HUD
[02:03:13.302794] [71] HEARTBEAT
[02:03:13.646877] [138] RADIO
[02:03:13.649825] [138] RADIO_STATUS
[02:03:13.766908] [72] VFR_HUD
[02:03:14.588002] [75] VFR_HUD
[02:03:14.690969] [139] RADIO
[02:03:14.693992] [139] RADIO_STATUS
[02:03:15.151176] [76] HEARTBEAT
[02:03:15.715212] [140] RADIO
[02:03:15.718176] [140] RADIO_STATUS
[02:03:16.357313] [82] VFR_HUD
[02:03:16.755482] [141] RADIO
[02:03:16.758354] [141] RADIO_STATUS
[02:03:16.985560] [83] VFR_HUD
[02:03:17.220467] [84] HEARTBEAT
[02:03:17.784557] [142] RADIO
[02:03:17.787508] [142] RADIO_STATUS
[02:03:17.905557] [85] VFR_HUD
[02:03:18.144725] [86] HEARTBEAT
[02:03:18.153090] [87] ATTITUDE_TARGET
[02:03:18.606708] [88] VFR_HUD
[02:03:18.704735] [143] RADIO
[02:03:18.707721] [143] RADIO_STATUS
[02:03:19.170918] [89] HEARTBEAT
[02:03:19.404839] [90] VFR_HUD
[02:03:19.852945] [144] RADIO
[02:03:19.855844] [144] RADIO_STATUS
[02:03:20.451012] [94] ATTITUDE_TARGET
[02:03:20.454978] [95] VFR_HUD
[02:03:20.696025] [145] RADIO
[02:03:20.699041] [145] RADIO_STATUS
[02:03:21.019462] [96] VFR_HUD
[02:03:21.693132] [146] RADIO
[02:03:21.695098] [146] RADIO_STATUS
[02:03:22.734109] [101] VFR_HUD
[02:03:22.749406] [147] RADIO
[02:03:22.752342] [147] RADIO_STATUS
[02:03:23.188475] [102] HEARTBEAT
[02:03:23.761556] [148] RADIO
[02:03:23.764459] [148] RADIO_STATUS
[02:03:24.681666] [149] RADIO
[02:03:24.683603] [149] RADIO_STATUS
[02:03:25.830834] [150] RADIO
[02:03:25.833825] [150] RADIO_STATUS
[02:03:26.190901] [112] HEARTBEAT
[02:03:26.199002] [113] ATTITUDE_TARGET
[02:03:26.749921] [151] RADIO
[02:03:26.752924] [151] RADIO_STATUS
[02:03:27.222117] [115] HEARTBEAT
[02:03:27.331133] [116] VFR_HUD
[02:03:27.795178] [152] RADIO
[02:03:27.798173] [152] RADIO_STATUS
[02:03:28.709231] [153] RADIO
[02:03:28.712200] [153] RADIO_STATUS
[02:03:28.940339] [124] VFR_HUD
[02:03:29.739497] [154] RADIO
[02:03:29.742423] [154] RADIO_STATUS
[02:03:29.789528] [126] VFR_HUD
[02:03:30.549600] [129] VFR_HUD
[02:03:30.778578] [155] RADIO
[02:03:30.781588] [155] RADIO_STATUS
[02:03:31.133651] [130] HEARTBEAT
[02:03:31.468683] [131] VFR_HUD
[02:03:31.807762] [156] RADIO
[02:03:31.810684] [156] RADIO_STATUS
[02:03:32.292852] [134] BATTERY_STATUS
[02:03:32.726901] [157] RADIO
[02:03:32.729810] [157] RADIO_STATUS
[02:03:32.968004] [137] VFR_HUD
[02:03:33.202917] [138] HEARTBEAT
[02:03:33.876005] [158] RADIO
[02:03:33.878975] [158] RADIO_STATUS
[02:03:34.238001] [140] HEARTBEAT
[02:03:34.245133] [141] ATTITUDE_TARGET
[02:03:34.589909] [142] VFR_HUD
[02:03:34.796164] [159] RADIO
[02:03:34.799122] [159] RADIO_STATUS
[02:03:35.142432] [143] HEARTBEAT
[02:03:35.377347] [144] VFR_HUD
[02:03:35.836325] [160] RADIO
[02:03:35.839318] [160] RADIO_STATUS
[02:03:36.351484] [147] BATTERY_STATUS
[02:03:36.361267] [148] ATTITUDE_TARGET
[02:03:36.364443] [149] VFR_HUD
[02:03:36.755470] [161] RADIO
[02:03:36.758395] [161] RADIO_STATUS
[02:03:36.985614] [150] VFR_HUD
[02:03:37.784642] [162] RADIO
[02:03:37.787592] [162] RADIO_STATUS
[02:03:37.905746] [152] VFR_HUD
[02:03:38.595830] [155] VFR_HUD
[02:03:38.824928] [163] RADIO
[02:03:38.827791] [163] RADIO_STATUS
[02:03:39.182012] [156] HEARTBEAT
[02:03:39.854042] [164] RADIO
[02:03:39.857244] [164] RADIO_STATUS
[02:03:40.773160] [165] RADIO
[02:03:40.776137] [165] RADIO_STATUS
[02:03:41.019295] [163] VFR_HUD
[02:03:41.131470] [164] HEARTBEAT
[02:03:41.923290] [166] RADIO
[02:03:41.928705] [166] RADIO_STATUS
[02:03:42.282422] [166] HEARTBEAT
[02:03:42.290323] [167] ATTITUDE_TARGET
[02:03:42.733567] [168] VFR_HUD
[02:03:42.842421] [167] RADIO
[02:03:42.845389] [167] RADIO_STATUS
[02:03:43.188515] [169] HEARTBEAT
[02:03:43.423983] [170] VFR_HUD
[02:03:43.762562] [168] RADIO
[02:03:43.765572] [168] RADIO_STATUS
[02:03:44.365744] [173] BATTERY_STATUS
[02:03:44.372660] [174] ATTITUDE_TARGET
[02:03:44.403700] [175] VFR_HUD
[02:03:44.806765] [169] RADIO
[02:03:44.809703] [169] RADIO_STATUS
[02:03:45.031820] [176] VFR_HUD
[02:03:45.152955] [177] HEARTBEAT
[02:03:45.830898] [170] RADIO
[02:03:45.834039] [170] RADIO_STATUS
[02:03:45.879870] [178] VFR_HUD
[02:03:46.642015] [181] VFR_HUD
[02:03:46.871021] [171] RADIO
[02:03:46.873956] [171] RADIO_STATUS
[02:03:47.232118] [182] HEARTBEAT
[02:03:47.332102] [183] VFR_HUD
[02:03:47.796220] [172] RADIO
[02:03:47.798176] [172] RADIO_STATUS
[02:03:48.820385] [173] RADIO
[02:03:48.822371] [173] RADIO_STATUS
[02:03:48.952477] [191] VFR_HUD
[02:03:49.166489] [192] HEARTBEAT
[02:03:49.969582] [174] RADIO
[02:03:49.972549] [174] RADIO_STATUS
[02:03:50.549751] [196] VFR_HUD
[02:03:50.783700] [175] RADIO
[02:03:50.786696] [175] RADIO_STATUS
[02:03:51.808106] [176] RADIO
[02:03:51.810889] [176] RADIO_STATUS
[02:03:52.405069] [202] ATTITUDE_TARGET
[02:03:52.410397] [203] VFR_HUD
[02:03:52.853017] [177] RADIO
[02:03:52.856198] [177] RADIO_STATUS
[02:03:52.968123] [204] VFR_HUD
[02:03:53.198173] [205] HEARTBEAT
[02:03:53.767211] [206] VFR_HUD
[02:03:53.794188] [178] RADIO
[02:03:53.797166] [178] RADIO_STATUS
[02:03:54.801369] [179] RADIO
[02:03:54.804307] [179] RADIO_STATUS
[02:03:55.142436] [210] HEARTBEAT
[02:03:55.835486] [180] RADIO
[02:03:55.838438] [180] RADIO_STATUS
[02:03:56.864704] [181] RADIO
[02:03:56.867668] [181] RADIO_STATUS
[02:03:56.985790] [217] VFR_HUD
[02:03:57.210789] [218] HEARTBEAT
[02:03:57.799906] [219] VFR_HUD
[02:03:58.012976] [182] RADIO
[02:03:58.015917] [182] RADIO_STATUS
[02:03:58.143055] [220] HEARTBEAT
[02:03:58.150978] [221] ATTITUDE_TARGET
[02:03:58.595624] [222] VFR_HUD
[02:03:58.822368] [183] RADIO
[02:03:58.825095] [183] RADIO_STATUS
[02:03:59.279190] [223] HEARTBEAT
[02:03:59.512155] [224] VFR_HUD
[02:03:59.851210] [184] RADIO
[02:03:59.854199] [184] RADIO_STATUS
[02:04:00.449389] [228] ATTITUDE_TARGET
[02:04:00.454348] [229] VFR_HUD
[02:04:01.001439] [185] RADIO
[02:04:01.004385] [185] RADIO_STATUS
[02:04:01.122475] [231] HEARTBEAT
[02:04:01.811592] [232] VFR_HUD
[02:04:01.838667] [186] RADIO
[02:04:01.841601] [186] RADIO_STATUS
[02:04:02.840744] [187] RADIO
[02:04:02.843700] [187] RADIO_STATUS
[02:04:03.195822] [236] HEARTBEAT
[02:04:03.431856] [237] VFR_HUD
[02:04:03.879944] [188] RADIO
[02:04:03.882906] [188] RADIO_STATUS
[02:04:04.413111] [242] VFR_HUD
[02:04:04.909109] [189] RADIO
[02:04:04.912335] [189] RADIO_STATUS
[02:04:05.145184] [244] HEARTBEAT
[02:04:06.058242] [190] RADIO
[02:04:06.061204] [190] RADIO_STATUS
[02:04:06.188337] [246] HEARTBEAT
[02:04:06.196287] [247] ATTITUDE_TARGET
[02:04:06.867341] [191] RADIO
[02:04:06.870344] [191] RADIO_STATUS
[02:04:07.328725] [250] VFR_HUD
[02:04:07.897667] [192] RADIO
[02:04:07.900571] [192] RADIO_STATUS
[02:04:08.964734] [193] RADIO
[02:04:08.967733] [193] RADIO_STATUS
[02:04:09.172827] [3] HEARTBEAT
[02:04:09.857862] [4] VFR_HUD
[02:04:09.873878] [194] RADIO
[02:04:09.876829] [194] RADIO_STATUS
[02:04:10.886102] [195] RADIO
[02:04:10.889064] [195] RADIO_STATUS
[02:04:11.137226] [8] HEARTBEAT
[02:04:11.357157] [9] VFR_HUD
[02:04:11.931588] [196] RADIO
[02:04:11.934226] [196] RADIO_STATUS
[02:04:12.164408] [10] HEARTBEAT
[02:04:12.171302] [11] SYS_STATUS
[02:04:12.955450] [197] RADIO
[02:04:12.958442] [197] RADIO_STATUS
[02:04:13.076546] [15] VFR_HUD
[02:04:13.206528] [16] HEARTBEAT
[02:04:13.777565] [17] VFR_HUD
[02:04:13.874591] [198] RADIO
[02:04:13.877626] [198] RADIO_STATUS
[02:04:14.575773] [20] VFR_HUD
[02:04:15.023802] [199] RADIO
[02:04:15.026780] [199] RADIO_STATUS
[02:04:15.374910] [22] VFR_HUD
[02:04:15.943948] [200] RADIO
[02:04:15.946934] [200] RADIO_STATUS
[02:04:16.989144] [201] RADIO
[02:04:16.992102] [201] RADIO_STATUS
[02:04:17.903329] [30] VFR_HUD
[02:04:17.920309] [202] RADIO
[02:04:17.922272] [202] RADIO_STATUS
[02:04:18.932852] [203] RADIO
[02:04:18.935526] [203] RADIO_STATUS
[02:04:19.169600] [34] HEARTBEAT
[02:04:19.408580] [35] VFR_HUD
[02:04:19.977593] [204] RADIO
[02:04:19.980607] [204] RADIO_STATUS
[02:04:20.210758] [36] HEARTBEAT
[02:04:20.217851] [37] SYS_STATUS
[02:04:21.002030] [205] RADIO
[02:04:21.004792] [205] RADIO_STATUS
[02:04:21.122866] [41] VFR_HUD
[02:04:21.152069] [42] HEARTBEAT
[02:04:21.823947] [43] VFR_HUD
[02:04:21.922001] [206] RADIO
[02:04:21.924934] [206] RADIO_STATUS
[02:04:22.622185] [46] VFR_HUD
[02:04:22.961144] [207] RADIO
[02:04:22.964112] [207] RADIO_STATUS
[02:04:23.421218] [48] VFR_HUD
[02:04:23.990322] [208] RADIO
[02:04:23.993294] [208] RADIO_STATUS
[02:04:25.041483] [209] RADIO
[02:04:25.044436] [209] RADIO_STATUS
[02:04:25.725662] [56] VFR_HUD
[02:04:25.949659] [210] RADIO
[02:04:25.951587] [210] RADIO_STATUS
[02:04:26.534869] [59] VFR_HUD
[02:04:26.978813] [211] RADIO
[02:04:26.981795] [211] RADIO_STATUS
[02:04:27.214964] [60] HEARTBEAT
[02:04:28.019091] [212] RADIO
[02:04:28.021015] [212] RADIO_STATUS
[02:04:29.048255] [213] RADIO
[02:04:29.051459] [213] RADIO_STATUS
[02:04:29.164824] [70] HEARTBEAT
[02:04:29.748451] [71] VFR_HUD
[02:04:29.967351] [214] RADIO
[02:04:29.970298] [214] RADIO_STATUS
[02:04:30.326408] [72] HEARTBEAT
[02:04:30.334415] [73] ATTITUDE_TARGET
[02:04:30.547636] [74] VFR_HUD
[02:04:31.006532] [215] RADIO
[02:04:31.009514] [215] RADIO_STATUS
[02:04:31.127563] [75] HEARTBEAT
[02:04:32.035698] [216] RADIO
[02:04:32.038693] [216] RADIO_STATUS
[02:04:32.966933] [82] VFR_HUD
[02:04:33.075799] [217] RADIO
[02:04:33.078793] [217] RADIO_STATUS
[02:04:33.196847] [83] HEARTBEAT
[02:04:33.766955] [84] VFR_HUD
[02:04:33.995962] [218] RADIO
[02:04:33.999022] [218] RADIO_STATUS
[02:04:34.117017] [85] HEARTBEAT
[02:04:34.354229] [86] ATTITUDE_TARGET
[02:04:34.581084] [87] VFR_HUD
[02:04:35.024266] [219] RADIO
[02:04:35.027117] [219] RADIO_STATUS
[02:04:35.141244] [88] HEARTBEAT
[02:04:36.064342] [220] RADIO
[02:04:36.067233] [220] RADIO_STATUS
[02:04:37.093467] [221] RADIO
[02:04:37.096436] [221] RADIO_STATUS
[02:04:37.220541] [95] VFR_HUD
[02:04:37.223485] [96] HEARTBEAT
[02:04:37.799563] [97] VFR_HUD
[02:04:38.013576] [222] RADIO
[02:04:38.016569] [222] RADIO_STATUS
[02:04:38.594707] [100] VFR_HUD
[02:04:39.163886] [223] RADIO
[02:04:39.168869] [223] RADIO_STATUS
[02:04:39.197874] [101] HEARTBEAT
[02:04:40.082970] [224] RADIO
[02:04:40.085918] [224] RADIO_STATUS
[02:04:40.338109] [105] BATTERY_STATUS
[02:04:41.013136] [108] VFR_HUD
[02:04:41.123150] [109] HEARTBEAT
[02:04:41.150196] [225] RADIO
[02:04:41.153299] [225] RADIO_STATUS
[02:04:41.812276] [110] VFR_HUD
[02:04:42.047294] [226] RADIO
[02:04:42.050320] [226] RADIO_STATUS
[02:04:42.633617] [113] VFR_HUD
[02:04:43.071480] [227] RADIO
[02:04:43.074416] [227] RADIO_STATUS
[02:04:43.187480] [114] HEARTBEAT
[02:04:44.111882] [116] HEARTBEAT
[02:04:44.131711] [117] SYS_STATUS
[02:04:44.175674] [118] BATTERY_STATUS
[02:04:44.182683] [119] ATTITUDE_TARGET
[02:04:44.187639] [120] VFR_HUD
[02:04:44.190667] [228] RADIO
[02:04:44.193672] [228] RADIO_STATUS
[02:04:45.141803] [229] RADIO
[02:04:45.144802] [229] RADIO_STATUS
[02:04:45.267848] [121] VFR_HUD
[02:04:45.270870] [122] HEARTBEAT
[02:04:45.726923] [123] VFR_HUD
[02:04:46.061024] [230] RADIO
[02:04:46.063954] [230] RADIO_STATUS
[02:04:46.642245] [126] VFR_HUD
[02:04:47.106294] [231] RADIO
[02:04:47.109131] [231] RADIO_STATUS
[02:04:47.226176] [127] HEARTBEAT
[02:04:48.130279] [232] RADIO
[02:04:48.133242] [232] RADIO_STATUS
[02:04:48.941448] [136] VFR_HUD
[02:04:49.050388] [233] RADIO
[02:04:49.053371] [233] RADIO_STATUS
[02:04:49.177165] [137] HEARTBEAT
[02:04:50.089595] [234] RADIO
[02:04:50.092590] [234] RADIO_STATUS
[02:04:50.561693] [141] VFR_HUD
[02:04:51.117747] [235] RADIO
[02:04:51.120746] [235] RADIO_STATUS
[02:04:51.151920] [142] HEARTBEAT
[02:04:51.358791] [143] VFR_HUD
[02:04:52.166010] [144] HEARTBEAT
[02:04:52.177825] [145] SYS_STATUS
[02:04:52.185034] [236] RADIO
[02:04:52.187897] [236] RADIO_STATUS
[02:04:52.404994] [147] ATTITUDE_TARGET
[02:04:52.409903] [148] VFR_HUD
[02:04:52.972971] [149] VFR_HUD
[02:04:53.187087] [237] RADIO
[02:04:53.190039] [237] RADIO_STATUS
[02:04:53.303119] [150] HEARTBEAT
[02:04:53.779167] [151] VFR_HUD
[02:04:54.106186] [238] RADIO
[02:04:54.109169] [238] RADIO_STATUS
[02:04:54.687313] [154] VFR_HUD
[02:04:55.142385] [155] HEARTBEAT
[02:04:55.256374] [239] RADIO
[02:04:55.259370] [239] RADIO_STATUS
[02:04:56.176550] [240] RADIO
[02:04:56.179501] [240] RADIO_STATUS
[02:04:57.095681] [241] RADIO
[02:04:57.098646] [241] RADIO_STATUS
[02:04:57.139950] [163] HEARTBEAT
[02:04:58.145912] [165] HEARTBEAT
[02:04:58.153845] [166] ATTITUDE_TARGET
[02:04:58.245843] [242] RADIO
[02:04:58.248862] [242] RADIO_STATUS
[02:04:58.595927] [167] VFR_HUD
[02:04:59.165024] [243] RADIO
[02:04:59.168030] [243] RADIO_STATUS
[02:04:59.209169] [168] HEARTBEAT
[02:04:59.406145] [169] VFR_HUD
[02:05:00.213231] [170] HEARTBEAT
[02:05:00.221597] [171] SYS_STATUS
[02:05:00.315238] [244] RADIO
[02:05:00.317163] [244] RADIO_STATUS
[02:05:01.234385] [245] RADIO
[02:05:01.237942] [245] RADIO_STATUS
[02:05:01.360407] [175] VFR_HUD
[02:05:01.363408] [176] HEARTBEAT
[02:05:01.826482] [177] VFR_HUD
[02:05:02.153830] [246] RADIO
[02:05:02.156484] [246] RADIO_STATUS
[02:05:03.188887] [181] HEARTBEAT
[02:05:03.302672] [247] RADIO
[02:05:03.305634] [247] RADIO_STATUS
[02:05:03.341770] [182] VFR_HUD
[02:05:04.221811] [248] RADIO
[02:05:04.224811] [248] RADIO_STATUS
[02:05:04.927973] [188] VFR_HUD
[02:05:05.141940] [249] RADIO
[02:05:05.144974] [249] RADIO_STATUS
[02:05:05.258023] [189] HEARTBEAT
[02:05:06.209190] [250] RADIO
[02:05:06.212150] [250] RADIO_STATUS
[02:05:06.543568] [193] VFR_HUD
[02:05:07.210329] [251] RADIO
[02:05:07.213299] [251] RADIO_STATUS
[02:05:07.335319] [194] HEARTBEAT
[02:05:07.339319] [195] VFR_HUD
[02:05:08.360472] [252] RADIO
[02:05:08.363487] [252] RADIO_STATUS
[02:05:08.940617] [203] VFR_HUD
[02:05:09.279625] [253] RADIO
[02:05:09.282602] [253] RADIO_STATUS
[02:05:10.199790] [254] RADIO
[02:05:10.201733] [254] RADIO_STATUS
[02:05:11.125001] [209] HEARTBEAT
[02:05:11.243924] [255] RADIO
[02:05:11.246908] [255] RADIO_STATUS
[02:05:12.268107] [0] RADIO
[02:05:12.271258] [0] RADIO_STATUS
[02:05:12.973183] [216] VFR_HUD
[02:05:13.187199] [1] RADIO
[02:05:13.190142] [1] RADIO_STATUS
[02:05:13.303273] [217] HEARTBEAT
[02:05:14.254449] [2] RADIO
[02:05:14.257304] [2] RADIO_STATUS
[02:05:14.686451] [221] VFR_HUD
[02:05:15.151546] [222] HEARTBEAT
[02:05:15.255601] [3] RADIO
[02:05:15.258523] [3] RADIO_STATUS
[02:05:15.376530] [223] VFR_HUD
[02:05:16.175640] [4] RADIO
[02:05:16.178626] [4] RADIO_STATUS
[02:05:16.303799] [224] HEARTBEAT
[02:05:16.310761] [225] SYS_STATUS
[02:05:16.542746] [227] ATTITUDE_TARGET
[02:05:16.547718] [228] VFR_HUD
[02:05:16.986035] [229] VFR_HUD
[02:05:17.323842] [5] RADIO
[02:05:17.326804] [5] RADIO_STATUS
[02:05:17.806021] [231] VFR_HUD
[02:05:18.243991] [6] RADIO
[02:05:18.247059] [6] RADIO_STATUS
[02:05:18.595144] [234] VFR_HUD
[02:05:19.184275] [235] HEARTBEAT
[02:05:19.288282] [7] RADIO
[02:05:19.293364] [7] RADIO_STATUS
[02:05:19.404236] [236] VFR_HUD
[02:05:20.312365] [8] RADIO
[02:05:20.315419] [8] RADIO_STATUS
[02:05:21.235505] [9] RADIO_STATUS
[02:05:22.271722] [10] RADIO
[02:05:22.274652] [10] RADIO_STATUS
[02:05:23.188030] [248] HEARTBEAT
[02:05:23.301864] [11] RADIO
[02:05:23.303876] [11] RADIO_STATUS
[02:05:23.341739] [249] VFR_HUD
[02:05:24.221048] [12] RADIO
[02:05:24.223953] [12] RADIO_STATUS
[02:05:24.350068] [250] HEARTBEAT
[02:05:24.356046] [251] SYS_STATUS
[02:05:24.588177] [253] ATTITUDE_TARGET
[02:05:24.593152] [254] VFR_HUD
[02:05:24.921146] [255] VFR_HUD
[02:05:25.152165] [0] HEARTBEAT
[02:05:25.370238] [13] RADIO
[02:05:25.373177] [13] RADIO_STATUS
[02:05:25.721239] [1] VFR_HUD
[02:05:26.290369] [14] RADIO
[02:05:26.293646] [14] RADIO_STATUS
[02:05:26.640542] [4] VFR_HUD
[02:05:27.230533] [5] HEARTBEAT
[02:05:27.357531] [15] RADIO
[02:05:27.360483] [15] RADIO_STATUS
[02:05:28.316672] [16] RADIO
[02:05:28.319772] [16] RADIO_STATUS
[02:05:28.939788] [14] VFR_HUD
[02:05:29.164873] [15] HEARTBEAT
[02:05:29.278789] [17] RADIO
[02:05:29.281852] [17] RADIO_STATUS
[02:05:30.328000] [17] HEARTBEAT
[02:05:30.336031] [18] ATTITUDE_TARGET
[02:05:30.428022] [18] RADIO
[02:05:30.430957] [18] RADIO_STATUS
[02:05:30.549021] [19] VFR_HUD
[02:05:31.243104] [19] RADIO
[02:05:31.246122] [19] RADIO_STATUS
[02:05:31.364193] [21] VFR_HUD
[02:05:32.267289] [20] RADIO
[02:05:32.270428] [20] RADIO_STATUS
[02:05:32.411310] [24] BATTERY_STATUS
[02:05:32.419277] [25] ATTITUDE_TARGET
[02:05:32.449280] [26] VFR_HUD
[02:05:33.078343] [27] VFR_HUD
[02:05:33.192439] [28] HEARTBEAT
[02:05:33.416478] [21] RADIO
[02:05:33.419417] [21] RADIO_STATUS
[02:05:33.767505] [29] VFR_HUD
[02:05:34.253586] [22] RADIO
[02:05:34.256493] [22] RADIO_STATUS
[02:05:35.141764] [33] HEARTBEAT
[02:05:35.255700] [23] RADIO
[02:05:35.258670] [23] RADIO_STATUS
[02:05:36.383890] [24] RADIO
[02:05:36.386905] [24] RADIO_STATUS
[02:05:36.986036] [40] VFR_HUD
[02:05:37.211662] [41] HEARTBEAT
[02:05:37.324013] [25] RADIO
[02:05:37.327053] [25] RADIO_STATUS
[02:05:37.795146] [42] VFR_HUD
[02:05:38.144269] [43] HEARTBEAT
[02:05:38.152205] [44] ATTITUDE_TARGET
[02:05:38.369255] [26] RADIO
[02:05:38.372173] [26] RADIO_STATUS
[02:05:38.594305] [45] VFR_HUD
[02:05:39.288367] [27] RADIO
[02:05:39.291344] [27] RADIO_STATUS
[02:05:39.415572] [47] VFR_HUD
[02:05:40.312543] [28] RADIO
[02:05:40.315525] [28] RADIO_STATUS
[02:05:41.129726] [54] HEARTBEAT
[02:05:41.461770] [29] RADIO
[02:05:41.464798] [29] RADIO_STATUS
[02:05:41.811795] [55] VFR_HUD
[02:05:42.380869] [30] RADIO
[02:05:42.383841] [30] RADIO_STATUS
[02:05:42.730965] [58] VFR_HUD
[02:05:43.196038] [59] HEARTBEAT
[02:05:43.300033] [31] RADIO
[02:05:43.302989] [31] RADIO_STATUS
[02:05:43.432109] [60] VFR_HUD
[02:05:44.348002] [32] RADIO
[02:05:44.348227] [32] RADIO_STATUS
[02:05:45.265417] [66] VFR_HUD
[02:05:45.268381] [67] HEARTBEAT
[02:05:45.368746] [33] RADIO
[02:05:45.371347] [33] RADIO_STATUS
[02:05:46.413561] [34] RADIO
[02:05:46.416577] [34] RADIO_STATUS
[02:05:46.528617] [71] VFR_HUD
[02:05:47.328020] [73] VFR_HUD
[02:05:47.354772] [35] RADIO
[02:05:47.357813] [35] RADIO_STATUS
[02:05:48.356897] [36] RADIO
[02:05:48.360159] [36] RADIO_STATUS
[02:05:49.172185] [82] HEARTBEAT
[02:05:49.506206] [37] RADIO
[02:05:49.509178] [37] RADIO_STATUS
[02:05:49.856207] [83] VFR_HUD
[02:05:50.425294] [38] RADIO
[02:05:50.428285] [38] RADIO_STATUS
[02:05:51.121472] [87] HEARTBEAT
[02:05:51.345510] [39] RADIO
[02:05:51.348492] [39] RADIO_STATUS
[02:05:52.166348] [89] HEARTBEAT
[02:05:52.170638] [90] SYS_STATUS
[02:05:52.412591] [40] RADIO
[02:05:52.415586] [40] RADIO_STATUS
[02:05:53.075823] [94] VFR_HUD
[02:05:53.191786] [95] HEARTBEAT
[02:05:53.414805] [41] RADIO
[02:05:53.417754] [41] RADIO_STATUS
[02:05:53.776839] [96] VFR_HUD
[02:05:54.234915] [97] HEARTBEAT
[02:05:54.242912] [98] ATTITUDE_TARGET
[02:05:54.454925] [42] RADIO
[02:05:54.457969] [42] RADIO_STATUS
[02:05:54.574958] [99] VFR_HUD
[02:05:55.375188] [101] VFR_HUD
[02:05:55.402146] [43] RADIO
[02:05:55.405130] [43] RADIO_STATUS
[02:05:56.383330] [44] RADIO
[02:05:56.386279] [44] RADIO_STATUS
[02:05:57.219535] [108] HEARTBEAT
[02:05:57.553523] [45] RADIO
[02:05:57.556533] [45] RADIO_STATUS
[02:05:58.363538] [46] RADIO
[02:05:58.366478] [46] RADIO_STATUS
[02:05:59.169712] [113] HEARTBEAT
[02:05:59.392717] [47] RADIO
[02:05:59.395686] [47] RADIO_STATUS
[02:05:59.442708] [114] VFR_HUD
[02:06:00.210917] [115] HEARTBEAT
[02:06:00.217828] [116] SYS_STATUS
[02:06:00.460966] [48] RADIO
[02:06:00.463878] [48] RADIO_STATUS
[02:06:01.129075] [120] VFR_HUD
[02:06:01.132017] [121] HEARTBEAT
[02:06:01.461997] [49] RADIO
[02:06:01.465056] [49] RADIO_STATUS
[02:06:01.824055] [122] VFR_HUD
[02:06:02.382150] [50] RADIO
[02:06:02.385090] [50] RADIO_STATUS
[02:06:03.422376] [127] VFR_HUD
[02:06:03.454574] [51] RADIO
[02:06:03.457407] [51] RADIO_STATUS
[02:06:04.451524] [52] RADIO
[02:06:04.454503] [52] RADIO_STATUS
[02:06:05.154073] [134] HEARTBEAT
[02:06:05.600735] [53] RADIO
[02:06:05.603714] [53] RADIO_STATUS
[02:06:05.722741] [135] VFR_HUD
[02:06:06.520870] [54] RADIO
[02:06:06.523940] [54] RADIO_STATUS
[02:06:06.570878] [138] VFR_HUD
[02:06:07.222048] [139] HEARTBEAT
[02:06:07.441064] [55] RADIO
[02:06:07.444002] [55] RADIO_STATUS
[02:06:08.590234] [56] RADIO
[02:06:08.593205] [56] RADIO_STATUS
[02:06:09.167382] [149] HEARTBEAT
[02:06:09.510455] [57] RADIO
[02:06:09.513398] [57] RADIO_STATUS
[02:06:09.756469] [150] VFR_HUD
[02:06:10.330602] [151] HEARTBEAT
[02:06:10.338578] [152] ATTITUDE_TARGET
[02:06:10.430557] [58] RADIO
[02:06:10.433890] [58] RADIO_STATUS
[02:06:10.586787] [153] VFR_HUD
[02:06:11.140665] [154] HEARTBEAT
[02:06:11.470940] [155] VFR_HUD
[02:06:11.503030] [59] RADIO
[02:06:11.505962] [59] RADIO_STATUS
[02:06:12.294894] [158] BATTERY_STATUS
[02:06:12.498904] [60] RADIO
[02:06:12.501906] [60] RADIO_STATUS
[02:06:12.637134] [159] ATTITUDE_TARGET
[02:06:12.640995] [160] VFR_HUD
[02:06:13.201043] [162] HEARTBEAT
[02:06:13.649224] [61] RADIO
[02:06:13.652203] [61] RADIO_STATUS
[02:06:13.770187] [163] VFR_HUD
[02:06:14.115187] [164] HEARTBEAT
[02:06:14.459178] [62] RADIO
[02:06:14.462148] [62] RADIO_STATUS
[02:06:14.591276] [166] VFR_HUD
[02:06:15.145342] [167] HEARTBEAT
[02:06:15.391349] [168] VFR_HUD
[02:06:15.488393] [63] RADIO
[02:06:15.491326] [63] RADIO_STATUS
[02:06:16.321718] [171] BATTERY_STATUS
[02:06:16.329607] [172] ATTITUDE_TARGET
[02:06:16.359545] [173] VFR_HUD
[02:06:16.527683] [64] RADIO
[02:06:16.530536] [64] RADIO_STATUS
[02:06:17.223756] [175] HEARTBEAT
[02:06:17.557827] [65] RADIO
[02:06:17.560720] [65] RADIO_STATUS
[02:06:17.803804] [176] VFR_HUD
[02:06:18.477063] [66] RADIO
[02:06:18.479963] [66] RADIO_STATUS
[02:06:18.597980] [179] VFR_HUD
[02:06:19.173228] [180] HEARTBEAT
[02:06:19.544140] [67] RADIO
[02:06:19.547131] [67] RADIO_STATUS
[02:06:20.546328] [68] RADIO
[02:06:20.549297] [68] RADIO_STATUS
[02:06:20.683357] [185] ATTITUDE_TARGET
[02:06:20.688300] [186] VFR_HUD
[02:06:21.695491] [69] RADIO
[02:06:21.698514] [69] RADIO_STATUS
[02:06:22.505619] [70] RADIO
[02:06:22.508854] [70] RADIO_STATUS
[02:06:22.626662] [192] VFR_HUD
[02:06:23.191793] [193] HEARTBEAT
[02:06:23.535801] [71] RADIO
[02:06:23.538729] [71] RADIO_STATUS
[02:06:24.362960] [198] ATTITUDE_TARGET
[02:06:24.368002] [199] VFR_HUD
[02:06:24.574993] [72] RADIO
[02:06:24.578132] [72] RADIO_STATUS
[02:06:25.271270] [201] HEARTBEAT
[02:06:25.495140] [73] RADIO
[02:06:25.498187] [73] RADIO_STATUS
[02:06:25.725289] [202] VFR_HUD
[02:06:26.524637] [74] RADIO
[02:06:26.527396] [74] RADIO_STATUS
[02:06:26.574442] [205] VFR_HUD
[02:06:27.220849] [206] HEARTBEAT
[02:06:27.564592] [75] RADIO
[02:06:27.567563] [75] RADIO_STATUS
[02:06:28.211063] [213] VFR_HUD
[02:06:28.213755] [214] SYSTEM_TIME
[02:06:28.593640] [76] RADIO
[02:06:28.596631] [76] RADIO_STATUS
[02:06:28.944690] [215] VFR_HUD
[02:06:29.169969] [216] HEARTBEAT
[02:06:29.518836] [77] RADIO
[02:06:29.521765] [77] RADIO_STATUS
[02:06:29.863909] [217] VFR_HUD
[02:06:30.554375] [220] VFR_HUD
[02:06:30.589084] [78] RADIO
[02:06:30.589602] [78] RADIO_STATUS
[02:06:31.375217] [222] VFR_HUD
[02:06:31.582387] [79] RADIO
[02:06:31.585184] [79] RADIO_STATUS
[02:06:32.409367] [226] ATTITUDE_TARGET
[02:06:32.414422] [227] VFR_HUD
[02:06:32.627364] [80] RADIO
[02:06:32.630376] [80] RADIO_STATUS
[02:06:32.972547] [228] VFR_HUD
[02:06:33.308539] [229] HEARTBEAT
[02:06:33.547570] [81] RADIO
[02:06:33.550552] [81] RADIO_STATUS
[02:06:33.772573] [230] VFR_HUD
[02:06:34.573788] [82] RADIO
[02:06:34.574701] [82] RADIO_STATUS
[02:06:34.691798] [233] VFR_HUD
[02:06:35.147868] [234] HEARTBEAT
[02:06:35.616901] [83] RADIO
[02:06:35.619887] [83] RADIO_STATUS
[02:06:36.641161] [84] RADIO
[02:06:36.644082] [84] RADIO_STATUS
[02:06:37.561201] [85] RADIO
[02:06:37.564156] [85] RADIO_STATUS
[02:06:37.923428] [243] VFR_HUD
[02:06:38.151335] [244] HEARTBEAT
[02:06:38.158400] [245] ATTITUDE_TARGET
[02:06:38.601399] [246] VFR_HUD
[02:06:38.710403] [86] RADIO
[02:06:38.713358] [86] RADIO_STATUS
[02:06:39.185672] [247] HEARTBEAT
[02:06:39.520657] [248] VFR_HUD
[02:06:39.629648] [87] RADIO
[02:06:39.632542] [87] RADIO_STATUS
[02:06:40.217650] [249] HEARTBEAT
[02:06:40.224691] [250] SYS_STATUS
[02:06:40.343647] [251] BATTERY_STATUS
[02:06:40.456768] [252] ATTITUDE_TARGET
[02:06:40.460655] [253] VFR_HUD
[02:06:40.677682] [88] RADIO
[02:06:40.680745] [88] RADIO_STATUS
[02:06:41.019816] [254] VFR_HUD
[02:06:41.588867] [89] RADIO
[02:06:41.591839] [89] RADIO_STATUS
[02:06:41.818959] [0] VFR_HUD
[02:06:42.618011] [90] RADIO
[02:06:42.620954] [90] RADIO_STATUS
[02:06:42.739083] [3] VFR_HUD
[02:06:43.204309] [4] HEARTBEAT
[02:06:43.658183] [91] RADIO
[02:06:43.661567] [91] RADIO_STATUS
[02:06:44.114334] [6] HEARTBEAT
[02:06:44.687311] [92] RADIO
[02:06:44.690267] [92] RADIO_STATUS
[02:06:45.038437] [11] VFR_HUD
[02:06:45.153411] [12] HEARTBEAT
[02:06:45.607467] [93] RADIO
[02:06:45.610413] [93] RADIO_STATUS
[02:06:46.197573] [14] HEARTBEAT
[02:06:46.205607] [15] ATTITUDE_TARGET
[02:06:46.658590] [94] RADIO
[02:06:46.661704] [94] RADIO_STATUS
[02:06:47.232718] [17] HEARTBEAT
[02:06:47.337835] [18] VFR_HUD
[02:06:47.676799] [95] RADIO
[02:06:47.679750] [95] RADIO_STATUS
[02:06:48.264928] [19] HEARTBEAT
[02:06:48.271820] [20] SYS_STATUS
[02:06:48.510880] [23] ATTITUDE_TARGET
[02:06:48.515905] [24] VFR_HUD
[02:06:48.518892] [25] SYSTEM_TIME
[02:06:48.716924] [96] RADIO
[02:06:48.719877] [96] RADIO_STATUS
[02:06:49.637599] [97] RADIO
[02:06:49.640065] [97] RADIO_STATUS
[02:06:49.769028] [28] VFR_HUD
[02:06:50.557290] [31] VFR_HUD
[02:06:50.666158] [98] RADIO
[02:06:50.669267] [98] RADIO_STATUS
[02:06:51.147315] [32] HEARTBEAT
[02:06:51.366328] [33] VFR_HUD
[02:06:51.705341] [99] RADIO
[02:06:51.708290] [99] RADIO_STATUS
[02:06:52.734776] [100] RADIO
[02:06:52.737527] [100] RADIO_STATUS
[02:06:53.215653] [40] HEARTBEAT
[02:06:53.654656] [101] RADIO
[02:06:53.657691] [101] RADIO_STATUS
[02:06:54.705913] [102] RADIO
[02:06:54.708832] [102] RADIO_STATUS
[02:06:55.151177] [45] HEARTBEAT
[02:06:55.385048] [46] VFR_HUD
[02:06:55.724015] [103] RADIO
[02:06:55.726969] [103] RADIO_STATUS
[02:06:56.763239] [104] RADIO
[02:06:56.766283] [104] RADIO_STATUS
[02:06:57.688416] [105] RADIO
[02:06:57.691384] [105] RADIO_STATUS
[02:06:57.913451] [54] VFR_HUD
[02:06:58.614617] [57] VFR_HUD
[02:06:58.712607] [106] RADIO
[02:06:58.715559] [106] RADIO_STATUS
[02:06:59.193648] [58] HEARTBEAT
[02:06:59.413651] [59] VFR_HUD
[02:06:59.752673] [107] RADIO
[02:06:59.755630] [107] RADIO_STATUS
[02:07:00.781846] [108] RADIO
[02:07:00.784801] [108] RADIO_STATUS
[02:07:01.128905] [66] HEARTBEAT
[02:07:01.701934] [109] RADIO
[02:07:01.705105] [109] RADIO_STATUS
[02:07:02.292089] [68] HEARTBEAT
[02:07:02.299143] [69] ATTITUDE_TARGET
[02:07:02.633192] [70] VFR_HUD
[02:07:02.747193] [110] RADIO
[02:07:02.750377] [110] RADIO_STATUS
[02:07:03.198280] [71] HEARTBEAT
[02:07:03.328237] [72] VFR_HUD
[02:07:03.771306] [111] RADIO
[02:07:03.774251] [111] RADIO_STATUS
[02:07:04.375406] [75] BATTERY_STATUS
[02:07:04.384736] [76] ATTITUDE_TARGET
[02:07:04.413393] [77] VFR_HUD
[02:07:04.691686] [112] RADIO
[02:07:04.694556] [112] RADIO_STATUS
[02:07:05.042485] [78] VFR_HUD
[02:07:05.157566] [79] HEARTBEAT
[02:07:05.732673] [80] VFR_HUD
[02:07:05.764702] [113] RADIO
[02:07:05.767654] [113] RADIO_STATUS
[02:07:06.652940] [83] VFR_HUD
[02:07:06.761765] [114] RADIO
[02:07:06.764756] [114] RADIO_STATUS
[02:07:07.233766] [84] HEARTBEAT
[02:07:07.341889] [85] VFR_HUD
[02:07:07.910962] [115] RADIO
[02:07:07.912953] [115] RADIO_STATUS
[02:07:08.830183] [116] RADIO
[02:07:08.833137] [116] RADIO_STATUS
[02:07:08.951236] [93] VFR_HUD
[02:07:09.176191] [94] HEARTBEAT
[02:07:09.750287] [117] RADIO
[02:07:09.752277] [117] RADIO_STATUS
[02:07:10.339421] [96] HEARTBEAT
[02:07:10.347436] [97] ATTITUDE_TARGET
[02:07:10.560484] [98] VFR_HUD
[02:07:10.899592] [118] RADIO
[02:07:10.902730] [118] RADIO_STATUS
[02:07:11.245657] [99] HEARTBEAT
[02:07:11.819673] [119] RADIO
[02:07:11.821640] [119] RADIO_STATUS
[02:07:12.460805] [105] VFR_HUD
[02:07:12.738858] [120] RADIO
[02:07:12.741809] [120] RADIO_STATUS
[02:07:13.204972] [107] HEARTBEAT
[02:07:13.778962] [108] VFR_HUD
[02:07:13.806031] [121] RADIO
[02:07:13.809001] [121] RADIO_STATUS
[02:07:14.699221] [111] VFR_HUD
[02:07:14.808150] [122] RADIO
[02:07:14.811152] [122] RADIO_STATUS
[02:07:15.154606] [112] HEARTBEAT
[02:07:15.389374] [113] VFR_HUD
[02:07:15.848352] [123] RADIO
[02:07:15.851294] [123] RADIO_STATUS
[02:07:16.877483] [124] RADIO
[02:07:16.880387] [124] RADIO_STATUS
[02:07:17.233623] [119] VFR_HUD
[02:07:17.237001] [120] HEARTBEAT
[02:07:17.797633] [125] RADIO
[02:07:17.799691] [125] RADIO_STATUS
[02:07:18.156882] [122] HEARTBEAT
[02:07:18.164807] [123] ATTITUDE_TARGET
[02:07:18.607805] [124] VFR_HUD
[02:07:18.837001] [126] RADIO
[02:07:18.839797] [126] RADIO_STATUS
[02:07:19.302910] [125] HEARTBEAT
[02:07:19.866011] [127] RADIO
[02:07:19.868987] [127] RADIO_STATUS
[02:07:20.463190] [130] ATTITUDE_TARGET
[02:07:20.468056] [131] VFR_HUD
[02:07:20.785175] [128] RADIO
[02:07:20.788165] [128] RADIO_STATUS
[02:07:21.037215] [132] VFR_HUD
[02:07:21.825310] [134] VFR_HUD
[02:07:21.836265] [129] RADIO
[02:07:21.839533] [129] RADIO_STATUS
[02:07:22.854407] [130] RADIO
[02:07:22.857401] [130] RADIO_STATUS
[02:07:23.200569] [138] HEARTBEAT
[02:07:23.434469] [139] VFR_HUD
[02:07:23.894535] [131] RADIO
[02:07:23.897615] [131] RADIO_STATUS
[02:07:24.132710] [140] HEARTBEAT
[02:07:24.139634] [141] SYS_STATUS
[02:07:24.923741] [132] RADIO
[02:07:24.926715] [132] RADIO_STATUS
[02:07:25.055781] [145] VFR_HUD
[02:07:25.168810] [146] HEARTBEAT
[02:07:25.733939] [147] VFR_HUD
[02:07:25.842929] [133] RADIO
[02:07:25.845888] [133] RADIO_STATUS
[02:07:26.555052] [150] VFR_HUD
[02:07:26.883090] [134] RADIO
[02:07:26.886032] [134] RADIO_STATUS
[02:07:27.343219] [152] VFR_HUD
[02:07:27.807236] [135] RADIO
[02:07:27.810171] [135] RADIO_STATUS
[02:07:28.832406] [136] RADIO
[02:07:28.834358] [136] RADIO_STATUS
[02:07:28.952449] [160] VFR_HUD
[02:07:29.177497] [161] HEARTBEAT
[02:07:29.876712] [137] RADIO
[02:07:29.879534] [137] RADIO_STATUS
[02:07:30.900750] [138] RADIO
[02:07:30.903779] [138] RADIO_STATUS
[02:07:31.480928] [167] VFR_HUD
[02:07:31.819893] [139] RADIO
[02:07:31.822882] [139] RADIO_STATUS
[02:07:32.177977] [168] HEARTBEAT
[02:07:32.184986] [169] SYS_STATUS
[02:07:32.970097] [140] RADIO
[02:07:32.973061] [140] RADIO_STATUS
[02:07:33.102234] [173] VFR_HUD
[02:07:33.792523] [175] VFR_HUD
[02:07:33.889264] [141] RADIO
[02:07:33.891250] [141] RADIO_STATUS
[02:07:34.249418] [176] HEARTBEAT
[02:07:34.256318] [177] ATTITUDE_TARGET
[02:07:34.699452] [178] VFR_HUD
[02:07:34.933440] [142] RADIO
[02:07:34.936427] [142] RADIO_STATUS
[02:07:35.389586] [180] VFR_HUD
[02:07:35.848547] [143] RADIO
[02:07:35.851565] [143] RADIO_STATUS
[02:07:36.877755] [144] RADIO
[02:07:36.880742] [144] RADIO_STATUS
[02:07:36.998778] [186] VFR_HUD
[02:07:37.119824] [187] HEARTBEAT
[02:07:37.819946] [188] VFR_HUD
[02:07:37.922934] [145] RADIO
[02:07:37.925860] [145] RADIO_STATUS
[02:07:38.948093] [146] RADIO
[02:07:38.951084] [146] RADIO_STATUS
[02:07:39.199046] [192] HEARTBEAT
[02:07:39.418188] [193] VFR_HUD
[02:07:39.867263] [147] RADIO
[02:07:39.870183] [147] RADIO_STATUS
[02:07:40.225330] [194] HEARTBEAT
[02:07:40.232351] [195] SYS_STATUS
[02:07:41.016483] [148] RADIO
[02:07:41.019505] [148] RADIO_STATUS
[02:07:41.143503] [199] VFR_HUD
[02:07:41.146463] [200] HEARTBEAT
[02:07:41.936613] [149] RADIO
[02:07:41.939556] [149] RADIO_STATUS
[02:07:42.517693] [204] VFR_HUD
[02:07:42.975776] [150] RADIO
[02:07:42.978740] [150] RADIO_STATUS
[02:07:43.436836] [206] VFR_HUD
[02:07:44.005984] [151] RADIO
[02:07:44.008969] [151] RADIO_STATUS
[02:07:44.925091] [152] RADIO
[02:07:44.928023] [152] RADIO_STATUS
[02:07:45.166173] [213] HEARTBEAT
[02:07:45.736492] [214] VFR_HUD
[02:07:45.965280] [153] RADIO
[02:07:45.968254] [153] RADIO_STATUS
[02:07:46.994466] [154] RADIO
[02:07:46.997500] [154] RADIO_STATUS
[02:07:47.111517] [218] HEARTBEAT
[02:07:47.914682] [155] RADIO
[02:07:47.917613] [155] RADIO_STATUS
[02:07:48.290737] [222] BATTERY_STATUS
[02:07:48.292634] [223] EXTENDED_SYS_STATE
[02:07:48.300655] [224] ATTITUDE_TARGET
[02:07:48.305744] [225] VFR_HUD
[02:07:48.308607] [226] SYSTEM_TIME
[02:07:49.063781] [156] RADIO
[02:07:49.066779] [156] RADIO_STATUS
[02:07:49.180887] [228] HEARTBEAT
[02:07:49.769891] [229] VFR_HUD
[02:07:49.983972] [157] RADIO
[02:07:49.986892] [157] RADIO_STATUS
[02:07:50.564078] [232] VFR_HUD
[02:07:50.909073] [158] RADIO
[02:07:50.912016] [158] RADIO_STATUS
[02:07:51.149234] [233] HEARTBEAT
[02:07:51.484187] [234] VFR_HUD
[02:07:52.053261] [159] RADIO
[02:07:52.056232] [159] RADIO_STATUS
[02:07:52.307348] [237] BATTERY_STATUS
[02:07:52.972417] [160] RADIO
[02:07:52.975428] [160] RADIO_STATUS
[02:07:53.218631] [241] HEARTBEAT
[02:07:53.783708] [242] VFR_HUD
[02:07:54.011586] [161] RADIO
[02:07:54.014719] [161] RADIO_STATUS
[02:07:54.603733] [245] VFR_HUD
[02:07:54.936900] [162] RADIO
[02:07:54.939747] [162] RADIO_STATUS
[02:07:55.157807] [246] HEARTBEAT
[02:07:55.403815] [247] VFR_HUD
[02:07:55.960899] [163] RADIO
[02:07:55.963904] [163] RADIO_STATUS
[02:07:56.335005] [250] BATTERY_STATUS
[02:07:56.343030] [251] ATTITUDE_TARGET
[02:07:56.372950] [252] VFR_HUD
[02:07:57.002081] [253] VFR_HUD
[02:07:57.110092] [164] RADIO
[02:07:57.113055] [164] RADIO_STATUS
[02:07:57.237170] [254] HEARTBEAT
[02:07:57.823188] [255] VFR_HUD
[02:07:58.030242] [165] RADIO
[02:07:58.034300] [165] RADIO_STATUS
[02:07:58.390273] [0] HEARTBEAT
[02:07:58.398273] [1] ATTITUDE_TARGET
[02:07:58.611287] [2] VFR_HUD
[02:07:58.950375] [166] RADIO
[02:07:58.953290] [166] RADIO_STATUS
[02:07:59.186669] [3] HEARTBEAT
[02:07:59.996631] [167] RADIO
[02:07:59.998570] [167] RADIO_STATUS
[02:08:01.019802] [168] RADIO
[02:08:01.022732] [168] RADIO_STATUS
[02:08:01.069776] [10] VFR_HUD
[02:08:01.135770] [11] HEARTBEAT
[02:08:01.841876] [12] VFR_HUD
[02:08:02.064901] [169] RADIO
[02:08:02.067885] [169] RADIO_STATUS
[02:08:02.519950] [15] VFR_HUD
[02:08:02.979037] [170] RADIO
[02:08:02.982030] [170] RADIO_STATUS
[02:08:03.205281] [16] HEARTBEAT
[02:08:04.008201] [171] RADIO
[02:08:04.011158] [171] RADIO_STATUS
[02:08:04.376314] [21] ATTITUDE_TARGET
[02:08:04.381231] [22] VFR_HUD
[02:08:04.939337] [23] VFR_HUD
[02:08:05.157431] [172] RADIO
[02:08:05.160280] [172] RADIO_STATUS
[02:08:05.275464] [24] HEARTBEAT
[02:08:05.739478] [25] VFR_HUD
[02:08:06.078563] [173] RADIO
[02:08:06.081554] [173] RADIO_STATUS
[02:08:06.997735] [174] RADIO
[02:08:07.000673] [174] RADIO_STATUS
[02:08:07.113772] [29] HEARTBEAT
[02:08:08.037894] [175] RADIO
[02:08:08.039807] [175] RADIO_STATUS
[02:08:08.958049] [38] VFR_HUD
[02:08:08.986681] [176] RADIO
[02:08:08.988127] [176] RADIO_STATUS
[02:08:09.183209] [39] HEARTBEAT
[02:08:09.877215] [40] VFR_HUD
[02:08:09.986172] [177] RADIO
[02:08:09.989176] [177] RADIO_STATUS
[02:08:11.025379] [178] RADIO
[02:08:11.029886] [178] RADIO_STATUS
[02:08:11.151479] [44] HEARTBEAT
[02:08:12.054559] [179] RADIO
[02:08:12.057552] [179] RADIO_STATUS
[02:08:12.183597] [46] HEARTBEAT
[02:08:12.190580] [47] SYS_STATUS
[02:08:12.422613] [49] ATTITUDE_TARGET
[02:08:12.429431] [50] VFR_HUD
[02:08:13.204838] [180] RADIO
[02:08:13.207765] [180] RADIO_STATUS
[02:08:14.013972] [181] RADIO
[02:08:14.016874] [181] RADIO_STATUS
[02:08:15.044020] [182] RADIO
[02:08:15.045959] [182] RADIO_STATUS
[02:08:15.169046] [57] HEARTBEAT
[02:08:16.083181] [183] RADIO
[02:08:16.086185] [183] RADIO_STATUS
[02:08:16.374262] [63] VFR_HUD
[02:08:17.003303] [64] VFR_HUD
[02:08:17.111328] [184] RADIO
[02:08:17.114314] [184] RADIO_STATUS
[02:08:17.237495] [65] HEARTBEAT
[02:08:17.921463] [66] VFR_HUD
[02:08:18.030455] [185] RADIO
[02:08:18.033622] [185] RADIO_STATUS
[02:08:18.160785] [67] HEARTBEAT
[02:08:18.168582] [68] ATTITUDE_TARGET
[02:08:18.622537] [69] VFR_HUD
[02:08:19.075625] [186] RADIO
[02:08:19.078666] [186] RADIO_STATUS
[02:08:19.186708] [70] HEARTBEAT
[02:08:19.426714] [71] VFR_HUD
[02:08:20.099928] [187] RADIO
[02:08:20.102890] [187] RADIO_STATUS
[02:08:20.228858] [72] HEARTBEAT
[02:08:20.234943] [73] SYS_STATUS
[02:08:20.467981] [75] ATTITUDE_TARGET
[02:08:20.471884] [76] VFR_HUD
[02:08:20.926993] [77] VFR_HUD
[02:08:21.250040] [188] RADIO
[02:08:21.253013] [188] RADIO_STATUS
[02:08:22.065225] [189] RADIO
[02:08:22.068121] [189] RADIO_STATUS
[02:08:22.520295] [82] VFR_HUD
[02:08:23.089295] [190] RADIO
[02:08:23.092269] [190] RADIO_STATUS
[02:08:23.123374] [83] HEARTBEAT
[02:08:23.341357] [84] VFR_HUD
[02:08:24.238512] [191] RADIO
[02:08:24.241448] [191] RADIO_STATUS
[02:08:24.938672] [90] VFR_HUD
[02:08:25.158680] [192] RADIO
[02:08:25.161631] [192] RADIO_STATUS
[02:08:25.192648] [91] HEARTBEAT
[02:08:26.077782] [193] RADIO
[02:08:26.080744] [193] RADIO_STATUS
[02:08:26.657962] [95] VFR_HUD
[02:08:27.122977] [96] HEARTBEAT
[02:08:27.144902] [194] RADIO
[02:08:27.147953] [194] RADIO_STATUS
[02:08:27.347980] [97] VFR_HUD
[02:08:28.146051] [195] RADIO
[02:08:28.149169] [195] RADIO_STATUS
[02:08:28.289131] [102] ATTITUDE_TARGET
[02:08:28.294104] [103] VFR_HUD
[02:08:28.298091] [104] SYSTEM_TIME
[02:08:28.957240] [105] VFR_HUD
[02:08:29.295253] [196] RADIO
[02:08:29.298223] [196] RADIO_STATUS
[02:08:29.876676] [107] VFR_HUD
[02:08:30.104376] [197] RADIO
[02:08:30.107379] [197] RADIO_STATUS
[02:08:30.565566] [110] VFR_HUD
[02:08:31.134588] [198] RADIO
[02:08:31.137585] [198] RADIO_STATUS
[02:08:31.168595] [111] HEARTBEAT
[02:08:31.374617] [112] VFR_HUD
[02:08:32.202029] [199] RADIO
[02:08:32.204753] [199] RADIO_STATUS
[02:08:32.995892] [118] VFR_HUD
[02:08:33.093884] [200] RADIO
[02:08:33.096855] [200] RADIO_STATUS
[02:08:33.224951] [119] HEARTBEAT
[02:08:34.123066] [201] RADIO
[02:08:34.126046] [201] RADIO_STATUS
[02:08:34.253130] [121] HEARTBEAT
[02:08:34.261131] [122] ATTITUDE_TARGET
[02:08:34.593172] [123] VFR_HUD
[02:08:35.159268] [124] HEARTBEAT
[02:08:35.273285] [202] RADIO
[02:08:35.275259] [202] RADIO_STATUS
[02:08:35.393328] [125] VFR_HUD
[02:08:36.192514] [203] RADIO
[02:08:36.195377] [203] RADIO_STATUS
[02:08:37.111556] [204] RADIO
[02:08:37.114558] [204] RADIO_STATUS
[02:08:38.260862] [205] RADIO
[02:08:38.263762] [205] RADIO_STATUS
[02:08:38.612150] [136] VFR_HUD
[02:08:39.180918] [206] RADIO
[02:08:39.183900] [206] RADIO_STATUS
[02:08:39.296957] [137] HEARTBEAT
[02:08:40.330029] [207] RADIO
[02:08:40.332989] [207] RADIO_STATUS
[02:08:40.928117] [144] VFR_HUD
[02:08:41.137965] [145] HEARTBEAT
[02:08:41.250199] [208] RADIO
[02:08:41.253213] [208] RADIO_STATUS
[02:08:42.170298] [209] RADIO
[02:08:42.173279] [209] RADIO_STATUS
[02:08:42.300541] [147] HEARTBEAT
[02:08:42.308601] [148] ATTITUDE_TARGET
[02:08:43.205509] [150] HEARTBEAT
[02:08:43.319477] [210] RADIO
[02:08:43.322461] [210] RADIO_STATUS
[02:08:43.440494] [151] VFR_HUD
[02:08:44.238586] [211] RADIO
[02:08:44.241532] [211] RADIO_STATUS
[02:08:44.415597] [154] BATTERY_STATUS
[02:08:44.422632] [155] ATTITUDE_TARGET
[02:08:44.427912] [156] VFR_HUD
[02:08:45.158790] [212] RADIO
[02:08:45.161945] [212] RADIO_STATUS
[02:08:45.738847] [159] VFR_HUD
[02:08:46.225895] [213] RADIO
[02:08:46.228897] [213] RADIO_STATUS
[02:08:46.659008] [162] VFR_HUD
[02:08:47.124068] [163] HEARTBEAT
[02:08:47.228111] [214] RADIO
[02:08:47.231285] [214] RADIO_STATUS
[02:08:47.360058] [164] VFR_HUD
[02:08:48.266301] [215] RADIO
[02:08:48.269209] [215] RADIO_STATUS
[02:08:48.957307] [172] VFR_HUD
[02:08:49.192431] [173] HEARTBEAT
[02:08:49.214437] [216] RADIO
[02:08:49.217539] [216] RADIO_STATUS
[02:08:50.107456] [175] HEARTBEAT
[02:08:50.130454] [176] ATTITUDE_TARGET
[02:08:50.215448] [217] RADIO
[02:08:50.218391] [217] RADIO_STATUS
[02:08:51.251654] [178] HEARTBEAT
[02:08:51.283712] [218] RADIO
[02:08:51.286553] [218] RADIO_STATUS
[02:08:51.377917] [179] VFR_HUD
[02:08:52.284818] [219] RADIO
[02:08:52.287781] [219] RADIO_STATUS
[02:08:52.429201] [182] BATTERY_STATUS
[02:08:52.437054] [183] ATTITUDE_TARGET
[02:08:52.477839] [184] VFR_HUD
[02:08:53.210031] [220] RADIO
[02:08:53.212915] [220] RADIO_STATUS
[02:08:53.239014] [186] HEARTBEAT
[02:08:53.786083] [187] VFR_HUD
[02:08:54.250439] [221] RADIO
[02:08:54.253242] [221] RADIO_STATUS
[02:08:54.705235] [190] VFR_HUD
[02:08:55.170327] [191] HEARTBEAT
[02:08:55.274406] [222] RADIO
[02:08:55.277559] [222] RADIO_STATUS
[02:08:55.395386] [192] VFR_HUD
[02:08:56.318635] [223] RADIO
[02:08:56.321446] [223] RADIO_STATUS
[02:08:57.239666] [198] VFR_HUD
[02:08:57.242639] [199] HEARTBEAT
[02:08:57.249717] [224] RADIO
[02:08:57.252612] [224] RADIO_STATUS
[02:08:58.262790] [225] RADIO
[02:08:58.265852] [225] RADIO_STATUS
[02:08:58.623917] [203] VFR_HUD
[02:08:59.307030] [205] VFR_HUD
[02:08:59.334068] [226] RADIO
[02:08:59.337057] [226] RADIO_STATUS
[02:09:00.107218] [206] HEARTBEAT
[02:09:00.331183] [227] RADIO
[02:09:00.334434] [227] RADIO_STATUS
[02:09:00.923359] [211] VFR_HUD
[02:09:01.137352] [212] HEARTBEAT
[02:09:01.257600] [228] RADIO
[02:09:01.259356] [228] RADIO_STATUS
[02:09:02.401511] [229] RADIO
[02:09:02.403453] [229] RADIO_STATUS
[02:09:03.206660] [217] HEARTBEAT
[02:09:03.320668] [230] RADIO
[02:09:03.323639] [230] RADIO_STATUS
[02:09:03.358671] [218] VFR_HUD
[02:09:04.138863] [219] HEARTBEAT
[02:09:04.145966] [220] SYS_STATUS
[02:09:04.387878] [231] RADIO
[02:09:04.390854] [231] RADIO_STATUS
[02:09:05.051001] [224] VFR_HUD
[02:09:05.176001] [225] HEARTBEAT
[02:09:05.279985] [232] RADIO
[02:09:05.282978] [232] RADIO_STATUS
[02:09:05.740100] [226] VFR_HUD
[02:09:06.309280] [233] RADIO
[02:09:06.312192] [233] RADIO_STATUS
[02:09:06.659250] [229] VFR_HUD
[02:09:07.349325] [231] VFR_HUD
[02:09:07.376508] [234] RADIO
[02:09:07.379272] [234] RADIO_STATUS
[02:09:08.378694] [235] RADIO
[02:09:08.381508] [235] RADIO_STATUS
[02:09:08.959992] [239] VFR_HUD
[02:09:09.193759] [240] HEARTBEAT
[02:09:09.297733] [236] RADIO
[02:09:09.300761] [236] RADIO_STATUS
[02:09:09.779730] [241] VFR_HUD
[02:09:10.103793] [242] HEARTBEAT
[02:09:10.148849] [243] ATTITUDE_TARGET
[02:09:10.336783] [237] RADIO
[02:09:10.339777] [237] RADIO_STATUS
[02:09:11.158037] [245] HEARTBEAT
[02:09:11.366005] [238] RADIO
[02:09:11.368963] [238] RADIO_STATUS
[02:09:11.498070] [246] VFR_HUD
[02:09:12.184162] [247] HEARTBEAT
[02:09:12.191197] [248] SYS_STATUS
[02:09:12.433253] [239] RADIO
[02:09:12.436125] [239] RADIO_STATUS
[02:09:13.226293] [253] HEARTBEAT
[02:09:13.330287] [240] RADIO
[02:09:13.333280] [240] RADIO_STATUS
[02:09:13.797411] [254] VFR_HUD
[02:09:14.355478] [241] RADIO
[02:09:14.358451] [241] RADIO_STATUS
[02:09:14.484588] [255] HEARTBEAT
[02:09:14.492455] [0] ATTITUDE_TARGET
[02:09:15.395690] [3] VFR_HUD
[02:09:15.422630] [242] RADIO
[02:09:15.425653] [242] RADIO_STATUS
[02:09:16.424799] [243] RADIO
[02:09:16.427777] [243] RADIO_STATUS
[02:09:17.344009] [244] RADIO
[02:09:17.346944] [244] RADIO_STATUS
[02:09:17.924201] [11] VFR_HUD
[02:09:18.388257] [245] RADIO
[02:09:18.391228] [245] RADIO_STATUS
[02:09:19.194351] [15] HEARTBEAT
[02:09:19.413368] [246] RADIO
[02:09:19.416337] [246] RADIO_STATUS
[02:09:19.545367] [16] VFR_HUD
[02:09:20.246552] [19] BATTERY_STATUS
[02:09:20.253603] [20] ATTITUDE_TARGET
[02:09:20.283493] [21] VFR_HUD
[02:09:20.452633] [247] RADIO
[02:09:20.455444] [247] RADIO_STATUS
[02:09:21.138749] [23] HEARTBEAT
[02:09:21.377653] [248] RADIO
[02:09:21.380641] [248] RADIO_STATUS
[02:09:21.727978] [24] VFR_HUD
[02:09:22.301899] [25] HEARTBEAT
[02:09:22.309848] [26] ATTITUDE_TARGET
[02:09:22.401851] [249] RADIO
[02:09:22.404891] [249] RADIO_STATUS
[02:09:22.522879] [27] VFR_HUD
[02:09:23.442042] [29] VFR_HUD
[02:09:23.551063] [250] RADIO
[02:09:23.554010] [250] RADIO_STATUS
[02:09:24.470263] [251] RADIO
[02:09:24.473165] [251] RADIO_STATUS
[02:09:24.946280] [35] VFR_HUD
[02:09:25.176363] [36] HEARTBEAT
[02:09:25.390350] [252] RADIO
[02:09:25.393315] [252] RADIO_STATUS
