[19:48:55.902037] [247] VFR_HUD
[19:48:56.127103] [248] HEARTBEAT
[19:48:56.158066] [53] RADIO
[19:48:56.161037] [53] RADIO_STATUS
[19:48:56.711196] [249] VFR_HUD
[19:48:57.160454] [54] RADIO
[19:48:57.163272] [54] RADIO_STATUS
[19:48:57.290361] [250] HEARTBEAT
[19:48:57.298284] [251] ATTITUDE_TARGET
[19:48:57.511334] [252] VFR_HUD
[19:48:58.205495] [55] RADIO
[19:48:58.208562] [55] RADIO_STATUS
[19:48:58.331460] [254] VFR_HUD
[19:48:59.127601] [255] HEARTBEAT
[19:48:59.134640] [0] SYS_STATUS
[19:48:59.229548] [56] RADIO
[19:48:59.232680] [56] RADIO_STATUS
[19:48:59.929698] [4] VFR_HUD
[19:49:00.148719] [57] RADIO
[19:49:00.151643] [57] RADIO_STATUS
[19:49:00.182773] [5] HEARTBEAT
[19:49:00.729807] [6] VFR_HUD
[19:49:01.188884] [58] RADIO
[19:49:01.191856] [58] RADIO_STATUS
[19:49:01.648948] [9] VFR_HUD
[19:49:02.105060] [10] HEARTBEAT
[19:49:02.218060] [59] RADIO
[19:49:02.221088] [59] RADIO_STATUS
[19:49:02.339123] [11] VFR_HUD
[19:49:03.138286] [60] RADIO
[19:49:03.141199] [60] RADIO_STATUS
[19:49:03.197281] [12] HEARTBEAT
[19:49:03.204284] [13] SYS_STATUS
[19:49:03.211269] [14] BATTERY_STATUS
[19:49:03.224264] [15] ATTITUDE_TARGET
[19:49:03.229789] [16] VFR_HUD
[19:49:03.949955] [17] VFR_HUD
[19:49:04.068385] [18] HEARTBEAT
[19:49:04.177420] [61] RADIO
[19:49:04.180353] [61] RADIO_STATUS
[19:49:04.763529] [19] VFR_HUD
[19:49:05.106528] [20] HEARTBEAT
[19:49:05.114653] [21] ATTITUDE_TARGET
[19:49:05.206535] [62] RADIO
[19:49:05.209527] [62] RADIO_STATUS
[19:49:05.557630] [22] VFR_HUD
[19:49:06.126671] [63] RADIO
[19:49:06.129655] [63] RADIO_STATUS
[19:49:06.169732] [23] HEARTBEAT
[19:49:06.366923] [24] VFR_HUD
[19:49:07.052868] [25] HEARTBEAT
[19:49:07.072930] [26] SYS_STATUS
[19:49:07.115908] [27] BATTERY_STATUS
[19:49:07.123887] [28] ATTITUDE_TARGET
[19:49:07.128828] [29] VFR_HUD
[19:49:07.165900] [64] RADIO
[19:49:07.168845] [64] RADIO_STATUS
[19:49:08.092015] [30] VFR_HUD
[19:49:08.094984] [31] HEARTBEAT
[19:49:08.196051] [65] RADIO
[19:49:08.199021] [65] RADIO_STATUS
[19:49:08.672064] [32] VFR_HUD
[19:49:09.135156] [33] HEARTBEAT
[19:49:09.143146] [34] ATTITUDE_TARGET
[19:49:09.345389] [66] RADIO
[19:49:09.348225] [66] RADIO_STATUS
[19:49:09.466208] [35] VFR_HUD
[19:49:10.151320] [36] HEARTBEAT
[19:49:10.183412] [67] RADIO
[19:49:10.186252] [67] RADIO_STATUS
[19:49:10.281283] [37] VFR_HUD
[19:49:11.083401] [38] HEARTBEAT
[19:49:11.089412] [39] SYS_STATUS
[19:49:11.184417] [68] RADIO
[19:49:11.188163] [68] RADIO_STATUS
[19:49:11.248435] [40] BATTERY_STATUS
[19:49:11.250419] [41] EXTENDED_SYS_STATE
[19:49:11.258464] [42] ATTITUDE_TARGET
[19:49:11.263411] [43] VFR_HUD
[19:49:11.266410] [44] SYSTEM_TIME
[19:49:11.890586] [45] VFR_HUD
[19:49:12.110557] [46] HEARTBEAT
[19:49:12.224566] [69] RADIO
[19:49:12.227587] [69] RADIO_STATUS
[19:49:12.684651] [47] VFR_HUD
[19:49:13.153748] [48] HEARTBEAT
[19:49:13.161723] [49] ATTITUDE_TARGET
[19:49:13.171698] [70] RADIO
[19:49:13.174728] [70] RADIO_STATUS
[19:49:13.494985] [50] VFR_HUD
[19:49:14.059846] [51] HEARTBEAT
[19:49:14.172835] [71] RADIO
[19:49:14.175820] [71] RADIO_STATUS
[19:49:14.293844] [52] VFR_HUD
[19:49:15.111308] [53] HEARTBEAT
[19:49:15.117978] [54] SYS_STATUS
[19:49:15.235988] [55] BATTERY_STATUS
[19:49:15.244043] [56] ATTITUDE_TARGET
[19:49:15.274036] [57] VFR_HUD
[19:49:15.302078] [72] RADIO
[19:49:15.304986] [72] RADIO_STATUS
[19:49:15.903124] [58] VFR_HUD
[19:49:16.129347] [59] HEARTBEAT
[19:49:16.242170] [73] RADIO
[19:49:16.245123] [73] RADIO_STATUS
[19:49:16.713244] [60] VFR_HUD
[19:49:17.182381] [61] HEARTBEAT
[19:49:17.190345] [62] ATTITUDE_TARGET
[19:49:17.310296] [74] RADIO
[19:49:17.313285] [74] RADIO_STATUS
[19:49:17.513339] [63] VFR_HUD
[19:49:18.088635] [64] HEARTBEAT
[19:49:18.207463] [75] RADIO
[19:49:18.210656] [75] RADIO_STATUS
[19:49:18.322427] [65] VFR_HUD
[19:49:19.129625] [66] HEARTBEAT
[19:49:19.136636] [67] SYS_STATUS
[19:49:19.231607] [76] RADIO
[19:49:19.234627] [76] RADIO_STATUS
[19:49:19.272637] [68] BATTERY_STATUS
[19:49:19.299609] [69] ATTITUDE_TARGET
[19:49:19.304565] [70] VFR_HUD
[19:49:19.936775] [71] VFR_HUD
[19:49:20.156753] [72] HEARTBEAT
[19:49:20.275866] [77] RADIO
[19:49:20.278785] [77] RADIO_STATUS
[19:49:21.095928] [74] HEARTBEAT
[19:49:21.103935] [75] ATTITUDE_TARGET
[19:49:21.300083] [78] RADIO
[19:49:21.303026] [78] RADIO_STATUS
[19:49:21.545982] [76] VFR_HUD
[19:49:22.106071] [77] HEARTBEAT
[19:49:22.220052] [79] RADIO
[19:49:22.222056] [79] RADIO_STATUS
[19:49:22.283342] JAMMING_START
[19:49:22.340075] [78] VFR_HUD
[19:49:23.264240] [80] RADIO
[19:49:23.267186] [80] RADIO_STATUS
[19:49:24.288398] [81] RADIO
[19:49:24.291380] [81] RADIO_STATUS
[19:49:24.759474] [86] VFR_HUD
[19:49:25.108538] [87] HEARTBEAT
[19:49:25.116575] [88] ATTITUDE_TARGET
[19:49:25.438551] [82] RADIO
[19:49:25.441533] [82] RADIO_STATUS
[19:49:25.558536] [89] VFR_HUD
[19:49:26.139719] [90] HEARTBEAT
[19:49:26.247759] [83] RADIO
[19:49:26.250624] [83] RADIO_STATUS
[19:49:27.070878] [92] HEARTBEAT
[19:49:27.077828] [93] SYS_STATUS
[19:49:27.117896] [94] BATTERY_STATUS
[19:49:27.124835] [95] ATTITUDE_TARGET
[19:49:27.129802] [96] VFR_HUD
[19:49:27.278821] [84] RADIO
[19:49:27.281823] [84] RADIO_STATUS
[19:49:28.094908] [97] VFR_HUD
[19:49:28.097882] [98] HEARTBEAT
[19:49:28.427931] [85] RADIO
[19:49:28.430888] [85] RADIO_STATUS
[19:49:28.674017] [99] VFR_HUD
[19:49:29.142038] [100] HEARTBEAT
[19:49:29.149996] [101] ATTITUDE_TARGET
[19:49:29.347026] [86] RADIO
[19:49:29.349990] [86] RADIO_STATUS
[19:49:30.153176] [103] HEARTBEAT
[19:49:30.266136] [87] RADIO
[19:49:30.269136] [87] RADIO_STATUS
[19:49:30.305149] [104] VFR_HUD
[19:49:31.306445] [88] RADIO
[19:49:31.308295] [88] RADIO_STATUS
[19:49:31.886440] [112] VFR_HUD
[19:49:32.111455] [113] HEARTBEAT
[19:49:32.335557] [89] RADIO
[19:49:32.338490] [89] RADIO_STATUS
[19:49:32.686657] [114] VFR_HUD
[19:49:33.155669] [115] HEARTBEAT
[19:49:33.162669] [116] ATTITUDE_TARGET
[19:49:33.255825] [90] RADIO
[19:49:33.257690] [90] RADIO_STATUS
[19:49:33.495763] [117] VFR_HUD
[19:49:34.070832] [118] HEARTBEAT
[19:49:34.295901] [119] VFR_HUD
[19:49:34.322841] [91] RADIO
[19:49:34.325807] [91] RADIO_STATUS
[19:49:35.112958] [120] HEARTBEAT
[19:49:35.119458] [121] SYS_STATUS
[19:49:35.276039] [124] VFR_HUD
[19:49:35.324070] [92] RADIO
[19:49:35.326915] [92] RADIO_STATUS
[19:49:35.904045] [125] VFR_HUD
[19:49:36.129094] [126] HEARTBEAT
[19:49:36.363209] [93] RADIO
[19:49:36.366159] [93] RADIO_STATUS
[19:49:36.713159] [127] VFR_HUD
[19:49:37.049214] [128] HEARTBEAT
[19:49:37.071240] [129] ATTITUDE_TARGET
[19:49:37.287900] [94] RADIO
[19:49:37.288028] [94] RADIO_STATUS
[19:49:37.525334] [130] VFR_HUD
[19:49:38.088321] [131] HEARTBEAT
[19:49:38.312366] [95] RADIO
[19:49:38.315333] [95] RADIO_STATUS
[19:49:38.350352] [132] VFR_HUD
[19:49:39.251626] [135] BATTERY_STATUS
[19:49:39.369567] [136] ATTITUDE_TARGET
[19:49:39.374502] [137] VFR_HUD
[19:49:39.379517] [96] RADIO
[19:49:39.382525] [96] RADIO_STATUS
[19:49:39.937624] [138] VFR_HUD
[19:49:40.157809] [139] HEARTBEAT
[19:49:40.381701] [97] RADIO
[19:49:40.384601] [97] RADIO_STATUS
[19:49:40.731739] [140] VFR_HUD
[19:49:41.091031] [141] HEARTBEAT
[19:49:41.098908] [142] ATTITUDE_TARGET
[19:49:41.300814] [98] RADIO
[19:49:41.303825] [98] RADIO_STATUS
[19:49:41.541826] [143] VFR_HUD
[19:49:42.106957] [144] HEARTBEAT
[19:49:42.342060] [145] VFR_HUD
[19:49:42.450025] [99] RADIO
[19:49:42.452939] [99] RADIO_STATUS
[19:49:43.158286] [146] HEARTBEAT
[19:49:43.165074] [147] SYS_STATUS
[19:49:43.349129] [100] RADIO
[19:49:43.352113] [100] RADIO_STATUS
[19:49:43.950246] [151] VFR_HUD
[19:49:44.071248] [152] HEARTBEAT
[19:49:44.414222] [101] RADIO
[19:49:44.417268] [101] RADIO_STATUS
[19:49:44.760350] [153] VFR_HUD
[19:49:45.109363] [154] HEARTBEAT
[19:49:45.116418] [155] ATTITUDE_TARGET
[19:49:45.335173] [102] RADIO
[19:49:45.336725] [102] RADIO_STATUS
[19:49:46.139521] [157] HEARTBEAT
[19:49:46.358519] [103] RADIO
[19:49:46.361498] [103] RADIO_STATUS
[19:49:46.478529] [158] VFR_HUD
[19:49:47.070601] [159] HEARTBEAT
[19:49:47.077647] [160] SYS_STATUS
[19:49:47.116797] [161] BATTERY_STATUS
[19:49:47.124671] [162] ATTITUDE_TARGET
[19:49:47.129644] [163] VFR_HUD
[19:49:47.402682] [104] RADIO
[19:49:47.405646] [104] RADIO_STATUS
[19:49:48.093869] [164] VFR_HUD
[19:49:48.096810] [165] HEARTBEAT
[19:49:48.426871] [105] RADIO
[19:49:48.429798] [105] RADIO_STATUS
[19:49:48.672859] [166] VFR_HUD
[19:49:49.141951] [167] HEARTBEAT
[19:49:49.148946] [168] ATTITUDE_TARGET
[19:49:49.345955] [106] RADIO
[19:49:49.348940] [106] RADIO_STATUS
[19:49:49.466995] [169] VFR_HUD
[19:49:50.162173] [170] HEARTBEAT
[19:49:50.276221] [171] VFR_HUD
[19:49:50.391067] [107] RADIO
[19:49:50.393996] [107] RADIO_STATUS
[19:49:51.084462] [172] HEARTBEAT
[19:49:51.091205] [173] SYS_STATUS
[19:49:51.213377] [174] BATTERY_STATUS
[19:49:51.215317] [175] EXTENDED_SYS_STATE
[19:49:51.247328] [176] ATTITUDE_TARGET
[19:49:51.252483] [177] VFR_HUD
[19:49:51.255193] [178] SYSTEM_TIME
[19:49:51.415214] [108] RADIO
[19:49:51.418191] [108] RADIO_STATUS
[19:49:51.885596] [179] VFR_HUD
[19:49:52.116330] [180] HEARTBEAT
[19:49:52.568772] [109] RADIO
[19:49:52.570432] [109] RADIO_STATUS
[19:49:52.685397] [181] VFR_HUD
[19:49:53.154706] [182] HEARTBEAT
[19:49:53.162546] [183] ATTITUDE_TARGET
[19:49:53.374692] [110] RADIO
[19:49:53.377495] [110] RADIO_STATUS
[19:49:53.494535] [184] VFR_HUD
[19:49:54.060617] [185] HEARTBEAT
[19:49:54.294638] [186] VFR_HUD
[19:49:54.403650] [111] RADIO
[19:49:54.406637] [111] RADIO_STATUS
[19:49:55.442850] [112] RADIO
[19:49:55.445855] [112] RADIO_STATUS
[19:49:55.914921] [192] VFR_HUD
[19:49:56.128976] [193] HEARTBEAT
[19:49:56.472506] [113] RADIO
[19:49:56.474975] [113] RADIO_STATUS
[19:49:56.717983] [194] VFR_HUD
[19:49:57.049783] [195] HEARTBEAT
[19:49:57.071319] [196] ATTITUDE_TARGET
[19:49:57.391059] [114] RADIO
[19:49:57.394062] [114] RADIO_STATUS
[19:49:58.087224] [198] HEARTBEAT
[19:49:58.327140] [199] VFR_HUD
[19:49:58.442207] [115] RADIO
[19:49:58.445159] [115] RADIO_STATUS
[19:49:59.128633] [200] HEARTBEAT
[19:49:59.135314] [201] SYS_STATUS
[19:49:59.255311] [202] BATTERY_STATUS
[19:49:59.461855] [116] RADIO
[19:49:59.463310] [116] RADIO_STATUS
[19:50:00.040470] [205] VFR_HUD
[19:50:00.156486] [206] HEARTBEAT
[19:50:00.499522] [117] RADIO
[19:50:00.502440] [117] RADIO_STATUS
[19:50:00.730519] [207] VFR_HUD
[19:50:01.198640] [208] HEARTBEAT
[19:50:01.206640] [209] ATTITUDE_TARGET
[19:50:01.418617] [118] RADIO
[19:50:01.421586] [118] RADIO_STATUS
[19:50:01.539632] [210] VFR_HUD
[19:50:02.114788] [211] HEARTBEAT
[19:50:02.339745] [212] VFR_HUD
[19:50:02.448827] [119] RADIO
[19:50:02.451831] [119] RADIO_STATUS
[19:50:03.157057] [213] HEARTBEAT
[19:50:03.163885] [214] SYS_STATUS
[19:50:03.488131] [120] RADIO
[19:50:03.491761] [120] RADIO_STATUS
[19:50:03.949075] [218] VFR_HUD
[19:50:04.064109] [219] HEARTBEAT
[19:50:04.518282] [121] RADIO
[19:50:04.520086] [121] RADIO_STATUS
[19:50:04.758202] [220] VFR_HUD
[19:50:05.226358] [221] HEARTBEAT
[19:50:05.234210] [222] ATTITUDE_TARGET
[19:50:05.437296] [122] RADIO
[19:50:05.440201] [122] RADIO_STATUS
[19:50:05.475169] [223] VFR_HUD
[19:50:06.133333] [224] HEARTBEAT
[19:50:06.372960] [225] VFR_HUD
[19:50:06.488412] [123] RADIO
[19:50:06.491549] [123] RADIO_STATUS
[19:50:07.069453] [226] HEARTBEAT
[19:50:07.076421] [227] SYS_STATUS
[19:50:07.116468] [228] BATTERY_STATUS
[19:50:07.124479] [229] ATTITUDE_TARGET
[19:50:07.128375] [230] VFR_HUD
[19:50:07.506466] [124] RADIO
[19:50:07.509461] [124] RADIO_STATUS
[19:50:08.082657] [232] HEARTBEAT
[19:50:08.655623] [125] RADIO
[19:50:08.657599] [125] RADIO_STATUS
[19:50:08.787708] [233] VFR_HUD
[19:50:09.465792] [236] VFR_HUD
[19:50:09.497712] [126] RADIO
[19:50:09.500732] [126] RADIO_STATUS
[19:50:10.150911] [237] HEARTBEAT
[19:50:10.276014] [238] VFR_HUD
[19:50:10.494911] [127] RADIO
[19:50:10.497897] [127] RADIO_STATUS
[19:50:11.082993] [239] HEARTBEAT
[19:50:11.089952] [240] SYS_STATUS
[19:50:11.206995] [241] BATTERY_STATUS
[19:50:11.208927] [242] EXTENDED_SYS_STATE
[19:50:11.534016] [128] RADIO
[19:50:11.536951] [128] RADIO_STATUS
[19:50:11.885049] [246] VFR_HUD
[19:50:12.115096] [247] HEARTBEAT
[19:50:12.564129] [129] RADIO
[19:50:12.567521] [129] RADIO_STATUS
[19:50:12.685090] [248] VFR_HUD
[19:50:13.273249] [249] HEARTBEAT
[19:50:13.280234] [250] ATTITUDE_TARGET
[19:50:13.483301] [130] RADIO
[19:50:13.486263] [130] RADIO_STATUS
[19:50:13.522250] [251] VFR_HUD
[19:50:14.059426] [252] HEARTBEAT
[19:50:14.305504] [253] VFR_HUD
[19:50:14.527472] [131] RADIO
[19:50:14.530397] [131] RADIO_STATUS
[19:50:15.115574] [254] HEARTBEAT
[19:50:15.122619] [255] SYS_STATUS
[19:50:15.161588] [0] BATTERY_STATUS
[19:50:15.169609] [1] ATTITUDE_TARGET
[19:50:15.174586] [2] VFR_HUD
[19:50:15.551592] [132] RADIO
[19:50:15.554616] [132] RADIO_STATUS
[19:50:15.902676] [3] VFR_HUD
[19:50:16.127826] [4] HEARTBEAT
[19:50:16.596953] [133] RADIO
[19:50:16.599781] [133] RADIO_STATUS
[19:50:16.716821] [5] VFR_HUD
[19:50:17.511196] [8] VFR_HUD
[19:50:17.544211] [134] RADIO
[19:50:17.545904] [134] RADIO_STATUS
[19:50:18.086048] [9] HEARTBEAT
[19:50:18.430166] [10] VFR_HUD
[19:50:18.540214] [135] RADIO
[19:50:18.543018] [135] RADIO_STATUS
[19:50:19.254180] [13] BATTERY_STATUS
[19:50:19.584363] [136] RADIO
[19:50:19.587170] [136] RADIO_STATUS
[19:50:19.929357] [16] VFR_HUD
[19:50:20.161920] [17] HEARTBEAT
[19:50:20.498349] [137] RADIO
[19:50:20.505842] [137] RADIO_STATUS
[19:50:20.729486] [18] VFR_HUD
[19:50:21.088465] [19] HEARTBEAT
[19:50:21.096430] [20] ATTITUDE_TARGET
[19:50:21.528711] [138] RADIO
[19:50:21.531545] [138] RADIO_STATUS
[19:50:22.104852] [22] HEARTBEAT
[19:50:22.338552] [23] VFR_HUD
[19:50:22.677713] [139] RADIO
[19:50:22.680644] [139] RADIO_STATUS
[19:50:23.155788] [24] HEARTBEAT
[19:50:23.162789] [25] SYS_STATUS
[19:50:23.280711] [26] BATTERY_STATUS
[19:50:23.288795] [27] ATTITUDE_TARGET
[19:50:23.318686] [28] VFR_HUD
[19:50:23.596728] [140] RADIO
[19:50:23.599717] [140] RADIO_STATUS
[19:50:23.959038] [29] VFR_HUD
[19:50:24.072046] [30] HEARTBEAT
[19:50:24.635917] [141] RADIO
[19:50:24.638867] [141] RADIO_STATUS
[19:50:24.761984] [31] VFR_HUD
[19:50:25.224969] [32] HEARTBEAT
[19:50:25.232979] [33] ATTITUDE_TARGET
[19:50:25.556013] [34] VFR_HUD
[19:50:25.583026] [142] RADIO
[19:50:25.586013] [142] RADIO_STATUS
[19:50:26.131072] [35] HEARTBEAT
[19:50:26.370120] [36] VFR_HUD
[19:50:26.584122] [143] RADIO
[19:50:26.587090] [143] RADIO_STATUS
[19:50:27.062209] [37] HEARTBEAT
[19:50:27.069190] [38] SYS_STATUS
[19:50:27.188206] [39] BATTERY_STATUS
[19:50:27.196206] [40] ATTITUDE_TARGET
[19:50:27.226233] [41] VFR_HUD
[19:50:27.624392] [144] RADIO
[19:50:27.627234] [144] RADIO_STATUS
[19:50:27.855502] [42] VFR_HUD
[19:50:28.089410] [43] HEARTBEAT
[19:50:28.543478] [145] RADIO
[19:50:28.546597] [145] RADIO_STATUS
[19:50:28.664454] [44] VFR_HUD
[19:50:29.133593] [45] HEARTBEAT
[19:50:29.141539] [46] ATTITUDE_TARGET
[19:50:29.463726] [47] VFR_HUD
[19:50:29.573608] [146] RADIO
[19:50:29.576614] [146] RADIO_STATUS
[19:50:30.149712] [48] HEARTBEAT
[19:50:30.273735] [49] VFR_HUD
[19:50:30.612871] [147] RADIO
[19:50:30.615835] [147] RADIO_STATUS
[19:50:31.080859] [50] HEARTBEAT
[19:50:31.087848] [51] SYS_STATUS
[19:50:31.205883] [52] BATTERY_STATUS
[19:50:31.206793] [53] EXTENDED_SYS_STATE
[19:50:31.326879] [54] ATTITUDE_TARGET
[19:50:31.331881] [55] VFR_HUD
[19:50:31.334919] [56] SYSTEM_TIME
[19:50:31.642897] [148] RADIO
[19:50:31.644842] [148] RADIO_STATUS
[19:50:31.882964] [57] VFR_HUD
[19:50:32.122932] [58] HEARTBEAT
[19:50:32.562002] [149] RADIO
[19:50:32.564962] [149] RADIO_STATUS
[19:50:32.693985] [59] VFR_HUD
[19:50:33.497110] [62] VFR_HUD
[19:50:33.617085] [150] RADIO
[19:50:33.620102] [150] RADIO_STATUS
[19:50:34.057199] [63] HEARTBEAT
[19:50:34.630229] [151] RADIO
[19:50:34.634754] [151] RADIO_STATUS
[19:50:35.113348] [65] HEARTBEAT
[19:50:35.120326] [66] SYS_STATUS
[19:50:35.159516] [67] BATTERY_STATUS
[19:50:35.167362] [68] ATTITUDE_TARGET
[19:50:35.172296] [69] VFR_HUD
[19:50:35.669641] [152] RADIO
[19:50:35.672367] [152] RADIO_STATUS
[19:50:36.255451] [70] VFR_HUD
[19:50:36.258421] [71] HEARTBEAT
[19:50:36.699533] [153] RADIO
[19:50:36.702504] [153] RADIO_STATUS
[19:50:36.749563] [72] VFR_HUD
[19:50:37.045638] [73] HEARTBEAT
[19:50:37.067787] [74] ATTITUDE_TARGET
[19:50:37.509793] [75] VFR_HUD
[19:50:37.618720] [154] RADIO
[19:50:37.621641] [154] RADIO_STATUS
[19:50:38.089720] [76] HEARTBEAT
[19:50:38.318843] [77] VFR_HUD
[19:50:38.662956] [155] RADIO
[19:50:38.666216] [155] RADIO_STATUS
[19:50:39.125994] [78] HEARTBEAT
[19:50:39.133025] [79] SYS_STATUS
[19:50:39.252964] [80] BATTERY_STATUS
[19:50:39.364986] [81] ATTITUDE_TARGET
[19:50:39.369988] [82] VFR_HUD
[19:50:39.687092] [156] RADIO
[19:50:39.690088] [156] RADIO_STATUS
[19:50:39.928068] [83] VFR_HUD
[19:50:40.158086] [84] HEARTBEAT
[19:50:40.607361] [157] RADIO
[19:50:40.610222] [157] RADIO_STATUS
[19:50:40.727305] [85] VFR_HUD
[19:50:41.087327] [86] HEARTBEAT
[19:50:41.094235] [87] ATTITUDE_TARGET
[19:50:41.537320] [88] VFR_HUD
[19:50:41.652350] [158] RADIO
[19:50:41.654280] [158] RADIO_STATUS
[19:50:42.102423] [89] HEARTBEAT
[19:50:42.348369] [90] VFR_HUD
[19:50:42.675609] [159] RADIO
[19:50:42.678393] [159] RADIO_STATUS
[19:50:43.158549] [91] HEARTBEAT
[19:50:43.165563] [92] SYS_STATUS
[19:50:43.204516] [93] BATTERY_STATUS
[19:50:43.212500] [94] ATTITUDE_TARGET
[19:50:43.217490] [95] VFR_HUD
[19:50:43.720574] [160] RADIO
[19:50:43.723678] [160] RADIO_STATUS
[19:50:44.071634] [96] VFR_HUD
[19:50:44.074572] [97] HEARTBEAT
[19:50:44.639779] [161] RADIO
[19:50:44.642779] [161] RADIO_STATUS
[19:50:44.760725] [98] VFR_HUD
[19:50:45.104881] [99] HEARTBEAT
[19:50:45.111866] [100] ATTITUDE_TARGET
[19:50:45.566885] [101] VFR_HUD
[19:50:45.663923] [162] RADIO
[19:50:45.666862] [162] RADIO_STATUS
[19:50:46.130011] [102] HEARTBEAT
[19:50:46.368979] [103] VFR_HUD
[19:50:46.708033] [163] RADIO
[19:50:46.710997] [163] RADIO_STATUS
[19:50:47.186136] [106] BATTERY_STATUS
[19:50:47.194076] [107] ATTITUDE_TARGET
[19:50:47.224116] [108] VFR_HUD
[19:50:47.732214] [164] RADIO
[19:50:47.735200] [164] RADIO_STATUS
[19:50:47.853259] [109] VFR_HUD
[19:50:48.079276] [110] HEARTBEAT
[19:50:48.652520] [165] RADIO
[19:50:48.655274] [165] RADIO_STATUS
[19:50:48.784398] [111] VFR_HUD
[19:50:49.132430] [112] HEARTBEAT
[19:50:49.140432] [113] ATTITUDE_TARGET
[19:50:49.462469] [114] VFR_HUD
[19:50:49.691513] [166] RADIO
[19:50:49.694420] [166] RADIO_STATUS
[19:50:50.148581] [115] HEARTBEAT
[19:50:50.272622] [116] VFR_HUD
[19:50:50.721667] [167] RADIO
[19:50:50.724636] [167] RADIO_STATUS
[19:50:51.203835] [119] BATTERY_STATUS
[19:50:51.205693] [120] EXTENDED_SYS_STATE
[19:50:51.760847] [168] RADIO
[19:50:51.763823] [168] RADIO_STATUS
[19:50:51.886847] [124] VFR_HUD
[19:50:52.106944] [125] HEARTBEAT
[19:50:52.681111] [126] VFR_HUD
[19:50:52.709233] [169] RADIO
[19:50:52.710954] [169] RADIO_STATUS
[19:50:53.150061] [127] HEARTBEAT
[19:50:53.158072] [128] ATTITUDE_TARGET
[19:50:53.496133] [129] VFR_HUD
[19:50:53.710092] [170] RADIO
[19:50:53.713158] [170] RADIO_STATUS
[19:50:54.056274] [130] HEARTBEAT
[19:50:54.290243] [131] VFR_HUD
[19:50:54.752169] [171] RADIO
[19:50:54.752469] [171] RADIO_STATUS
[19:50:55.113394] [132] HEARTBEAT
[19:50:55.119375] [133] SYS_STATUS
[19:50:55.159381] [134] BATTERY_STATUS
[19:50:55.167384] [135] ATTITUDE_TARGET
[19:50:55.171532] [136] VFR_HUD
[19:50:55.669408] [172] RADIO
[19:50:55.672378] [172] RADIO_STATUS
[19:50:56.254473] [137] VFR_HUD
[19:50:56.257487] [138] HEARTBEAT
[19:50:56.698544] [173] RADIO
[19:50:56.701784] [173] RADIO_STATUS
[19:50:56.819515] [139] VFR_HUD
[19:50:57.044605] [140] HEARTBEAT
[19:50:57.072665] [141] ATTITUDE_TARGET
[19:50:57.508682] [142] VFR_HUD
[19:50:57.738654] [174] RADIO
[19:50:57.740627] [174] RADIO_STATUS
[19:50:58.089810] [143] HEARTBEAT
[19:50:58.319090] [144] VFR_HUD
[19:50:58.767945] [175] RADIO
[19:50:58.771129] [175] RADIO_STATUS
[19:50:59.246875] [147] BATTERY_STATUS
[19:50:59.364949] [148] ATTITUDE_TARGET
[19:50:59.369877] [149] VFR_HUD
[19:50:59.691919] [176] RADIO
[19:50:59.694921] [176] RADIO_STATUS
[19:50:59.927944] [150] VFR_HUD
[19:51:00.157998] [151] HEARTBEAT
[19:51:00.760181] [177] RADIO
[19:51:00.763114] [177] RADIO_STATUS
[19:51:01.092199] [153] HEARTBEAT
[19:51:01.100232] [154] ATTITUDE_TARGET
[19:51:01.542278] [155] VFR_HUD
[19:51:01.756269] [178] RADIO
[19:51:01.759411] [178] RADIO_STATUS
[19:51:02.102316] [156] HEARTBEAT
[19:51:02.336383] [157] VFR_HUD
[19:51:02.801374] [179] RADIO
[19:51:02.804311] [179] RADIO_STATUS
[19:51:03.720509] [180] RADIO
[19:51:03.723476] [180] RADIO_STATUS
[19:51:04.071577] [163] VFR_HUD
[19:51:04.074533] [164] HEARTBEAT
[19:51:04.744641] [181] RADIO
[19:51:04.747636] [181] RADIO_STATUS
[19:51:04.783675] [165] VFR_HUD
[19:51:05.229775] [166] HEARTBEAT
[19:51:05.237748] [167] ATTITUDE_TARGET
[19:51:05.555799] [168] VFR_HUD
[19:51:05.789910] [182] RADIO
[19:51:05.792823] [182] RADIO_STATUS
[19:51:06.135940] [169] HEARTBEAT
[19:51:06.364876] [170] VFR_HUD
[19:51:06.814022] [183] RADIO
[19:51:06.816988] [183] RADIO_STATUS
[19:51:07.051001] [171] HEARTBEAT
[19:51:07.070971] [172] SYS_STATUS
[19:51:07.113995] [173] BATTERY_STATUS
[19:51:07.122033] [174] ATTITUDE_TARGET
[19:51:07.126984] [175] VFR_HUD
[19:51:07.734309] [184] RADIO
[19:51:07.737044] [184] RADIO_STATUS
[19:51:07.854120] [176] VFR_HUD
[19:51:08.080252] [177] HEARTBEAT
[19:51:08.664274] [178] VFR_HUD
[19:51:08.883393] [185] RADIO
[19:51:08.886299] [185] RADIO_STATUS
[19:51:09.133447] [179] HEARTBEAT
[19:51:09.141326] [180] ATTITUDE_TARGET
[19:51:09.464361] [181] VFR_HUD
[19:51:09.803491] [186] RADIO
[19:51:09.806398] [186] RADIO_STATUS
[19:51:10.149884] [182] HEARTBEAT
[19:51:10.278631] [183] VFR_HUD
[19:51:10.847578] [187] RADIO
[19:51:10.853141] [187] RADIO_STATUS
[19:51:11.205744] [186] BATTERY_STATUS
[19:51:11.206604] [187] EXTENDED_SYS_STATE
[19:51:11.326702] [188] ATTITUDE_TARGET
[19:51:11.330635] [189] VFR_HUD
[19:51:11.334663] [190] SYSTEM_TIME
[19:51:11.762741] [188] RADIO
[19:51:11.764778] [188] RADIO_STATUS
[19:51:11.887777] [191] VFR_HUD
[19:51:12.107878] [192] HEARTBEAT
[19:51:12.682918] [193] VFR_HUD
[19:51:12.791894] [189] RADIO
[19:51:12.794843] [189] RADIO_STATUS
[19:51:13.270960] [194] HEARTBEAT
[19:51:13.279173] [195] ATTITUDE_TARGET
[19:51:13.498050] [196] VFR_HUD
[19:51:13.837022] [190] RADIO
[19:51:13.839944] [190] RADIO_STATUS
[19:51:14.057143] [197] HEARTBEAT
[19:51:14.292101] [198] VFR_HUD
[19:51:14.861186] [191] RADIO
[19:51:14.864135] [191] RADIO_STATUS
[19:51:15.109186] [199] HEARTBEAT
[19:51:15.116177] [200] SYS_STATUS
[19:51:15.284197] [203] VFR_HUD
[19:51:15.779278] [192] RADIO
[19:51:15.782286] [192] RADIO_STATUS
[19:51:15.900290] [204] VFR_HUD
[19:51:16.125385] [205] HEARTBEAT
[19:51:16.709410] [206] VFR_HUD
[19:51:16.819418] [193] RADIO
[19:51:16.822414] [193] RADIO_STATUS
[19:51:17.050449] [207] HEARTBEAT
[19:51:17.073465] [208] ATTITUDE_TARGET
[19:51:17.848597] [194] RADIO
[19:51:17.851495] [194] RADIO_STATUS
[19:51:18.094610] [210] HEARTBEAT
[19:51:18.318608] [211] VFR_HUD
[19:51:18.887714] [195] RADIO
[19:51:18.890741] [195] RADIO_STATUS
[19:51:19.364845] [215] ATTITUDE_TARGET
[19:51:19.369745] [216] VFR_HUD
[19:51:19.807874] [196] RADIO
[19:51:19.810817] [196] RADIO_STATUS
[19:51:19.928959] [217] VFR_HUD
[19:51:20.158937] [218] HEARTBEAT
[19:51:20.727978] [219] VFR_HUD
[19:51:20.837070] [197] RADIO
[19:51:20.839970] [197] RADIO_STATUS
[19:51:21.092057] [220] HEARTBEAT
[19:51:21.100023] [221] ATTITUDE_TARGET
[19:51:21.647115] [222] VFR_HUD
[19:51:21.877365] [198] RADIO
[19:51:21.880185] [198] RADIO_STATUS
[19:51:22.112176] [223] HEARTBEAT
[19:51:22.349319] [224] VFR_HUD
[19:51:22.905314] [199] RADIO
[19:51:22.908162] [199] RADIO_STATUS
[19:51:23.158272] [225] HEARTBEAT
[19:51:23.165264] [226] SYS_STATUS
[19:51:23.205313] [227] BATTERY_STATUS
[19:51:23.213232] [228] ATTITUDE_TARGET
[19:51:23.218234] [229] VFR_HUD
[19:51:23.825312] [200] RADIO
[19:51:23.828257] [200] RADIO_STATUS
[19:51:24.077524] [230] VFR_HUD
[19:51:24.079549] [231] HEARTBEAT
[19:51:24.760459] [232] VFR_HUD
[19:51:24.973481] [201] RADIO
[19:51:24.976531] [201] RADIO_STATUS
[19:51:25.103525] [233] HEARTBEAT
[19:51:25.111526] [234] ATTITUDE_TARGET
[19:51:25.565702] [235] VFR_HUD
[19:51:25.893647] [202] RADIO
[19:51:25.896537] [202] RADIO_STATUS
[19:51:26.134724] [236] HEARTBEAT
[19:51:26.363715] [237] VFR_HUD
[19:51:26.932778] [203] RADIO
[19:51:26.935768] [203] RADIO_STATUS
[19:51:27.049821] [238] HEARTBEAT
[19:51:27.069799] [239] SYS_STATUS
[19:51:27.112762] [240] BATTERY_STATUS
[19:51:27.120874] [241] ATTITUDE_TARGET
[19:51:27.125818] [242] VFR_HUD
[19:51:27.857980] [204] RADIO
[19:51:27.860891] [204] RADIO_STATUS
[19:51:28.213945] [243] VFR_HUD
[19:51:28.216956] [244] HEARTBEAT
[19:51:28.668112] [245] VFR_HUD
[19:51:28.882133] [205] RADIO
[19:51:28.885049] [205] RADIO_STATUS
[19:51:29.132076] [246] HEARTBEAT
[19:51:29.140034] [247] ATTITUDE_TARGET
[19:51:29.463104] [248] VFR_HUD
[19:51:29.922156] [206] RADIO
[19:51:29.925146] [206] RADIO_STATUS
[19:51:30.148167] [249] HEARTBEAT
[19:51:30.277192] [250] VFR_HUD
[19:51:30.846429] [207] RADIO
[19:51:30.849304] [207] RADIO_STATUS
[19:51:31.079398] [251] HEARTBEAT
[19:51:31.086345] [252] SYS_STATUS
[19:51:31.209373] [253] BATTERY_STATUS
[19:51:31.211337] [254] EXTENDED_SYS_STATE
[19:51:31.243407] [255] ATTITUDE_TARGET
[19:51:31.248409] [0] VFR_HUD
[19:51:31.251373] [1] SYSTEM_TIME
[19:51:31.871480] [208] RADIO
[19:51:31.873500] [208] RADIO_STATUS
[19:51:32.107536] [3] HEARTBEAT
[19:51:32.681626] [4] VFR_HUD
[19:51:32.915668] [209] RADIO
[19:51:32.918614] [209] RADIO_STATUS
[19:51:33.150823] [5] HEARTBEAT
[19:51:33.158729] [6] ATTITUDE_TARGET
[19:51:33.490764] [7] VFR_HUD
[19:51:33.939946] [210] RADIO
[19:51:33.942879] [210] RADIO_STATUS
[19:51:34.290914] [9] VFR_HUD
[19:51:34.859982] [211] RADIO
[19:51:34.862880] [211] RADIO_STATUS
[19:51:35.108049] [10] HEARTBEAT
[19:51:35.115175] [11] SYS_STATUS
[19:51:35.283027] [14] VFR_HUD
[19:51:35.899155] [15] VFR_HUD
[19:51:35.931159] [212] RADIO
[19:51:35.934115] [212] RADIO_STATUS
[19:51:36.125110] [16] HEARTBEAT
[19:51:36.709185] [17] VFR_HUD
[19:51:36.928190] [213] RADIO
[19:51:36.931171] [213] RADIO_STATUS
[19:51:37.049226] [18] HEARTBEAT
[19:51:37.973360] [214] RADIO
[19:51:37.976317] [214] RADIO_STATUS
[19:51:38.084396] [21] HEARTBEAT
[19:51:38.318387] [22] VFR_HUD
[19:51:38.893477] [215] RADIO
[19:51:38.895427] [215] RADIO_STATUS
[19:51:39.125750] [23] HEARTBEAT
[19:51:39.132631] [24] SYS_STATUS
[19:51:39.247525] [25] BATTERY_STATUS
[19:51:39.916639] [216] RADIO
[19:51:39.919648] [216] RADIO_STATUS
[19:51:39.955678] [28] VFR_HUD
[19:51:40.153880] [29] HEARTBEAT
[19:51:40.727760] [30] VFR_HUD
[19:51:41.066876] [217] RADIO
[19:51:41.069768] [217] RADIO_STATUS
[19:51:41.114891] [31] HEARTBEAT
[19:51:41.122103] [32] ATTITUDE_TARGET
[19:51:41.542875] [33] VFR_HUD
[19:51:41.986940] [218] RADIO
[19:51:41.988961] [218] RADIO_STATUS
[19:51:42.112056] [34] HEARTBEAT
[19:51:42.337012] [35] VFR_HUD
[19:51:42.906138] [219] RADIO
[19:51:42.909110] [219] RADIO_STATUS
[19:51:43.154172] [36] HEARTBEAT
[19:51:43.161409] [37] SYS_STATUS
[19:51:43.317191] [40] VFR_HUD
[19:51:43.946232] [41] VFR_HUD
[19:51:43.973296] [220] RADIO
[19:51:43.976375] [220] RADIO_STATUS
[19:51:44.067269] [42] HEARTBEAT
[19:51:44.756506] [43] VFR_HUD
[19:51:44.975425] [221] RADIO
[19:51:44.978305] [221] RADIO_STATUS
[19:51:45.224490] [44] HEARTBEAT
[19:51:45.232475] [45] ATTITUDE_TARGET
[19:51:45.567644] [46] VFR_HUD
[19:51:46.014497] [222] RADIO
[19:51:46.017515] [222] RADIO_STATUS
[19:51:46.136550] [47] HEARTBEAT
[19:51:46.250585] [48] VFR_HUD
[19:51:46.933626] [223] RADIO
[19:51:46.936616] [223] RADIO_STATUS
[19:51:47.067635] [49] HEARTBEAT
[19:51:47.073621] [50] SYS_STATUS
[19:51:47.113686] [51] BATTERY_STATUS
[19:51:47.120643] [52] ATTITUDE_TARGET
[19:51:47.125646] [53] VFR_HUD
[19:51:47.963011] [224] RADIO
[19:51:47.965750] [224] RADIO_STATUS
[19:51:48.088900] [54] VFR_HUD
[19:51:48.091846] [55] HEARTBEAT
[19:51:48.668889] [56] VFR_HUD
[19:51:49.111930] [225] RADIO
[19:51:49.114897] [225] RADIO_STATUS
[19:51:49.463040] [59] VFR_HUD
[19:51:50.032152] [226] RADIO
[19:51:50.035047] [226] RADIO_STATUS
[19:51:50.277570] [61] VFR_HUD
[19:51:50.951195] [227] RADIO
[19:51:50.954238] [227] RADIO_STATUS
[19:51:51.881433] [69] VFR_HUD
[19:51:52.101423] [228] RADIO
[19:51:52.103421] [228] RADIO_STATUS
[19:51:52.135459] [70] HEARTBEAT
[19:51:52.681536] [71] VFR_HUD
[19:51:53.020610] [229] RADIO
[19:51:53.023523] [229] RADIO_STATUS
[19:51:53.274637] [72] HEARTBEAT
[19:51:53.282610] [73] ATTITUDE_TARGET
[19:51:53.490623] [74] VFR_HUD
[19:51:54.056709] [75] HEARTBEAT
[19:51:54.169736] [230] RADIO
[19:51:54.172644] [230] RADIO_STATUS
[19:51:54.979869] [231] RADIO
[19:51:54.982841] [231] RADIO_STATUS
[19:51:55.107975] [77] HEARTBEAT
[19:51:55.114919] [78] SYS_STATUS
[19:51:55.232931] [79] BATTERY_STATUS
[19:51:55.240885] [80] ATTITUDE_TARGET
[19:51:55.270879] [81] VFR_HUD
[19:51:55.911012] [82] VFR_HUD
[19:51:56.008971] [232] RADIO
[19:51:56.011969] [232] RADIO_STATUS
[19:51:56.125060] [83] HEARTBEAT
[19:51:56.709062] [84] VFR_HUD
[19:51:57.045151] [85] HEARTBEAT
[19:51:57.067118] [86] ATTITUDE_TARGET
[19:51:57.158155] [233] RADIO
[19:51:57.161122] [233] RADIO_STATUS
[19:51:57.508167] [87] VFR_HUD
[19:51:58.077279] [234] RADIO
[19:51:58.080230] [234] RADIO_STATUS
[19:51:58.193321] [88] HEARTBEAT
[19:51:58.323307] [89] VFR_HUD
[19:51:58.996360] [235] RADIO
[19:51:58.999431] [235] RADIO_STATUS
[19:51:59.246424] [92] BATTERY_STATUS
[19:51:59.933916] [95] VFR_HUD
[19:52:00.064441] [236] RADIO
[19:52:00.067581] [236] RADIO_STATUS
[19:52:00.152506] [96] HEARTBEAT
[19:52:00.726535] [97] VFR_HUD
[19:52:01.065906] [237] RADIO
[19:52:01.068634] [237] RADIO_STATUS
[19:52:01.314685] [98] HEARTBEAT
[19:52:01.322653] [99] ATTITUDE_TARGET
[19:52:01.541645] [100] VFR_HUD
[19:52:01.989871] [238] RADIO
[19:52:01.993943] [238] RADIO_STATUS
[19:52:02.100971] [101] HEARTBEAT
[19:52:02.346742] [102] VFR_HUD
[19:52:03.028896] [239] RADIO
[19:52:03.031878] [239] RADIO_STATUS
[19:52:03.151936] [103] HEARTBEAT
[19:52:03.157907] [104] SYS_STATUS
[19:52:03.276914] [105] BATTERY_STATUS
[19:52:03.284912] [106] ATTITUDE_TARGET
[19:52:03.314969] [107] VFR_HUD
[19:52:04.053131] [240] RADIO
[19:52:04.055955] [240] RADIO_STATUS
[19:52:04.087112] [109] HEARTBEAT
[19:52:04.754121] [110] VFR_HUD
[19:52:05.202142] [241] RADIO
[19:52:05.205154] [241] RADIO_STATUS
[19:52:05.332162] [111] HEARTBEAT
[19:52:05.340132] [112] ATTITUDE_TARGET
[19:52:05.553291] [113] VFR_HUD
[19:52:06.017348] [242] RADIO
[19:52:06.020353] [242] RADIO_STATUS
[19:52:06.143341] [114] HEARTBEAT
[19:52:06.363315] [115] VFR_HUD
[19:52:07.042889] [243] RADIO
[19:52:07.044564] [243] RADIO_STATUS
[19:52:07.101584] [116] HEARTBEAT
[19:52:07.108705] [117] SYS_STATUS
[19:52:07.116504] [118] BATTERY_STATUS
[19:52:07.128549] [119] ATTITUDE_TARGET
[19:52:07.133495] [120] VFR_HUD
[19:52:07.977595] [121] VFR_HUD
[19:52:08.089629] [122] HEARTBEAT
[19:52:08.119827] [244] RADIO
[19:52:08.122638] [244] RADIO_STATUS
[19:52:08.771899] [123] VFR_HUD
[19:52:09.111847] [245] RADIO
[19:52:09.114775] [245] RADIO_STATUS
[19:52:09.158860] [124] HEARTBEAT
[19:52:09.166980] [125] ATTITUDE_TARGET
[19:52:09.461946] [126] VFR_HUD
[19:52:10.030942] [246] RADIO
[19:52:10.033951] [246] RADIO_STATUS
[19:52:10.065035] [127] HEARTBEAT
[19:52:10.271991] [128] VFR_HUD
[19:52:11.079077] [129] HEARTBEAT
[19:52:11.086187] [130] SYS_STATUS
[19:52:11.099101] [247] RADIO
[19:52:11.101239] [247] RADIO_STATUS
[19:52:11.209070] [131] BATTERY_STATUS
[19:52:11.209982] [132] EXTENDED_SYS_STATE
[19:52:11.242028] [133] ATTITUDE_TARGET
[19:52:11.247381] [134] VFR_HUD
[19:52:11.251036] [135] SYSTEM_TIME
[19:52:11.881176] [136] VFR_HUD
[19:52:12.100157] [248] RADIO
[19:52:12.103134] [248] RADIO_STATUS
[19:52:12.134155] [137] HEARTBEAT
[19:52:12.692199] [138] VFR_HUD
[19:52:13.168338] [249] RADIO
[19:52:13.171274] [249] RADIO_STATUS
[19:52:13.274557] [139] HEARTBEAT
[19:52:13.282412] [140] ATTITUDE_TARGET
[19:52:13.490308] [141] VFR_HUD
[19:52:14.056415] [142] HEARTBEAT
[19:52:14.169398] [250] RADIO
[19:52:14.172389] [250] RADIO_STATUS
[19:52:14.290435] [143] VFR_HUD
[19:52:15.089526] [251] RADIO
[19:52:15.092520] [251] RADIO_STATUS
[19:52:15.149645] [144] HEARTBEAT
[19:52:15.156566] [145] SYS_STATUS
[19:52:15.163750] [146] BATTERY_STATUS
[19:52:15.175690] [147] ATTITUDE_TARGET
[19:52:15.180547] [148] VFR_HUD
[19:52:15.899731] [149] VFR_HUD
[19:52:16.134695] [150] HEARTBEAT
[19:52:16.238805] [252] RADIO
[19:52:16.241777] [252] RADIO_STATUS
[19:52:16.819861] [151] VFR_HUD
[19:52:17.044824] [152] HEARTBEAT
[19:52:17.067885] [153] ATTITUDE_TARGET
[19:52:17.076870] [253] RADIO
[19:52:17.079802] [253] RADIO_STATUS
[19:52:17.520884] [154] VFR_HUD
[19:52:18.077926] [254] RADIO
[19:52:18.080948] [254] RADIO_STATUS
[19:52:18.194105] [155] HEARTBEAT
[19:52:18.323953] [156] VFR_HUD
[19:52:19.126110] [157] HEARTBEAT
[19:52:19.133162] [158] SYS_STATUS
[19:52:19.228119] [255] RADIO
[19:52:19.231109] [255] RADIO_STATUS
[19:52:19.297164] [159] BATTERY_STATUS
[19:52:19.305155] [160] ATTITUDE_TARGET
[19:52:19.310129] [161] VFR_HUD
[19:52:20.147243] [0] RADIO
[19:52:20.150290] [0] RADIO_STATUS
[19:52:20.274341] [162] VFR_HUD
[19:52:20.276338] [163] HEARTBEAT
[19:52:20.739353] [164] VFR_HUD
[19:52:21.296354] [1] RADIO
[19:52:21.300509] [1] RADIO_STATUS
[19:52:21.536465] [167] VFR_HUD
[19:52:22.101512] [168] HEARTBEAT
[19:52:22.215540] [2] RADIO
[19:52:22.218497] [2] RADIO_STATUS
[19:52:22.336536] [169] VFR_HUD
[19:52:23.134626] [3] RADIO
[19:52:23.137551] [3] RADIO_STATUS
[19:52:23.389753] [172] BATTERY_STATUS
[19:52:23.945781] [175] VFR_HUD
[19:52:24.060753] [176] HEARTBEAT
[19:52:24.174955] [4] RADIO
[19:52:24.177835] [4] RADIO_STATUS
[19:52:24.754921] [177] VFR_HUD
[19:52:25.104029] [178] HEARTBEAT
[19:52:25.111975] [179] ATTITUDE_TARGET
[19:52:25.121916] [5] RADIO
[19:52:25.124887] [5] RADIO_STATUS
[19:52:25.554953] [180] VFR_HUD
[19:52:26.124095] [6] RADIO
[19:52:26.126988] [6] RADIO_STATUS
[19:52:26.240064] [181] HEARTBEAT
[19:52:26.263068] [182] VFR_HUD
[19:52:27.067230] [183] HEARTBEAT
[19:52:27.074349] [184] SYS_STATUS
[19:52:27.113247] [185] BATTERY_STATUS
[19:52:27.121239] [186] ATTITUDE_TARGET
[19:52:27.126190] [187] VFR_HUD
[19:52:27.168383] [7] RADIO
[19:52:27.171226] [7] RADIO_STATUS
[19:52:28.192400] [8] RADIO
[19:52:28.195316] [8] RADIO_STATUS
[19:52:28.318395] [188] VFR_HUD
[19:52:28.321405] [189] HEARTBEAT
[19:52:28.663445] [190] VFR_HUD
[19:52:29.117550] [9] RADIO
[19:52:29.120629] [9] RADIO_STATUS
[19:52:29.159637] [191] HEARTBEAT
[19:52:29.167593] [192] ATTITUDE_TARGET
[19:52:29.462537] [193] VFR_HUD
[19:52:30.147680] [194] HEARTBEAT
[19:52:30.179636] [10] RADIO
[19:52:30.182672] [10] RADIO_STATUS
[19:52:30.272670] [195] VFR_HUD
[19:52:31.180857] [11] RADIO
[19:52:31.183821] [11] RADIO_STATUS
[19:52:31.221918] [198] BATTERY_STATUS
[19:52:31.253086] [199] EXTENDED_SYS_STATE
[19:52:31.260870] [200] ATTITUDE_TARGET
[19:52:31.264837] [201] VFR_HUD
[19:52:31.268935] [202] SYSTEM_TIME
[19:52:32.123089] [203] VFR_HUD
[19:52:32.125950] [204] HEARTBEAT
[19:52:32.330986] [12] RADIO
[19:52:32.333965] [12] RADIO_STATUS
[19:52:32.682211] [205] VFR_HUD
[19:52:33.151112] [206] HEARTBEAT
[19:52:33.158097] [207] ATTITUDE_TARGET
[19:52:33.168079] [13] RADIO
[19:52:33.171091] [13] RADIO_STATUS
[19:52:33.491241] [208] VFR_HUD
[19:52:34.056232] [209] HEARTBEAT
[19:52:34.170223] [14] RADIO
[19:52:34.173193] [14] RADIO_STATUS
[19:52:34.291246] [210] VFR_HUD
[19:52:35.215711] [15] RADIO
[19:52:35.218499] [15] RADIO_STATUS
[19:52:36.239562] [16] RADIO
[19:52:36.242486] [16] RADIO_STATUS
[19:52:36.283555] [216] VFR_HUD
[19:52:36.286511] [217] HEARTBEAT
[19:52:36.714644] [218] VFR_HUD
[19:52:37.045656] [219] HEARTBEAT
[19:52:37.067668] [220] ATTITUDE_TARGET
[19:52:37.283690] [17] RADIO
[19:52:37.286681] [17] RADIO_STATUS
[19:52:37.508736] [221] VFR_HUD
[19:52:38.083859] [222] HEARTBEAT
[19:52:38.197992] [18] RADIO
[19:52:38.200776] [18] RADIO_STATUS
[19:52:38.323929] [223] VFR_HUD
[19:52:39.227931] [19] RADIO
[19:52:39.230909] [19] RADIO_STATUS
[19:52:39.296997] [226] BATTERY_STATUS
[19:52:39.305038] [227] ATTITUDE_TARGET
[19:52:39.310225] [228] VFR_HUD
[19:52:40.169172] [229] VFR_HUD
[19:52:40.172098] [230] HEARTBEAT
[19:52:40.377137] [20] RADIO
[19:52:40.380138] [20] RADIO_STATUS
[19:52:40.727229] [231] VFR_HUD
[19:52:41.086252] [232] HEARTBEAT
[19:52:41.094222] [233] ATTITUDE_TARGET
[19:52:41.296251] [21] RADIO
[19:52:41.299304] [21] RADIO_STATUS
[19:52:41.537290] [234] VFR_HUD
[19:52:42.102441] [235] HEARTBEAT
[19:52:42.216457] [22] RADIO
[19:52:42.219379] [22] RADIO_STATUS
[19:52:42.254426] [236] VFR_HUD
[19:52:43.153657] [237] HEARTBEAT
[19:52:43.160578] [238] SYS_STATUS
[19:52:43.279527] [239] BATTERY_STATUS
[19:52:43.287544] [240] ATTITUDE_TARGET
[19:52:43.317537] [241] VFR_HUD
[19:52:43.339534] [23] RADIO
[19:52:43.342563] [23] RADIO_STATUS
[19:52:43.945714] [242] VFR_HUD
[19:52:44.061949] [243] HEARTBEAT
[19:52:44.285736] [24] RADIO
[19:52:44.287703] [24] RADIO_STATUS
[19:52:44.760780] [244] VFR_HUD
[19:52:45.204808] [25] RADIO
[19:52:45.207750] [25] RADIO_STATUS
[19:52:45.554915] [247] VFR_HUD
[19:52:46.129978] [248] HEARTBEAT
[19:52:46.244927] [249] VFR_HUD
[19:52:46.271952] [26] RADIO
[19:52:46.274915] [26] RADIO_STATUS
[19:52:47.062087] [250] HEARTBEAT
[19:52:47.069098] [251] SYS_STATUS
[19:52:47.225145] [254] VFR_HUD
[19:52:47.247114] [27] RADIO
[19:52:47.250162] [27] RADIO_STATUS
[19:52:47.854238] [255] VFR_HUD
[19:52:48.079298] [0] HEARTBEAT
[19:52:48.313241] [28] RADIO
[19:52:48.316274] [28] RADIO_STATUS
[19:52:48.663258] [1] VFR_HUD
[19:52:49.132592] [2] HEARTBEAT
[19:52:49.140575] [3] ATTITUDE_TARGET
[19:52:49.342383] [29] RADIO
[19:52:49.345371] [29] RADIO_STATUS
[19:52:49.474395] [4] VFR_HUD
[19:52:50.053599] [5] HEARTBEAT
[19:52:50.262434] [30] RADIO
[19:52:50.265459] [30] RADIO_STATUS
[19:52:50.383471] [6] VFR_HUD
[19:52:51.326907] [11] ATTITUDE_TARGET
[19:52:51.331693] [12] VFR_HUD
[19:52:51.334588] [13] SYSTEM_TIME
[19:52:51.364789] [31] RADIO
[19:52:51.366602] [31] RADIO_STATUS
[19:52:51.882651] [14] VFR_HUD
[19:52:52.122720] [15] HEARTBEAT
[19:52:52.227741] [32] RADIO
[19:52:52.229719] [32] RADIO_STATUS
[19:52:52.682936] [16] VFR_HUD
[19:52:53.251934] [33] RADIO
[19:52:53.254902] [33] RADIO_STATUS
[19:52:53.602023] [19] VFR_HUD
[19:52:54.057036] [20] HEARTBEAT
[19:52:54.292032] [21] VFR_HUD
[19:52:54.324085] [34] RADIO
[19:52:54.327191] [34] RADIO_STATUS
[19:52:55.114154] [22] HEARTBEAT
[19:52:55.121137] [23] SYS_STATUS
[19:52:55.160183] [24] BATTERY_STATUS
[19:52:55.168200] [25] ATTITUDE_TARGET
[19:52:55.173153] [26] VFR_HUD
[19:52:55.321245] [35] RADIO
[19:52:55.323187] [35] RADIO_STATUS
[19:52:56.136315] [27] VFR_HUD
[19:52:56.139287] [28] HEARTBEAT
[19:52:56.240324] [36] RADIO
[19:52:56.243437] [36] RADIO_STATUS
[19:52:56.716401] [29] VFR_HUD
[19:52:57.046428] [30] HEARTBEAT
[19:52:57.068434] [31] ATTITUDE_TARGET
[19:52:57.284490] [37] RADIO
[19:52:57.287408] [37] RADIO_STATUS
[19:52:57.510478] [32] VFR_HUD
[19:52:58.090603] [33] HEARTBEAT
[19:52:58.308607] [38] RADIO
[19:52:58.311543] [38] RADIO_STATUS
[19:52:58.429608] [34] VFR_HUD
[19:52:59.253971] [37] BATTERY_STATUS
[19:52:59.365726] [38] ATTITUDE_TARGET
[19:52:59.371157] [39] VFR_HUD
[19:52:59.404736] [39] RADIO
[19:52:59.407722] [39] RADIO_STATUS
[19:52:59.928830] [40] VFR_HUD
[19:53:00.158943] [41] HEARTBEAT
[19:53:00.273917] [40] RADIO
[19:53:00.275875] [40] RADIO_STATUS
[19:53:00.728919] [42] VFR_HUD
[19:53:01.087961] [43] HEARTBEAT
[19:53:01.095947] [44] ATTITUDE_TARGET
[19:53:01.297980] [41] RADIO
[19:53:01.301166] [41] RADIO_STATUS
[19:53:01.538072] [45] VFR_HUD
[19:53:02.104117] [46] HEARTBEAT
[19:53:02.338431] [47] VFR_HUD
[19:53:02.370107] [42] RADIO
[19:53:02.373099] [42] RADIO_STATUS
[19:53:03.160345] [48] HEARTBEAT
[19:53:03.169788] [49] SYS_STATUS
[19:53:03.206466] [50] BATTERY_STATUS
[19:53:03.214258] [51] ATTITUDE_TARGET
[19:53:03.219396] [52] VFR_HUD
[19:53:03.366321] [43] RADIO
[19:53:03.369371] [43] RADIO_STATUS
[19:53:04.072451] [53] VFR_HUD
[19:53:04.075366] [54] HEARTBEAT
[19:53:04.285517] [44] RADIO
[19:53:04.288386] [44] RADIO_STATUS
[19:53:04.761784] [55] VFR_HUD
[19:53:05.105621] [56] HEARTBEAT
[19:53:05.112611] [57] ATTITUDE_TARGET
[19:53:05.324627] [45] RADIO
[19:53:05.327635] [45] RADIO_STATUS
[19:53:05.555699] [58] VFR_HUD
[19:53:06.139754] [59] HEARTBEAT
[19:53:06.354795] [46] RADIO
[19:53:06.357802] [46] RADIO_STATUS
[19:53:06.392780] [60] VFR_HUD
[19:53:07.393916] [47] RADIO
[19:53:07.396910] [47] RADIO_STATUS
[19:53:07.855052] [66] VFR_HUD
[19:53:08.090277] [67] HEARTBEAT
[19:53:08.314112] [48] RADIO
[19:53:08.317087] [48] RADIO_STATUS
[19:53:08.664181] [68] VFR_HUD
[19:53:09.133231] [69] HEARTBEAT
[19:53:09.141261] [70] ATTITUDE_TARGET
[19:53:09.343292] [49] RADIO
[19:53:09.346254] [49] RADIO_STATUS
[19:53:10.149477] [72] HEARTBEAT
[19:53:10.273406] [73] VFR_HUD
[19:53:10.382428] [50] RADIO
[19:53:10.385381] [50] RADIO_STATUS
[19:53:11.080678] [74] HEARTBEAT
[19:53:11.087569] [75] SYS_STATUS
[19:53:11.205552] [76] BATTERY_STATUS
[19:53:11.207506] [77] EXTENDED_SYS_STATE
[19:53:11.364650] [51] RADIO
[19:53:11.367788] [51] RADIO_STATUS
[19:53:11.888759] [81] VFR_HUD
[19:53:12.108727] [82] HEARTBEAT
[19:53:12.331764] [52] RADIO
[19:53:12.334762] [52] RADIO_STATUS
[19:53:12.682814] [83] VFR_HUD
[19:53:13.151911] [84] HEARTBEAT
[19:53:13.159934] [85] ATTITUDE_TARGET
[19:53:13.371849] [53] RADIO
[19:53:13.374922] [53] RADIO_STATUS
[19:53:13.497784] [86] VFR_HUD
[19:53:14.066941] [87] HEARTBEAT
[19:53:14.291950] [88] VFR_HUD
[19:53:14.400991] [54] RADIO
[19:53:14.403956] [54] RADIO_STATUS
[19:53:15.114089] [89] HEARTBEAT
[19:53:15.121125] [90] SYS_STATUS
[19:53:15.161130] [91] BATTERY_STATUS
[19:53:15.169165] [92] ATTITUDE_TARGET
[19:53:15.173083] [93] VFR_HUD
[19:53:15.442192] [55] RADIO
[19:53:15.445165] [55] RADIO_STATUS
[19:53:16.139328] [94] VFR_HUD
[19:53:16.142422] [95] HEARTBEAT
[19:53:16.362293] [56] RADIO
[19:53:16.365352] [56] RADIO_STATUS
[19:53:16.713330] [96] VFR_HUD
[19:53:17.181404] [97] HEARTBEAT
[19:53:17.189388] [98] ATTITUDE_TARGET
[19:53:17.392376] [57] RADIO
[19:53:17.395372] [57] RADIO_STATUS
[19:53:18.093578] [100] HEARTBEAT
[19:53:18.322563] [101] VFR_HUD
[19:53:18.541599] [58] RADIO
[19:53:18.544469] [58] RADIO_STATUS
[19:53:19.129677] [102] HEARTBEAT
[19:53:19.135744] [103] SYS_STATUS
[19:53:19.250697] [104] BATTERY_STATUS
[19:53:19.407784] [59] RADIO
[19:53:19.410938] [59] RADIO_STATUS
[19:53:20.161866] [108] HEARTBEAT
[19:53:20.380827] [60] RADIO
[19:53:20.383813] [60] RADIO_STATUS
[19:53:21.424937] [61] RADIO
[19:53:21.427920] [61] RADIO_STATUS
[19:53:21.545972] [112] VFR_HUD
[19:53:22.116062] [113] HEARTBEAT
[19:53:22.340161] [114] VFR_HUD
[19:53:22.373117] [62] RADIO
[19:53:22.377162] [62] RADIO_STATUS
[19:53:23.163150] [115] HEARTBEAT
[19:53:23.169147] [116] SYS_STATUS
[19:53:23.209165] [117] BATTERY_STATUS
[19:53:23.217156] [118] ATTITUDE_TARGET
[19:53:23.222170] [119] VFR_HUD
[19:53:23.371200] [63] RADIO
[19:53:23.374181] [63] RADIO_STATUS
[19:53:24.077345] [120] VFR_HUD
[19:53:24.080287] [121] HEARTBEAT
[19:53:24.520391] [64] RADIO
[19:53:24.523340] [64] RADIO_STATUS
[19:53:24.766482] [122] VFR_HUD
[19:53:25.234485] [123] HEARTBEAT
[19:53:25.242518] [124] ATTITUDE_TARGET
[19:53:25.440444] [65] RADIO
[19:53:25.443417] [65] RADIO_STATUS
[19:53:25.572516] [125] VFR_HUD
[19:53:26.140771] [126] HEARTBEAT
[19:53:26.369848] [127] VFR_HUD
[19:53:26.483634] [66] RADIO
[19:53:26.486595] [66] RADIO_STATUS
[19:53:27.066764] [128] HEARTBEAT
[19:53:27.073752] [129] SYS_STATUS
[19:53:27.191800] [130] BATTERY_STATUS
[19:53:27.199816] [131] ATTITUDE_TARGET
[19:53:27.229729] [132] VFR_HUD
[19:53:27.403766] [67] RADIO
[19:53:27.406710] [67] RADIO_STATUS
[19:53:27.869882] [133] VFR_HUD
[19:53:28.083951] [134] HEARTBEAT
[19:53:28.427926] [68] RADIO
[19:53:28.430905] [68] RADIO_STATUS
[19:53:28.667931] [135] VFR_HUD
[19:53:29.137176] [136] HEARTBEAT
[19:53:29.148153] [137] ATTITUDE_TARGET
[19:53:29.468076] [138] VFR_HUD
[19:53:29.500035] [69] RADIO
[19:53:29.503023] [69] RADIO_STATUS
[19:53:30.043284] [139] HEARTBEAT
[19:53:30.387233] [140] VFR_HUD
[19:53:30.398217] [70] RADIO
[19:53:30.401221] [70] RADIO_STATUS
[19:53:31.209813] [143] BATTERY_STATUS
[19:53:31.211826] [144] EXTENDED_SYS_STATE
[19:53:31.416626] [71] RADIO
[19:53:31.419506] [71] RADIO_STATUS
[19:53:31.892472] [148] VFR_HUD
[19:53:32.112544] [149] HEARTBEAT
[19:53:32.461521] [72] RADIO
[19:53:32.464471] [72] RADIO_STATUS
[19:53:32.686577] [150] VFR_HUD
[19:53:33.275845] [151] HEARTBEAT
[19:53:33.282700] [152] ATTITUDE_TARGET
[19:53:33.485688] [73] RADIO
[19:53:33.488616] [73] RADIO_STATUS
[19:53:33.524812] [153] VFR_HUD
[19:53:34.061726] [154] HEARTBEAT
[19:53:34.307773] [155] VFR_HUD
[19:53:34.530849] [74] RADIO
[19:53:34.533132] [74] RADIO_STATUS
[19:53:35.114019] [156] HEARTBEAT
[19:53:35.120135] [157] SYS_STATUS
[19:53:35.238926] [158] BATTERY_STATUS
[19:53:35.247063] [159] ATTITUDE_TARGET
[19:53:35.276945] [160] VFR_HUD
[19:53:35.445036] [75] RADIO
[19:53:35.447953] [75] RADIO_STATUS
[19:53:35.906047] [161] VFR_HUD
[19:53:36.131091] [162] HEARTBEAT
[19:53:36.474077] [76] RADIO
[19:53:36.477043] [76] RADIO_STATUS
[19:53:36.715158] [163] VFR_HUD
[19:53:37.514304] [166] VFR_HUD
[19:53:37.545463] [77] RADIO
[19:53:37.548363] [77] RADIO_STATUS
[19:53:38.095381] [167] HEARTBEAT
[19:53:38.324383] [168] VFR_HUD
[19:53:38.543459] [78] RADIO
[19:53:38.546348] [78] RADIO_STATUS
[19:53:39.131593] [169] HEARTBEAT
[19:53:39.138521] [170] SYS_STATUS
[19:53:39.253543] [171] BATTERY_STATUS
[19:53:39.463506] [79] RADIO
[19:53:39.466557] [79] RADIO_STATUS
[19:53:39.517549] [172] ATTITUDE_TARGET
[19:53:39.522492] [173] VFR_HUD
[19:53:39.938580] [174] VFR_HUD
[19:53:40.050925] [175] HEARTBEAT
[19:53:40.502682] [80] RADIO
[19:53:40.506040] [80] RADIO_STATUS
[19:53:40.733704] [176] VFR_HUD
[19:53:41.097797] [177] HEARTBEAT
[19:53:41.105789] [178] ATTITUDE_TARGET
[19:53:41.532806] [81] RADIO
[19:53:41.535820] [81] RADIO_STATUS
[19:53:41.574205] [179] VFR_HUD
[19:53:42.107980] [180] HEARTBEAT
[19:53:42.353942] [181] VFR_HUD
[19:53:42.451964] [82] RADIO
[19:53:42.454927] [82] RADIO_STATUS
[19:53:43.165165] [182] HEARTBEAT
[19:53:43.172779] [183] SYS_STATUS
[19:53:43.211131] [184] BATTERY_STATUS
[19:53:43.219109] [185] ATTITUDE_TARGET
[19:53:43.224090] [186] VFR_HUD
[19:53:43.491091] [83] RADIO
[19:53:43.494114] [83] RADIO_STATUS
[19:53:44.082274] [187] VFR_HUD
[19:53:44.085261] [188] HEARTBEAT
[19:53:44.521313] [84] RADIO
[19:53:44.523265] [84] RADIO_STATUS
[19:53:44.761354] [189] VFR_HUD
[19:53:45.235447] [190] HEARTBEAT
[19:53:45.243380] [191] ATTITUDE_TARGET
[19:53:45.451487] [192] VFR_HUD
[19:53:45.560449] [85] RADIO
[19:53:45.563593] [85] RADIO_STATUS
[19:53:46.141530] [193] HEARTBEAT
[19:53:46.485571] [86] RADIO
[19:53:46.488583] [86] RADIO_STATUS
[19:53:47.068708] [195] HEARTBEAT
[19:53:47.074736] [196] SYS_STATUS
[19:53:47.242761] [199] VFR_HUD
[19:53:47.509783] [87] RADIO
[19:53:47.512719] [87] RADIO_STATUS
[19:53:47.859849] [200] VFR_HUD
[19:53:48.085990] [201] HEARTBEAT
[19:53:48.658956] [88] RADIO
[19:53:48.662034] [88] RADIO_STATUS
[19:53:48.708922] [202] VFR_HUD
[19:53:49.144056] [203] HEARTBEAT
[19:53:49.152010] [204] ATTITUDE_TARGET
[19:53:49.470063] [205] VFR_HUD
[19:53:49.578040] [89] RADIO
[19:53:49.581156] [89] RADIO_STATUS
[19:53:50.044172] [206] HEARTBEAT
[19:53:50.284166] [207] VFR_HUD
[19:53:50.498160] [90] RADIO
[19:53:50.500163] [90] RADIO_STATUS
[19:53:51.086269] [208] HEARTBEAT
[19:53:51.092524] [209] SYS_STATUS
[19:53:51.215289] [210] BATTERY_STATUS
[19:53:51.217225] [211] EXTENDED_SYS_STATE
[19:53:51.249299] [212] ATTITUDE_TARGET
[19:53:51.254244] [213] VFR_HUD
[19:53:51.257294] [214] SYSTEM_TIME
[19:53:51.542346] [91] RADIO
[19:53:51.545276] [91] RADIO_STATUS
[19:53:51.892376] [215] VFR_HUD
[19:53:52.122442] [216] HEARTBEAT
[19:53:52.566501] [92] RADIO
[19:53:52.569484] [92] RADIO_STATUS
[19:53:52.687536] [217] VFR_HUD
[19:53:53.281677] [218] HEARTBEAT
[19:53:53.288633] [219] ATTITUDE_TARGET
[19:53:53.497646] [220] VFR_HUD
[19:53:53.611700] [93] RADIO
[19:53:53.614679] [93] RADIO_STATUS
[19:53:54.062726] [221] HEARTBEAT
[19:53:54.307772] [222] VFR_HUD
[19:53:54.530780] [94] RADIO
[19:53:54.533780] [94] RADIO_STATUS
[19:53:55.112980] [223] HEARTBEAT
[19:53:55.119932] [224] SYS_STATUS
[19:53:55.238927] [225] BATTERY_STATUS
[19:53:55.245926] [226] ATTITUDE_TARGET
[19:53:55.276945] [227] VFR_HUD
[19:53:55.554942] [95] RADIO
[19:53:55.557864] [95] RADIO_STATUS
[19:53:55.904953] [228] VFR_HUD
[19:53:56.131095] [229] HEARTBEAT
[19:53:56.704163] [96] RADIO
[19:53:56.707055] [96] RADIO_STATUS
[19:53:56.825106] [230] VFR_HUD
[19:53:57.064118] [231] HEARTBEAT
[19:53:57.072754] [232] ATTITUDE_TARGET
[19:53:57.514194] [233] VFR_HUD
[19:53:57.546271] [97] RADIO
[19:53:57.549168] [97] RADIO_STATUS
[19:53:58.090319] [234] HEARTBEAT
[19:53:58.329317] [235] VFR_HUD
[19:53:58.543530] [98] RADIO
[19:53:58.546332] [98] RADIO_STATUS
[19:53:59.131474] [236] HEARTBEAT
[19:53:59.138481] [237] SYS_STATUS
[19:53:59.252446] [238] BATTERY_STATUS
[19:53:59.370502] [239] ATTITUDE_TARGET
[19:53:59.376417] [240] VFR_HUD
[19:53:59.615518] [99] RADIO
[19:53:59.618459] [99] RADIO_STATUS
[19:53:59.940805] [241] VFR_HUD
[19:54:00.050571] [242] HEARTBEAT
[19:54:00.612655] [100] RADIO
[19:54:00.615689] [100] RADIO_STATUS
[19:54:00.734635] [243] VFR_HUD
[19:54:01.097730] [244] HEARTBEAT
[19:54:01.105705] [245] ATTITUDE_TARGET
[19:54:01.547765] [246] VFR_HUD
[19:54:01.667848] [101] RADIO
[19:54:01.670998] [101] RADIO_STATUS
[19:54:02.116873] [247] HEARTBEAT
[19:54:02.352923] [248] VFR_HUD
[19:54:02.570947] [102] RADIO
[19:54:02.573915] [102] RADIO_STATUS
[19:54:03.159042] [249] HEARTBEAT
[19:54:03.165007] [250] SYS_STATUS
[19:54:03.322131] [253] VFR_HUD
[19:54:03.600331] [103] RADIO
[19:54:03.603109] [103] RADIO_STATUS
[19:54:03.951173] [254] VFR_HUD
[19:54:04.071201] [255] HEARTBEAT
[19:54:04.639257] [104] RADIO
[19:54:04.642243] [104] RADIO_STATUS
[19:54:04.771241] [0] VFR_HUD
[19:54:05.109381] [1] HEARTBEAT
[19:54:05.117318] [2] ATTITUDE_TARGET
[19:54:05.450340] [3] VFR_HUD
[19:54:05.669388] [105] RADIO
[19:54:05.672388] [105] RADIO_STATUS
[19:54:06.140462] [4] HEARTBEAT
[19:54:06.249508] [5] VFR_HUD
[19:54:06.588591] [106] RADIO
[19:54:06.591500] [106] RADIO_STATUS
[19:54:07.072649] [6] HEARTBEAT
[19:54:07.078637] [7] SYS_STATUS
[19:54:07.628701] [107] RADIO
[19:54:07.631613] [107] RADIO_STATUS
[19:54:08.219822] [11] VFR_HUD
[19:54:08.222749] [12] HEARTBEAT
[19:54:08.660553] [108] RADIO
[19:54:08.660850] [108] RADIO_STATUS
[19:54:08.697084] [13] VFR_HUD
[19:54:09.142953] [14] HEARTBEAT
[19:54:09.150940] [15] ATTITUDE_TARGET
[19:54:09.468944] [16] VFR_HUD
[19:54:09.577951] [109] RADIO
[19:54:09.581023] [109] RADIO_STATUS
[19:54:10.044055] [17] HEARTBEAT
[19:54:10.284246] [18] VFR_HUD
[19:54:10.617117] [110] RADIO
[19:54:10.620058] [110] RADIO_STATUS
[19:54:11.085211] [19] HEARTBEAT
[19:54:11.092162] [20] SYS_STATUS
[19:54:11.215234] [21] BATTERY_STATUS
[19:54:11.216163] [22] EXTENDED_SYS_STATE
[19:54:11.249240] [23] ATTITUDE_TARGET
[19:54:11.253401] [24] VFR_HUD
[19:54:11.257389] [25] SYSTEM_TIME
[19:54:11.646242] [111] RADIO
[19:54:11.649267] [111] RADIO_STATUS
[19:54:11.887290] [26] VFR_HUD
[19:54:12.117394] [27] HEARTBEAT
[19:54:12.686398] [28] VFR_HUD
[19:54:12.713444] [112] RADIO
[19:54:12.720346] [112] RADIO_STATUS
[19:54:13.155541] [29] HEARTBEAT
[19:54:13.163479] [30] ATTITUDE_TARGET
[19:54:13.496480] [31] VFR_HUD
[19:54:13.610571] [113] RADIO
[19:54:13.613533] [113] RADIO_STATUS
[19:54:14.061598] [32] HEARTBEAT
[19:54:14.296633] [33] VFR_HUD
[19:54:14.635638] [114] RADIO
[19:54:14.638731] [114] RADIO_STATUS
[19:54:15.113765] [34] HEARTBEAT
[19:54:15.119760] [35] SYS_STATUS
[19:54:15.238783] [36] BATTERY_STATUS
[19:54:15.246748] [37] ATTITUDE_TARGET
[19:54:15.276744] [38] VFR_HUD
[19:54:15.674938] [115] RADIO
[19:54:15.677828] [115] RADIO_STATUS
[19:54:15.916845] [39] VFR_HUD
[19:54:16.130957] [40] HEARTBEAT
[19:54:16.705003] [116] RADIO
[19:54:16.707897] [116] RADIO_STATUS
[19:54:16.742898] [41] VFR_HUD
[19:54:17.515065] [44] VFR_HUD
[19:54:17.624010] [117] RADIO
[19:54:17.627007] [117] RADIO_STATUS
[19:54:18.090152] [45] HEARTBEAT
[19:54:18.330116] [46] VFR_HUD
[19:54:18.668200] [118] RADIO
[19:54:18.671137] [118] RADIO_STATUS
[19:54:19.252339] [49] BATTERY_STATUS
[19:54:19.692311] [119] RADIO
[19:54:19.695398] [119] RADIO_STATUS
[19:54:19.938449] [52] VFR_HUD
[19:54:20.049413] [53] HEARTBEAT
[19:54:20.732536] [54] VFR_HUD
[19:54:20.841790] [120] RADIO
[19:54:20.843481] [120] RADIO_STATUS
[19:54:21.090598] [55] HEARTBEAT
[19:54:21.098552] [56] ATTITUDE_TARGET
[19:54:21.541583] [57] VFR_HUD
[19:54:21.655612] [121] RADIO
[19:54:21.658638] [121] RADIO_STATUS
[19:54:22.106729] [58] HEARTBEAT
[19:54:22.340744] [59] VFR_HUD
[19:54:22.679786] [122] RADIO
[19:54:22.682809] [122] RADIO_STATUS
[19:54:23.157880] [60] HEARTBEAT
[19:54:23.164860] [61] SYS_STATUS
[19:54:23.282863] [62] BATTERY_STATUS
[19:54:23.290894] [63] ATTITUDE_TARGET
[19:54:23.320831] [64] VFR_HUD
[19:54:23.724990] [123] RADIO
[19:54:23.727920] [123] RADIO_STATUS
[19:54:23.949960] [65] VFR_HUD
[19:54:24.070928] [66] HEARTBEAT
[19:54:24.639970] [67] VFR_HUD
[19:54:24.672012] [124] RADIO
[19:54:24.674966] [124] RADIO_STATUS
[19:54:25.109103] [68] HEARTBEAT
[19:54:25.117061] [69] ATTITUDE_TARGET
[19:54:25.455128] [70] VFR_HUD
[19:54:25.669123] [125] RADIO
[19:54:25.672114] [125] RADIO_STATUS
[19:54:26.135232] [71] HEARTBEAT
[19:54:26.249303] [72] VFR_HUD
[19:54:26.713316] [126] RADIO
[19:54:26.716325] [126] RADIO_STATUS
[19:54:27.071386] [73] HEARTBEAT
[19:54:27.078437] [74] SYS_STATUS
[19:54:27.118365] [75] BATTERY_STATUS
[19:54:27.129912] [76] ATTITUDE_TARGET
[19:54:27.130326] [77] VFR_HUD
[19:54:27.738442] [127] RADIO
[19:54:27.741378] [127] RADIO_STATUS
[19:54:28.094632] [78] VFR_HUD
[19:54:28.097641] [79] HEARTBEAT
[19:54:28.673591] [80] VFR_HUD
[19:54:28.794583] [128] RADIO
[19:54:28.796559] [128] RADIO_STATUS
[19:54:29.142665] [81] HEARTBEAT
[19:54:29.150672] [82] ATTITUDE_TARGET
[19:54:29.467674] [83] VFR_HUD
[19:54:29.696690] [129] RADIO
[19:54:29.699741] [129] RADIO_STATUS
[19:54:30.047797] [84] HEARTBEAT
[19:54:30.277827] [85] VFR_HUD
[19:54:30.726840] [130] RADIO
[19:54:30.728939] [130] RADIO_STATUS
[19:54:31.876132] [131] RADIO
[19:54:31.878995] [131] RADIO_STATUS
[19:54:32.008062] [93] VFR_HUD
[19:54:32.117007] [94] HEARTBEAT
[19:54:32.686358] [95] VFR_HUD
[19:54:32.713107] [132] RADIO
[19:54:32.716076] [132] RADIO_STATUS
[19:54:33.507252] [98] VFR_HUD
[19:54:33.715349] [133] RADIO
[19:54:33.718241] [133] RADIO_STATUS
[19:54:34.070336] [99] HEARTBEAT
[19:54:34.307333] [100] VFR_HUD
[19:54:34.753409] [134] RADIO
[19:54:34.756358] [134] RADIO_STATUS
[19:54:35.116481] [101] HEARTBEAT
[19:54:35.123471] [102] SYS_STATUS
[19:54:35.163522] [103] BATTERY_STATUS
[19:54:35.171510] [104] ATTITUDE_TARGET
[19:54:35.176422] [105] VFR_HUD
[19:54:35.783617] [135] RADIO
[19:54:35.786510] [135] RADIO_STATUS
[19:54:35.856557] [106] VFR_HUD
[19:54:36.129637] [107] HEARTBEAT
[19:54:36.708729] [136] RADIO
[19:54:36.710682] [136] RADIO_STATUS
[19:54:36.741772] [108] VFR_HUD
[19:54:37.062797] [109] HEARTBEAT
[19:54:37.070777] [110] ATTITUDE_TARGET
[19:54:37.513805] [111] VFR_HUD
[19:54:37.742847] [137] RADIO
[19:54:37.746003] [137] RADIO_STATUS
[19:54:38.088950] [112] HEARTBEAT
[19:54:38.327951] [113] VFR_HUD
[19:54:38.771929] [138] RADIO
[19:54:38.774921] [138] RADIO_STATUS
[19:54:39.257189] [116] BATTERY_STATUS
[19:54:39.369082] [117] ATTITUDE_TARGET
[19:54:39.374129] [118] VFR_HUD
[19:54:39.812109] [139] RADIO
[19:54:39.815137] [139] RADIO_STATUS
[19:54:39.932120] [119] VFR_HUD
[19:54:40.038171] [120] HEARTBEAT
[19:54:40.732206] [121] VFR_HUD
[19:54:40.759217] [140] RADIO
[19:54:40.762222] [140] RADIO_STATUS
[19:54:41.091316] [122] HEARTBEAT
[19:54:41.099283] [123] ATTITUDE_TARGET
[19:54:41.542444] [124] VFR_HUD
[19:54:41.761354] [141] RADIO
[19:54:41.764338] [141] RADIO_STATUS
[19:54:42.107391] [125] HEARTBEAT
[19:54:42.341462] [126] VFR_HUD
[19:54:42.800475] [142] RADIO
[19:54:42.803514] [142] RADIO_STATUS
[19:54:43.158576] [127] HEARTBEAT
[19:54:43.165539] [128] SYS_STATUS
[19:54:43.284569] [129] BATTERY_STATUS
[19:54:43.292551] [130] ATTITUDE_TARGET
[19:54:43.322563] [131] VFR_HUD
[19:54:43.830609] [143] RADIO
[19:54:43.833611] [143] RADIO_STATUS
[19:54:43.869874] [132] VFR_HUD
[19:54:44.066702] [133] HEARTBEAT
[19:54:44.640761] [134] VFR_HUD
[19:54:44.749771] [144] RADIO
[19:54:44.752807] [144] RADIO_STATUS
[19:54:45.109877] [135] HEARTBEAT
[19:54:45.117892] [136] ATTITUDE_TARGET
[19:54:45.454948] [137] VFR_HUD
[19:54:45.794934] [145] RADIO
[19:54:45.797968] [145] RADIO_STATUS
[19:54:46.134971] [138] HEARTBEAT
[19:54:46.261015] [139] VFR_HUD
[19:54:46.819080] [146] RADIO
[19:54:46.822046] [146] RADIO_STATUS
[19:54:47.067171] [140] HEARTBEAT
[19:54:47.074095] [141] SYS_STATUS
[19:54:47.242186] [144] VFR_HUD
[19:54:47.859257] [145] VFR_HUD
[19:54:47.892230] [147] RADIO
[19:54:47.895184] [147] RADIO_STATUS
[19:54:48.085407] [146] HEARTBEAT
[19:54:48.669424] [147] VFR_HUD
[19:54:48.783410] [148] RADIO
[19:54:48.786385] [148] RADIO_STATUS
[19:54:49.138477] [148] HEARTBEAT
[19:54:49.146467] [149] ATTITUDE_TARGET
[19:54:49.808519] [149] RADIO
[19:54:49.811467] [149] RADIO_STATUS
[19:54:50.049632] [151] HEARTBEAT
[19:54:50.278569] [152] VFR_HUD
[19:54:50.852648] [150] RADIO
[19:54:50.855600] [150] RADIO_STATUS
[19:54:51.085728] [153] HEARTBEAT
[19:54:51.092676] [154] SYS_STATUS
[19:54:51.210711] [155] BATTERY_STATUS
[19:54:51.211681] [156] EXTENDED_SYS_STATE
[19:54:51.331783] [157] ATTITUDE_TARGET
[19:54:51.336757] [158] VFR_HUD
[19:54:51.339649] [159] SYSTEM_TIME
[19:54:51.877915] [151] RADIO
[19:54:51.880977] [151] RADIO_STATUS
[19:54:51.997909] [160] VFR_HUD
[19:54:52.118875] [161] HEARTBEAT
[19:54:52.687956] [162] VFR_HUD
[19:54:52.796948] [152] RADIO
[19:54:52.800187] [152] RADIO_STATUS
[19:54:53.037984] [163] HEARTBEAT
[19:54:53.156013] [164] ATTITUDE_TARGET
[19:54:53.502031] [165] VFR_HUD
[19:54:53.841127] [153] RADIO
[19:54:53.844097] [153] RADIO_STATUS
[19:54:54.072513] [166] HEARTBEAT
[19:54:54.296201] [167] VFR_HUD
[19:54:54.865332] [154] RADIO
[19:54:54.868255] [154] RADIO_STATUS
[19:54:55.119449] [168] HEARTBEAT
[19:54:55.125328] [169] SYS_STATUS
[19:54:55.165341] [170] BATTERY_STATUS
[19:54:55.173395] [171] ATTITUDE_TARGET
[19:54:55.178319] [172] VFR_HUD
[19:54:55.910426] [155] RADIO
[19:54:55.913419] [155] RADIO_STATUS
[19:54:56.141455] [173] VFR_HUD
[19:54:56.144482] [174] HEARTBEAT
[19:54:56.720549] [175] VFR_HUD
[19:54:56.836611] [156] RADIO
[19:54:56.839585] [156] RADIO_STATUS
[19:54:57.189686] [176] HEARTBEAT
[19:54:57.196644] [177] ATTITUDE_TARGET
[19:54:57.526742] [178] VFR_HUD
[19:54:57.854702] [157] RADIO
[19:54:57.857709] [157] RADIO_STATUS
[19:54:58.095729] [179] HEARTBEAT
[19:54:58.324750] [180] VFR_HUD
[19:54:58.898853] [158] RADIO
[19:54:58.901821] [158] RADIO_STATUS
[19:54:59.131866] [181] HEARTBEAT
[19:54:59.138847] [182] SYS_STATUS
[19:54:59.258869] [183] BATTERY_STATUS
[19:54:59.370890] [184] ATTITUDE_TARGET
[19:54:59.375876] [185] VFR_HUD
[19:54:59.813967] [159] RADIO
[19:54:59.816933] [159] RADIO_STATUS
[19:54:59.935025] [186] VFR_HUD
[19:55:00.040001] [187] HEARTBEAT
[19:55:00.746051] [188] VFR_HUD
[19:55:00.843229] [160] RADIO
[19:55:00.846127] [160] RADIO_STATUS
[19:55:01.202200] [189] HEARTBEAT
[19:55:01.210215] [190] ATTITUDE_TARGET
[19:55:01.544236] [191] VFR_HUD
[19:55:01.883296] [161] RADIO
[19:55:01.886253] [161] RADIO_STATUS
[19:55:02.118300] [192] HEARTBEAT
[19:55:02.238308] [193] VFR_HUD
[19:55:02.912452] [162] RADIO
[19:55:02.915373] [162] RADIO_STATUS
[19:55:03.161765] [194] HEARTBEAT
[19:55:03.167425] [195] SYS_STATUS
[19:55:03.323470] [198] VFR_HUD
[19:55:03.831494] [163] RADIO
[19:55:03.834546] [163] RADIO_STATUS
[19:55:03.870503] [199] VFR_HUD
