[19:13:03.526957] [215] RADIO
[19:13:03.530010] [215] RADIO_STATUS
[19:13:04.676424] [216] RADIO
[19:13:04.679102] [216] RADIO_STATUS
[19:13:04.797113] [207] VFR_HUD
[19:13:05.390246] [208] HEARTBEAT
[19:13:05.398199] [209] ATTITUDE_TARGET
[19:13:05.595271] [217] RADIO
[19:13:05.598353] [217] RADIO_STATUS
[19:13:06.405390] [212] VFR_HUD
[19:13:06.515364] [218] RADIO
[19:13:06.518356] [218] RADIO_STATUS
[19:13:07.223541] [213] HEARTBEAT
[19:13:07.229514] [214] SYS_STATUS
[19:13:07.554525] [219] RADIO
[19:13:07.557543] [219] RADIO_STATUS
[19:13:08.240695] [219] HEARTBEAT
[19:13:08.584678] [220] RADIO
[19:13:08.587643] [220] RADIO_STATUS
[19:13:08.829742] [220] VFR_HUD
[19:13:09.651908] [221] RADIO
[19:13:09.654981] [221] RADIO_STATUS
[19:13:10.208971] [224] HEARTBEAT
[19:13:10.544016] [225] VFR_HUD
[19:13:10.555080] [222] RADIO
[19:13:10.561809] [222] RADIO_STATUS
[19:13:11.572130] [223] RADIO
[19:13:11.575100] [223] RADIO_STATUS
[19:13:12.048235] [233] VFR_HUD
[19:13:12.159276] [234] HEARTBEAT
[19:13:12.721300] [224] RADIO
[19:13:12.724284] [224] RADIO_STATUS
[19:13:12.842347] [235] VFR_HUD
[19:13:13.201390] [236] HEARTBEAT
[19:13:13.208367] [237] ATTITUDE_TARGET
[19:13:13.640439] [225] RADIO
[19:13:13.643372] [225] RADIO_STATUS
[19:13:14.462549] [240] VFR_HUD
[19:13:14.559600] [226] RADIO
[19:13:14.562509] [226] RADIO_STATUS
[19:13:15.267698] [241] HEARTBEAT
[19:13:15.274741] [242] SYS_STATUS
[19:13:15.431753] [245] VFR_HUD
[19:13:15.600135] [227] RADIO
[19:13:15.601687] [227] RADIO_STATUS
[19:13:16.627925] [228] RADIO
[19:13:16.630817] [228] RADIO_STATUS
[19:13:16.868956] [248] VFR_HUD
[19:13:17.548045] [229] RADIO
[19:13:17.551008] [229] RADIO_STATUS
[19:13:17.586094] [251] VFR_HUD
[19:13:18.253953] [252] HEARTBEAT
[19:13:18.587195] [230] RADIO
[19:13:18.590222] [230] RADIO_STATUS
[19:13:19.180360] [254] HEARTBEAT
[19:13:19.187315] [255] SYS_STATUS
[19:13:19.226366] [0] BATTERY_STATUS
[19:13:19.234306] [1] ATTITUDE_TARGET
[19:13:19.239282] [2] VFR_HUD
[19:13:19.618364] [231] RADIO
[19:13:19.621285] [231] RADIO_STATUS
[19:13:20.194507] [4] HEARTBEAT
[19:13:20.767533] [232] RADIO
[19:13:20.770614] [232] RADIO_STATUS
[19:13:21.252734] [6] HEARTBEAT
[19:13:21.260583] [7] ATTITUDE_TARGET
[19:13:21.687690] [233] RADIO
[19:13:21.690665] [233] RADIO_STATUS
[19:13:22.158740] [9] HEARTBEAT
[19:13:22.387793] [10] VFR_HUD
[19:13:22.606768] [234] RADIO
[19:13:22.609702] [234] RADIO_STATUS
[19:13:23.194921] [11] HEARTBEAT
[19:13:23.202046] [12] SYS_STATUS
[19:13:23.552994] [14] ATTITUDE_TARGET
[19:13:23.557987] [15] VFR_HUD
[19:13:23.651903] [235] RADIO
[19:13:23.654968] [235] RADIO_STATUS
[19:13:24.008126] [16] VFR_HUD
[19:13:24.676121] [236] RADIO
[19:13:24.679064] [236] RADIO_STATUS
[19:13:25.606272] [21] VFR_HUD
[19:13:25.720251] [237] RADIO
[19:13:25.723224] [237] RADIO_STATUS
[19:13:26.181847] [22] HEARTBEAT
[19:13:26.639402] [238] RADIO
[19:13:26.642365] [238] RADIO_STATUS
[19:13:27.227552] [24] HEARTBEAT
[19:13:27.234431] [25] SYS_STATUS
[19:13:27.664517] [239] RADIO
[19:13:27.667508] [239] RADIO_STATUS
[19:13:28.374601] [29] VFR_HUD
[19:13:28.377636] [30] HEARTBEAT
[19:13:28.813624] [240] RADIO
[19:13:28.816613] [240] RADIO_STATUS
[19:13:29.732729] [241] RADIO
[19:13:29.735700] [241] RADIO_STATUS
[19:13:30.198785] [35] HEARTBEAT
[19:13:30.438835] [36] VFR_HUD
[19:13:30.651835] [242] RADIO
[19:13:30.654859] [242] RADIO_STATUS
[19:13:31.240981] [37] HEARTBEAT
[19:13:31.246959] [38] SYS_STATUS
[19:13:31.370180] [39] BATTERY_STATUS
[19:13:31.371983] [40] EXTENDED_SYS_STATE
[19:13:31.403948] [41] ATTITUDE_TARGET
[19:13:31.408975] [42] VFR_HUD
[19:13:31.412004] [43] SYSTEM_TIME
[19:13:31.697025] [243] RADIO
[19:13:31.701851] [243] RADIO_STATUS
[19:13:32.042114] [44] VFR_HUD
[19:13:32.721109] [244] RADIO
[19:13:32.724127] [244] RADIO_STATUS
[19:13:33.201249] [47] HEARTBEAT
[19:13:33.208208] [48] ATTITUDE_TARGET
[19:13:33.640259] [245] RADIO
[19:13:33.643208] [245] RADIO_STATUS
[19:13:34.679413] [246] RADIO
[19:13:34.682405] [246] RADIO_STATUS
[19:13:35.267523] [52] HEARTBEAT
[19:13:35.274520] [53] SYS_STATUS
[19:13:35.431511] [56] VFR_HUD
[19:13:35.708558] [247] RADIO
[19:13:35.711606] [247] RADIO_STATUS
[19:13:36.059684] [57] VFR_HUD
[19:13:36.174628] [58] HEARTBEAT
[19:13:36.861729] [248] RADIO
[19:13:36.864731] [248] RADIO_STATUS
[19:13:37.337796] [60] HEARTBEAT
[19:13:37.344784] [61] ATTITUDE_TARGET
[19:13:37.563869] [62] VFR_HUD
[19:13:37.678779] [249] RADIO
[19:13:37.681731] [249] RADIO_STATUS
[19:13:38.242886] [63] HEARTBEAT
[19:13:38.357889] [64] VFR_HUD
[19:13:38.696907] [250] RADIO
[19:13:38.699921] [250] RADIO_STATUS
[19:13:39.180069] [65] HEARTBEAT
[19:13:39.187021] [66] SYS_STATUS
[19:13:39.227085] [67] BATTERY_STATUS
[19:13:39.234061] [68] ATTITUDE_TARGET
[19:13:39.239049] [69] VFR_HUD
[19:13:39.737072] [251] RADIO
[19:13:39.740077] [251] RADIO_STATUS
[19:13:40.203122] [70] VFR_HUD
[19:13:40.209609] [71] HEARTBEAT
[19:13:40.766187] [252] RADIO
[19:13:40.769178] [252] RADIO_STATUS
[19:13:40.887214] [72] VFR_HUD
[19:13:41.355323] [73] HEARTBEAT
[19:13:41.362301] [74] ATTITUDE_TARGET
[19:13:41.576393] [75] VFR_HUD
[19:13:41.685949] [253] RADIO
[19:13:41.688331] [253] RADIO_STATUS
[19:13:42.397568] [77] VFR_HUD
[19:13:42.724427] [254] RADIO
[19:13:42.727482] [254] RADIO_STATUS
[19:13:43.192571] [78] HEARTBEAT
[19:13:43.199859] [79] SYS_STATUS
[19:13:43.313608] [80] BATTERY_STATUS
[19:13:43.550650] [81] ATTITUDE_TARGET
[19:13:43.555633] [82] VFR_HUD
[19:13:43.753644] [255] RADIO
[19:13:43.756622] [255] RADIO_STATUS
[19:13:43.993753] [83] VFR_HUD
[19:13:44.224770] [84] HEARTBEAT
[19:13:44.902811] [0] RADIO
[19:13:44.905791] [0] RADIO_STATUS
[19:13:45.262943] [86] HEARTBEAT
[19:13:45.269901] [87] ATTITUDE_TARGET
[19:13:45.608829] [88] VFR_HUD
[19:13:45.728905] [1] RADIO
[19:13:45.731870] [1] RADIO_STATUS
[19:13:46.168968] [89] HEARTBEAT
[19:13:46.414051] [90] VFR_HUD
[19:13:46.742191] [2] RADIO
[19:13:46.745029] [2] RADIO_STATUS
[19:13:47.786177] [3] RADIO
[19:13:47.789180] [3] RADIO_STATUS
[19:13:48.811371] [4] RADIO
[19:13:48.813390] [4] RADIO_STATUS
[19:13:48.849345] [98] VFR_HUD
[19:13:49.157398] [99] HEARTBEAT
[19:13:49.621498] [101] VFR_HUD
[19:13:49.730453] [5] RADIO
[19:13:49.733485] [5] RADIO_STATUS
[19:13:50.201600] [102] HEARTBEAT
[19:13:50.430541] [103] VFR_HUD
[19:13:50.774627] [6] RADIO
[19:13:50.777583] [6] RADIO_STATUS
[19:13:51.367756] [106] BATTERY_STATUS
[19:13:51.369651] [107] EXTENDED_SYS_STATE
[19:13:51.401719] [108] ATTITUDE_TARGET
[19:13:51.406668] [109] VFR_HUD
[19:13:51.409668] [110] SYSTEM_TIME
[19:13:51.802690] [7] RADIO
[19:13:51.805936] [7] RADIO_STATUS
[19:13:52.039753] [111] VFR_HUD
[19:13:52.154894] [112] HEARTBEAT
[19:13:52.948867] [8] RADIO
[19:13:52.951870] [8] RADIO_STATUS
[19:13:53.199470] [114] HEARTBEAT
[19:13:53.207072] [115] ATTITUDE_TARGET
[19:13:53.649025] [116] VFR_HUD
[19:13:53.868126] [9] RADIO
[19:13:53.870957] [9] RADIO_STATUS
[19:13:54.214165] [117] HEARTBEAT
[19:13:54.460180] [118] VFR_HUD
[19:13:54.787100] [10] RADIO
[19:13:54.790277] [10] RADIO_STATUS
[19:13:55.390228] [121] BATTERY_STATUS
[19:13:55.398178] [122] ATTITUDE_TARGET
[19:13:55.440184] [123] VFR_HUD
[19:13:55.832222] [11] RADIO
[19:13:55.834230] [11] RADIO_STATUS
[19:13:56.057289] [124] VFR_HUD
[19:13:56.172318] [125] HEARTBEAT
[19:13:56.856541] [12] RADIO
[19:13:56.859560] [12] RADIO_STATUS
[19:13:56.894430] [126] VFR_HUD
[19:13:57.335560] [127] HEARTBEAT
[19:13:57.342547] [128] ATTITUDE_TARGET
[19:13:57.665523] [129] VFR_HUD
[19:13:57.775549] [13] RADIO
[19:13:57.779029] [13] RADIO_STATUS
[19:13:58.241686] [130] HEARTBEAT
[19:13:58.355661] [131] VFR_HUD
[19:13:58.819750] [14] RADIO
[19:13:58.822719] [14] RADIO_STATUS
[19:13:59.172804] [132] HEARTBEAT
[19:13:59.179745] [133] SYS_STATUS
[19:13:59.297843] [134] BATTERY_STATUS
[19:13:59.305790] [135] ATTITUDE_TARGET
[19:13:59.335798] [136] VFR_HUD
[19:13:59.843826] [15] RADIO
[19:13:59.846844] [15] RADIO_STATUS
[19:13:59.964884] [137] VFR_HUD
[19:14:00.189955] [138] HEARTBEAT
[19:14:00.777744] [139] VFR_HUD
[19:14:00.993117] [16] RADIO
[19:14:00.997735] [16] RADIO_STATUS
[19:14:01.243082] [140] HEARTBEAT
[19:14:01.251059] [141] ATTITUDE_TARGET
[19:14:01.574100] [142] VFR_HUD
[19:14:01.803209] [17] RADIO
[19:14:01.806162] [17] RADIO_STATUS
[19:14:02.383295] [144] VFR_HUD
[19:14:02.832313] [18] RADIO
[19:14:02.835293] [18] RADIO_STATUS
[19:14:03.430228] [148] ATTITUDE_TARGET
[19:14:03.434373] [149] VFR_HUD
[19:14:03.871517] [19] RADIO
[19:14:03.874422] [19] RADIO_STATUS
[19:14:03.997492] [150] VFR_HUD
[19:14:04.217503] [151] HEARTBEAT
[19:14:04.791597] [152] VFR_HUD
[19:14:04.818555] [20] RADIO
[19:14:04.821553] [20] RADIO_STATUS
[19:14:05.380865] [153] HEARTBEAT
[19:14:05.387708] [154] ATTITUDE_TARGET
[19:14:05.712666] [155] VFR_HUD
[19:14:05.819724] [21] RADIO
[19:14:05.822734] [21] RADIO_STATUS
[19:14:06.169768] [156] HEARTBEAT
[19:14:06.858881] [22] RADIO
[19:14:06.863640] [22] RADIO_STATUS
[19:14:07.222021] [158] HEARTBEAT
[19:14:07.229027] [159] SYS_STATUS
[19:14:07.269469] [160] BATTERY_STATUS
[19:14:07.276967] [161] ATTITUDE_TARGET
[19:14:07.280953] [162] VFR_HUD
[19:14:07.888098] [23] RADIO
[19:14:07.891075] [23] RADIO_STATUS
[19:14:08.364108] [163] VFR_HUD
[19:14:08.367095] [164] HEARTBEAT
[19:14:08.819165] [165] VFR_HUD
[19:14:09.038360] [24] RADIO
[19:14:09.041257] [24] RADIO_STATUS
[19:14:09.154232] [166] HEARTBEAT
[19:14:09.176245] [167] ATTITUDE_TARGET
[19:14:09.618301] [168] VFR_HUD
[19:14:09.957350] [25] RADIO
[19:14:09.960306] [25] RADIO_STATUS
[19:14:10.427399] [170] VFR_HUD
[19:14:10.876419] [26] RADIO
[19:14:10.879481] [26] RADIO_STATUS
[19:14:12.025866] [27] RADIO
[19:14:12.029226] [27] RADIO_STATUS
[19:14:12.165854] [179] HEARTBEAT
[19:14:12.836726] [180] VFR_HUD
[19:14:12.868754] [28] RADIO
[19:14:12.871715] [28] RADIO_STATUS
[19:14:13.200800] [181] HEARTBEAT
[19:14:13.208806] [182] ATTITUDE_TARGET
[19:14:13.864855] [29] RADIO
[19:14:13.867801] [29] RADIO_STATUS
[19:14:14.210970] [184] HEARTBEAT
[19:14:14.456919] [185] VFR_HUD
[19:14:14.909995] [30] RADIO
[19:14:14.912962] [30] RADIO_STATUS
[19:14:15.268587] [186] HEARTBEAT
[19:14:15.274113] [187] SYS_STATUS
[19:14:15.314056] [188] BATTERY_STATUS
[19:14:15.322117] [189] ATTITUDE_TARGET
[19:14:15.327084] [190] VFR_HUD
[19:14:15.934168] [31] RADIO
[19:14:15.937119] [31] RADIO_STATUS
[19:14:16.170335] [192] HEARTBEAT
[19:14:16.869261] [193] VFR_HUD
[19:14:17.084016] [32] RADIO
[19:14:17.086230] [32] RADIO_STATUS
[19:14:17.215299] [194] HEARTBEAT
[19:14:17.221536] [195] ATTITUDE_TARGET
[19:14:17.675351] [196] VFR_HUD
[19:14:17.898420] [33] RADIO
[19:14:17.901382] [33] RADIO_STATUS
[19:14:18.353509] [198] VFR_HUD
[19:14:18.922560] [34] RADIO
[19:14:18.925572] [34] RADIO_STATUS
[19:14:19.170632] [199] HEARTBEAT
[19:14:19.177619] [200] SYS_STATUS
[19:14:19.973743] [204] VFR_HUD
[19:14:19.994717] [35] RADIO
[19:14:19.997714] [35] RADIO_STATUS
[19:14:20.187991] [205] HEARTBEAT
[19:14:20.771787] [206] VFR_HUD
[19:14:20.990800] [36] RADIO
[19:14:20.993860] [36] RADIO_STATUS
[19:14:21.240887] [207] HEARTBEAT
[19:14:21.248867] [208] ATTITUDE_TARGET
[19:14:21.913943] [37] RADIO
[19:14:21.917122] [37] RADIO_STATUS
[19:14:22.257089] [210] HEARTBEAT
[19:14:22.387055] [211] VFR_HUD
[19:14:22.956196] [38] RADIO
[19:14:22.959112] [38] RADIO_STATUS
[19:14:23.310261] [214] BATTERY_STATUS
[19:14:23.980499] [39] RADIO
[19:14:23.982363] [39] RADIO_STATUS
[19:14:24.216739] [218] HEARTBEAT
[19:14:24.901792] [40] RADIO
[19:14:24.902395] [40] RADIO_STATUS
[19:14:25.259519] [220] HEARTBEAT
[19:14:25.267542] [221] ATTITUDE_TARGET
[19:14:25.604552] [222] VFR_HUD
[19:14:26.047633] [41] RADIO
[19:14:26.050633] [41] RADIO_STATUS
[19:14:26.401061] [224] VFR_HUD
[19:14:26.967735] [42] RADIO
[19:14:26.969739] [42] RADIO_STATUS
[19:14:27.215789] [225] HEARTBEAT
[19:14:27.221785] [226] SYS_STATUS
[19:14:28.007895] [230] VFR_HUD
[19:14:28.041898] [43] RADIO
[19:14:28.042849] [43] RADIO_STATUS
[19:14:28.241998] [231] HEARTBEAT
[19:14:28.817598] [232] VFR_HUD
[19:14:28.926058] [44] RADIO
[19:14:28.930367] [44] RADIO_STATUS
[19:14:29.153093] [233] HEARTBEAT
[19:14:29.198100] [234] ATTITUDE_TARGET
[19:14:29.628172] [235] VFR_HUD
[19:14:29.956282] [45] RADIO
[19:14:29.959199] [45] RADIO_STATUS
[19:14:31.105421] [46] RADIO
[19:14:31.108352] [46] RADIO_STATUS
[19:14:31.234485] [238] HEARTBEAT
[19:14:31.241425] [239] SYS_STATUS
[19:14:31.512483] [242] ATTITUDE_TARGET
[19:14:31.516450] [243] VFR_HUD
[19:14:31.520444] [244] SYSTEM_TIME
[19:14:32.025518] [47] RADIO
[19:14:32.028781] [47] RADIO_STATUS
[19:14:32.147094] [245] VFR_HUD
[19:14:32.174576] [246] HEARTBEAT
[19:14:32.945714] [48] RADIO
[19:14:32.948843] [48] RADIO_STATUS
[19:14:33.200737] [248] HEARTBEAT
[19:14:33.208702] [249] ATTITUDE_TARGET
[19:14:33.755832] [250] VFR_HUD
[19:14:33.984926] [49] RADIO
[19:14:33.987848] [49] RADIO_STATUS
[19:14:34.211940] [251] HEARTBEAT
[19:14:34.445900] [252] VFR_HUD
[19:14:35.016135] [50] RADIO
[19:14:35.018925] [50] RADIO_STATUS
[19:14:36.054135] [51] RADIO
[19:14:36.057177] [51] RADIO_STATUS
[19:14:36.976955] [4] VFR_HUD
[19:14:37.002260] [52] RADIO
[19:14:37.005325] [52] RADIO_STATUS
[19:14:37.216101] [5] HEARTBEAT
[19:14:37.222282] [6] ATTITUDE_TARGET
[19:14:37.665792] [7] VFR_HUD
[19:14:38.003708] [53] RADIO
[19:14:38.006353] [53] RADIO_STATUS
[19:14:38.271633] JAMMING_START
[19:14:38.354388] [9] VFR_HUD
[19:14:39.152586] [54] RADIO
[19:14:39.155555] [54] RADIO_STATUS
[19:14:39.281616] [10] HEARTBEAT
[19:14:39.288597] [11] SYS_STATUS
[19:14:39.520686] [13] ATTITUDE_TARGET
[19:14:39.525621] [14] VFR_HUD
[19:14:39.975658] [15] VFR_HUD
[19:14:39.995694] [55] RADIO
[19:14:39.998657] [55] RADIO_STATUS
[19:14:40.198745] [16] HEARTBEAT
[19:14:40.778811] [17] VFR_HUD
[19:14:40.993047] [56] RADIO
[19:14:40.995838] [56] RADIO_STATUS
[19:14:41.242860] [18] HEARTBEAT
[19:14:41.250953] [19] ATTITUDE_TARGET
[19:14:41.572938] [20] VFR_HUD
[19:14:42.141972] [57] RADIO
[19:14:42.145037] [57] RADIO_STATUS
[19:14:42.259174] [21] HEARTBEAT
[19:14:42.388210] [22] VFR_HUD
[19:14:43.062186] [58] RADIO
[19:14:43.065177] [58] RADIO_STATUS
[19:14:43.190214] [23] HEARTBEAT
[19:14:43.197221] [24] SYS_STATUS
[19:14:43.429223] [26] ATTITUDE_TARGET
[19:14:43.434307] [27] VFR_HUD
[19:14:44.102268] [28] VFR_HUD
[19:14:44.113290] [59] RADIO
[19:14:44.116243] [59] RADIO_STATUS
[19:14:44.327431] [29] HEARTBEAT
[19:14:44.792473] [30] VFR_HUD
[19:14:45.026452] [60] RADIO
[19:14:45.029409] [60] RADIO_STATUS
[19:14:45.260485] [31] HEARTBEAT
[19:14:45.268527] [32] ATTITUDE_TARGET
[19:14:46.051107] [61] RADIO
[19:14:46.053632] [61] RADIO_STATUS
[19:14:46.169822] [34] HEARTBEAT
[19:14:46.401606] [35] VFR_HUD
[19:14:47.095699] [62] RADIO
[19:14:47.098826] [62] RADIO_STATUS
[19:14:47.327707] [36] HEARTBEAT
[19:14:47.334809] [37] SYS_STATUS
[19:14:47.569099] [39] ATTITUDE_TARGET
[19:14:47.571772] [40] VFR_HUD
[19:14:48.010766] [41] VFR_HUD
[19:14:48.042814] [63] RADIO
[19:14:48.047724] [63] RADIO_STATUS
[19:14:48.236452] [42] HEARTBEAT
[19:14:49.039972] [64] RADIO
[19:14:49.043229] [64] RADIO_STATUS
[19:14:49.169965] [44] HEARTBEAT
[19:14:49.176977] [45] ATTITUDE_TARGET
[19:14:49.620115] [46] VFR_HUD
[19:14:50.084079] [65] RADIO
[19:14:50.087061] [65] RADIO_STATUS
[19:14:50.430183] [48] VFR_HUD
[19:14:51.109225] [66] RADIO
[19:14:51.112222] [66] RADIO_STATUS
[19:14:51.237241] [49] HEARTBEAT
[19:14:51.244254] [50] SYS_STATUS
[19:14:51.483389] [53] ATTITUDE_TARGET
[19:14:51.488355] [54] VFR_HUD
[19:14:51.492480] [55] SYSTEM_TIME
[19:14:52.034383] [67] RADIO
[19:14:52.037577] [67] RADIO_STATUS
[19:14:52.150418] [57] HEARTBEAT
[19:14:52.839461] [58] VFR_HUD
[19:14:53.068498] [68] RADIO
[19:14:53.071464] [68] RADIO_STATUS
[19:14:53.758577] [61] VFR_HUD
[19:14:54.097625] [69] RADIO
[19:14:54.100865] [69] RADIO_STATUS
[19:14:54.214707] [62] HEARTBEAT
[19:14:54.460635] [63] VFR_HUD
[19:14:55.142708] [70] RADIO
[19:14:55.146079] [70] RADIO_STATUS
[19:14:55.375782] [64] HEARTBEAT
[19:14:55.383018] [65] SYS_STATUS
[19:14:55.614901] [67] ATTITUDE_TARGET
[19:14:55.619799] [68] VFR_HUD
[19:14:56.057858] [69] VFR_HUD
[19:14:56.085770] [71] RADIO
[19:14:56.087821] [71] RADIO_STATUS
[19:14:56.178884] [70] HEARTBEAT
[19:14:56.753785] [71] VFR_HUD
[19:14:57.087010] [72] RADIO
[19:14:57.089999] [72] RADIO_STATUS
[19:14:57.217002] [72] HEARTBEAT
[19:14:57.225041] [73] ATTITUDE_TARGET
[19:14:57.668093] [74] VFR_HUD
[19:14:58.127190] [73] RADIO
[19:14:58.130137] [73] RADIO_STATUS
[19:14:58.357286] [76] VFR_HUD
[19:14:59.156383] [74] RADIO
[19:14:59.160389] [74] RADIO_STATUS
[19:14:59.967628] [82] VFR_HUD
[19:15:00.076637] [75] RADIO
[19:15:00.079446] [75] RADIO_STATUS
[19:15:00.192522] [83] HEARTBEAT
[19:15:00.781547] [84] VFR_HUD
[19:15:01.115578] [76] RADIO
[19:15:01.118648] [76] RADIO_STATUS
[19:15:01.576747] [87] VFR_HUD
[19:15:02.144795] [77] RADIO
[19:15:02.148799] [77] RADIO_STATUS
[19:15:02.261748] [88] HEARTBEAT
[19:15:02.495790] [89] VFR_HUD
[19:15:03.193907] [90] HEARTBEAT
[19:15:03.199868] [91] SYS_STATUS
[19:15:03.294892] [78] RADIO
[19:15:03.297855] [78] RADIO_STATUS
[19:15:03.438966] [92] BATTERY_STATUS
[19:15:03.447575] [93] ATTITUDE_TARGET
[19:15:03.476929] [94] VFR_HUD
[19:15:04.105021] [79] RADIO
[19:15:04.108025] [79] RADIO_STATUS
[19:15:04.221155] [96] HEARTBEAT
[19:15:04.795134] [97] VFR_HUD
[19:15:05.134203] [80] RADIO
[19:15:05.137248] [80] RADIO_STATUS
[19:15:05.715268] [100] VFR_HUD
[19:15:06.284395] [81] RADIO
[19:15:06.287298] [81] RADIO_STATUS
[19:15:06.416355] [102] VFR_HUD
[19:15:07.203363] [82] RADIO
[19:15:07.206354] [82] RADIO_STATUS
[19:15:07.570484] [106] ATTITUDE_TARGET
[19:15:07.575617] [107] VFR_HUD
[19:15:08.013659] [108] VFR_HUD
[19:15:08.122598] [83] RADIO
[19:15:08.125566] [83] RADIO_STATUS
[19:15:08.239633] [109] HEARTBEAT
[19:15:09.172691] [111] HEARTBEAT
[19:15:09.180711] [112] ATTITUDE_TARGET
[19:15:09.190672] [84] RADIO
[19:15:09.193675] [84] RADIO_STATUS
[19:15:09.623788] [113] VFR_HUD
[19:15:10.192851] [85] RADIO
[19:15:10.197035] [85] RADIO_STATUS
[19:15:10.308963] [114] HEARTBEAT
[19:15:10.543041] [115] VFR_HUD
[19:15:11.342019] [86] RADIO
[19:15:11.345024] [86] RADIO_STATUS
[19:15:11.489794] [118] BATTERY_STATUS
[19:15:11.491015] [119] EXTENDED_SYS_STATE
[19:15:11.499094] [120] ATTITUDE_TARGET
[19:15:11.504114] [121] VFR_HUD
[19:15:11.507258] [122] SYSTEM_TIME
[19:15:12.153196] [123] VFR_HUD
[19:15:12.160170] [124] HEARTBEAT
[19:15:12.190172] [87] RADIO
[19:15:12.193816] [87] RADIO_STATUS
[19:15:12.842243] [125] VFR_HUD
[19:15:13.181268] [88] RADIO
[19:15:13.184332] [88] RADIO_STATUS
[19:15:13.311305] [126] HEARTBEAT
[19:15:13.319365] [127] ATTITUDE_TARGET
[19:15:13.762380] [128] VFR_HUD
[19:15:14.227420] [129] HEARTBEAT
[19:15:14.249394] [89] RADIO
[19:15:14.252410] [89] RADIO_STATUS
[19:15:14.452409] [130] VFR_HUD
[19:15:15.250564] [90] RADIO
[19:15:15.253616] [90] RADIO_STATUS
[19:15:15.617797] [134] ATTITUDE_TARGET
[19:15:15.622563] [135] VFR_HUD
[19:15:16.061662] [136] VFR_HUD
[19:15:16.170663] [91] RADIO
[19:15:16.173669] [91] RADIO_STATUS
[19:15:16.755760] [138] VFR_HUD
[19:15:17.219794] [139] HEARTBEAT
[19:15:17.227791] [140] ATTITUDE_TARGET
[19:15:17.237767] [92] RADIO
[19:15:17.240766] [92] RADIO_STATUS
[19:15:18.239967] [93] RADIO
[19:15:18.242938] [93] RADIO_STATUS
[19:15:18.365024] [142] HEARTBEAT
[19:15:18.368994] [143] VFR_HUD
[19:15:19.285128] [94] RADIO
[19:15:19.288072] [94] RADIO_STATUS
[19:15:20.206320] [149] VFR_HUD
[19:15:20.209265] [150] HEARTBEAT
[19:15:20.216190] [95] RADIO
[19:15:20.219431] [95] RADIO_STATUS
[19:15:20.889264] [151] VFR_HUD
[19:15:21.229330] [96] RADIO
[19:15:21.232378] [96] RADIO_STATUS
[19:15:21.581025] [154] VFR_HUD
[19:15:22.268513] [97] RADIO
[19:15:22.271457] [97] RADIO_STATUS
[19:15:23.197665] [157] HEARTBEAT
[19:15:23.203636] [158] SYS_STATUS
[19:15:23.298566] [98] RADIO
[19:15:23.301641] [98] RADIO_STATUS
[19:15:24.218737] [99] RADIO
[19:15:24.221745] [99] RADIO_STATUS
[19:15:24.801849] [164] VFR_HUD
[19:15:25.268897] [165] HEARTBEAT
[19:15:25.276951] [166] ATTITUDE_TARGET
[19:15:25.368911] [100] RADIO
[19:15:25.371871] [100] RADIO_STATUS
[19:15:25.608978] [167] VFR_HUD
[19:15:26.288092] [101] RADIO
[19:15:26.291072] [101] RADIO_STATUS
[19:15:26.409100] [169] VFR_HUD
[19:15:27.390222] [174] VFR_HUD
[19:15:27.437163] [102] RADIO
[19:15:27.440139] [102] RADIO_STATUS
[19:15:28.032555] [175] VFR_HUD
[19:15:28.245995] [176] HEARTBEAT
[19:15:28.358304] [103] RADIO
[19:15:28.361324] [103] RADIO_STATUS
[19:15:28.938460] [177] VFR_HUD
[19:15:29.277465] [104] RADIO
[19:15:29.282600] [104] RADIO_STATUS
[19:15:29.639784] [180] VFR_HUD
[19:15:30.213643] [181] HEARTBEAT
[19:15:30.317656] [105] RADIO
[19:15:30.320597] [105] RADIO_STATUS
[19:15:30.547681] [182] VFR_HUD
[19:15:31.247902] [183] HEARTBEAT
[19:15:31.252807] [184] SYS_STATUS
[19:15:31.347788] [106] RADIO
[19:15:31.350734] [106] RADIO_STATUS
[19:15:32.165895] [190] VFR_HUD
[19:15:32.166886] [191] HEARTBEAT
[19:15:32.266914] [107] RADIO
[19:15:32.269970] [107] RADIO_STATUS
[19:15:32.848006] [192] VFR_HUD
[19:15:33.316114] [193] HEARTBEAT
[19:15:33.324115] [194] ATTITUDE_TARGET
[19:15:33.416097] [108] RADIO
[19:15:33.419116] [108] RADIO_STATUS
[19:15:34.232343] [196] HEARTBEAT
[19:15:34.336164] [109] RADIO
[19:15:34.339189] [109] RADIO_STATUS
[19:15:34.457189] [197] VFR_HUD
[19:15:35.147369] [198] HEARTBEAT
[19:15:35.167471] [199] SYS_STATUS
[19:15:35.210389] [200] BATTERY_STATUS
[19:15:35.218313] [201] ATTITUDE_TARGET
[19:15:35.223320] [202] VFR_HUD
[19:15:35.487427] [110] RADIO
[19:15:35.490323] [110] RADIO_STATUS
[19:15:36.303519] [203] VFR_HUD
[19:15:36.306425] [204] HEARTBEAT
[19:15:36.407469] [111] RADIO
[19:15:36.410495] [111] RADIO_STATUS
[19:15:36.758563] [205] VFR_HUD
[19:15:37.327628] [112] RADIO
[19:15:37.330633] [112] RADIO_STATUS
[19:15:37.456631] [206] HEARTBEAT
[19:15:37.464717] [207] ATTITUDE_TARGET
[19:15:37.677665] [208] VFR_HUD
[19:15:38.263791] [209] HEARTBEAT
[19:15:38.379925] [210] VFR_HUD
[19:15:38.400726] [113] RADIO
[19:15:38.403746] [113] RADIO_STATUS
[19:15:39.292875] [114] RADIO
[19:15:39.296714] [114] RADIO_STATUS
[19:15:40.217775] [216] VFR_HUD
[19:15:40.217923] [217] HEARTBEAT
[19:15:40.317112] [115] RADIO
[19:15:40.320010] [115] RADIO_STATUS
[19:15:41.367228] [219] HEARTBEAT
[19:15:41.374210] [220] ATTITUDE_TARGET
[19:15:41.384156] [116] RADIO
[19:15:41.387169] [116] RADIO_STATUS
[19:15:41.587183] [221] VFR_HUD
[19:15:42.168297] [222] HEARTBEAT
[19:15:42.386260] [117] RADIO
[19:15:42.389215] [117] RADIO_STATUS
[19:15:42.507253] [223] VFR_HUD
[19:15:43.204466] [224] HEARTBEAT
[19:15:43.211459] [225] SYS_STATUS
[19:15:43.305498] [118] RADIO
[19:15:43.308416] [118] RADIO_STATUS
[19:15:44.353974] [229] VFR_HUD
[19:15:44.354530] [230] HEARTBEAT
[19:15:44.455592] [119] RADIO
[19:15:44.458708] [119] RADIO_STATUS
[19:15:44.806899] [231] VFR_HUD
[19:15:45.375829] [120] RADIO
[19:15:45.378770] [120] RADIO_STATUS
[19:15:45.616007] [234] VFR_HUD
[19:15:46.181884] [235] HEARTBEAT
[19:15:46.415933] [236] VFR_HUD
[19:15:46.447892] [121] RADIO
[19:15:46.450889] [121] RADIO_STATUS
[19:15:47.335019] [122] RADIO
[19:15:47.337003] [122] RADIO_STATUS
[19:15:48.260216] [242] VFR_HUD
[19:15:48.266384] [243] HEARTBEAT
[19:15:48.364189] [123] RADIO
[19:15:48.367177] [123] RADIO_STATUS
[19:15:48.944252] [244] VFR_HUD
[19:15:49.413559] [245] HEARTBEAT
[19:15:49.421382] [246] ATTITUDE_TARGET
[19:15:49.431635] [124] RADIO
[19:15:49.434270] [124] RADIO_STATUS
[19:15:49.634351] [247] VFR_HUD
[19:15:50.209420] [248] HEARTBEAT
[19:15:50.433452] [125] RADIO
[19:15:50.436426] [125] RADIO_STATUS
[19:15:50.554450] [249] VFR_HUD
[19:15:51.251589] [250] HEARTBEAT
[19:15:51.257619] [251] SYS_STATUS
[19:15:51.352579] [126] RADIO
[19:15:51.355564] [126] RADIO_STATUS
[19:15:51.417612] [252] BATTERY_STATUS
[19:15:51.418540] [253] EXTENDED_SYS_STATE
[19:15:51.426590] [254] ATTITUDE_TARGET
[19:15:51.431556] [255] VFR_HUD
[19:15:51.435579] [0] SYSTEM_TIME
[19:15:52.053715] [1] VFR_HUD
[19:15:52.158769] [2] HEARTBEAT
[19:15:52.392764] [127] RADIO
[19:15:52.395763] [127] RADIO_STATUS
[19:15:52.853836] [3] VFR_HUD
[19:15:53.422928] [128] RADIO
[19:15:53.425932] [128] RADIO_STATUS
[19:15:53.559935] [6] VFR_HUD
[19:15:54.228110] [7] HEARTBEAT
[19:15:54.346977] [129] RADIO
[19:15:54.349957] [129] RADIO_STATUS
[19:15:55.148154] [9] HEARTBEAT
[19:15:55.168136] [10] SYS_STATUS
[19:15:55.216098] [11] BATTERY_STATUS
[19:15:55.224177] [12] ATTITUDE_TARGET
[19:15:55.229131] [13] VFR_HUD
[19:15:55.383220] [130] RADIO
[19:15:55.386142] [130] RADIO_STATUS
[19:15:56.309294] [14] VFR_HUD
[19:15:56.312534] [15] HEARTBEAT
[19:15:56.413320] [131] RADIO
[19:15:56.416383] [131] RADIO_STATUS
[19:15:56.764599] [16] VFR_HUD
[19:15:57.233445] [17] HEARTBEAT
[19:15:57.240414] [18] ATTITUDE_TARGET
[19:15:57.563469] [132] RADIO
[19:15:57.566487] [132] RADIO_STATUS
[19:15:58.139606] [20] HEARTBEAT
[19:15:58.482589] [133] RADIO
[19:15:58.485557] [133] RADIO_STATUS
[19:15:59.316754] [24] BATTERY_STATUS
[19:15:59.324720] [25] ATTITUDE_TARGET
[19:15:59.354707] [26] VFR_HUD
[19:15:59.381785] [134] RADIO
[19:15:59.384770] [134] RADIO_STATUS
[19:15:59.983869] [27] VFR_HUD
[19:16:00.218112] [28] HEARTBEAT
[19:16:00.441899] [135] RADIO
[19:16:00.444868] [135] RADIO_STATUS
[19:16:00.902998] [29] VFR_HUD
[19:16:01.389995] [136] RADIO
[19:16:01.393046] [136] RADIO_STATUS
[19:16:01.593140] [32] VFR_HUD
[19:16:02.392153] [137] RADIO
[19:16:02.395141] [137] RADIO_STATUS
[19:16:03.210267] [35] HEARTBEAT
[19:16:03.217224] [36] SYS_STATUS
[19:16:03.449288] [38] ATTITUDE_TARGET
[19:16:03.454215] [39] VFR_HUD
[19:16:03.460305] [138] RADIO
[19:16:03.463276] [138] RADIO_STATUS
[19:16:04.024365] [40] VFR_HUD
[19:16:04.349786] [41] HEARTBEAT
[19:16:04.381765] [139] RADIO
[19:16:04.382421] [139] RADIO_STATUS
[19:16:05.502622] [140] RADIO
[19:16:05.504644] [140] RADIO_STATUS
[19:16:05.732788] [45] VFR_HUD
[19:16:06.189590] [46] HEARTBEAT
[19:16:06.433691] [47] VFR_HUD
[19:16:06.530770] [141] RADIO
[19:16:06.533733] [141] RADIO_STATUS
[19:16:07.451895] [142] RADIO
[19:16:07.454969] [142] RADIO_STATUS
[19:16:08.498130] [143] RADIO
[19:16:08.499404] [143] RADIO_STATUS
[19:16:08.952139] [55] VFR_HUD
[19:16:09.191150] [56] HEARTBEAT
[19:16:09.199142] [57] ATTITUDE_TARGET
[19:16:09.416203] [144] RADIO
[19:16:09.419146] [144] RADIO_STATUS
[19:16:09.641129] [58] VFR_HUD
[19:16:10.441235] [145] RADIO
[19:16:10.444259] [145] RADIO_STATUS
[19:16:10.573241] [60] VFR_HUD
[19:16:11.258405] [61] HEARTBEAT
[19:16:11.264348] [62] SYS_STATUS
[19:16:11.484396] [146] RADIO
[19:16:11.487417] [146] RADIO_STATUS
[19:16:12.071516] [68] VFR_HUD
[19:16:12.175769] [69] HEARTBEAT
[19:16:12.508566] [147] RADIO
[19:16:12.511723] [147] RADIO_STATUS
[19:16:12.754599] [70] VFR_HUD
[19:16:13.549711] [73] VFR_HUD
[19:16:13.581771] [148] RADIO
[19:16:13.584681] [148] RADIO_STATUS
[19:16:14.234847] [74] HEARTBEAT
[19:16:14.578866] [149] RADIO
[19:16:14.581815] [149] RADIO_STATUS
[19:16:15.405984] [79] ATTITUDE_TARGET
[19:16:15.410947] [80] VFR_HUD
[19:16:15.498996] [150] RADIO
[19:16:15.501927] [150] RADIO_STATUS
[19:16:16.079173] [81] VFR_HUD
[19:16:16.543135] [151] RADIO
[19:16:16.549403] [151] RADIO_STATUS
[19:16:16.780145] [83] VFR_HUD
[19:16:17.238442] [84] HEARTBEAT
[19:16:17.246219] [85] ATTITUDE_TARGET
[19:16:17.458184] [152] RADIO
[19:16:17.461255] [152] RADIO_STATUS
[19:16:18.150333] [87] HEARTBEAT
[19:16:18.379310] [88] VFR_HUD
[19:16:18.489427] [153] RADIO
[19:16:18.491400] [153] RADIO_STATUS
[19:16:19.306456] [89] HEARTBEAT
[19:16:19.313464] [90] SYS_STATUS
[19:16:19.545549] [92] ATTITUDE_TARGET
[19:16:19.550460] [93] VFR_HUD
[19:16:19.555583] [154] RADIO
[19:16:19.558663] [154] RADIO_STATUS
[19:16:19.988534] [94] VFR_HUD
[19:16:20.557579] [155] RADIO
[19:16:20.560537] [155] RADIO_STATUS
[19:16:21.139667] [97] HEARTBEAT
[19:16:21.179625] [98] ATTITUDE_TARGET
[19:16:21.482692] [156] RADIO
[19:16:21.485605] [156] RADIO_STATUS
[19:16:21.598883] [99] VFR_HUD
[19:16:22.419785] [101] VFR_HUD
[19:16:22.627887] [157] RADIO
[19:16:22.630989] [157] RADIO_STATUS
[19:16:23.455000] [105] ATTITUDE_TARGET
[19:16:23.459937] [106] VFR_HUD
[19:16:23.547949] [158] RADIO
[19:16:23.550885] [158] RADIO_STATUS
[19:16:24.128040] [107] VFR_HUD
[19:16:24.587315] [159] RADIO
[19:16:24.590126] [159] RADIO_STATUS
[19:16:24.829175] [109] VFR_HUD
[19:16:25.507292] [160] RADIO
[19:16:25.510222] [160] RADIO_STATUS
[19:16:25.738241] [112] VFR_HUD
[19:16:26.194356] [113] HEARTBEAT
[19:16:26.428361] [114] VFR_HUD
[19:16:26.537307] [161] RADIO
[19:16:26.540345] [161] RADIO_STATUS
[19:16:27.355415] [115] HEARTBEAT
[19:16:27.362901] [116] SYS_STATUS
[19:16:27.594555] [118] ATTITUDE_TARGET
[19:16:27.599531] [119] VFR_HUD
[19:16:27.605535] [162] RADIO
[19:16:27.608471] [162] RADIO_STATUS
[19:16:28.037628] [120] VFR_HUD
[19:16:28.158591] [121] HEARTBEAT
[19:16:28.607637] [163] RADIO
[19:16:28.610692] [163] RADIO_STATUS
[19:16:29.197815] [123] HEARTBEAT
[19:16:29.204749] [124] ATTITUDE_TARGET
[19:16:29.526805] [164] RADIO
[19:16:29.529812] [164] RADIO_STATUS
[19:16:29.647781] [125] VFR_HUD
[19:16:30.468973] [127] VFR_HUD
[19:16:30.567020] [165] RADIO
[19:16:30.569948] [165] RADIO_STATUS
[19:16:31.597781] [166] RADIO
[19:16:31.599183] [166] RADIO_STATUS
[19:16:31.947337] [135] VFR_HUD
[19:16:32.173214] [136] HEARTBEAT
[19:16:32.636200] [167] RADIO
[19:16:32.639182] [167] RADIO_STATUS
[19:16:33.568439] [140] VFR_HUD
[19:16:33.589364] [168] RADIO
[19:16:33.592476] [168] RADIO_STATUS
[19:16:34.242425] [141] HEARTBEAT
[19:16:34.477686] [142] VFR_HUD
[19:16:34.585431] [169] RADIO
[19:16:34.588381] [169] RADIO_STATUS
[19:16:35.173594] [143] HEARTBEAT
[19:16:35.180550] [144] SYS_STATUS
[19:16:35.418629] [145] BATTERY_STATUS
[19:16:35.426662] [146] ATTITUDE_TARGET
[19:16:35.456583] [147] VFR_HUD
[19:16:35.625608] [170] RADIO
[19:16:35.628636] [170] RADIO_STATUS
[19:16:36.200684] [149] HEARTBEAT
[19:16:36.654723] [171] RADIO
[19:16:36.657723] [171] RADIO_STATUS
[19:16:36.775728] [150] VFR_HUD
[19:16:37.244866] [151] HEARTBEAT
[19:16:37.252807] [152] ATTITUDE_TARGET
[19:16:37.695902] [153] VFR_HUD
[19:16:37.727979] [172] RADIO
[19:16:37.730856] [172] RADIO_STATUS
[19:16:38.397078] [155] VFR_HUD
[19:16:38.620069] [173] RADIO
[19:16:38.622959] [173] RADIO_STATUS
[19:16:39.366147] [160] VFR_HUD
[19:16:39.644131] [174] RADIO
[19:16:39.647145] [174] RADIO_STATUS
[19:16:39.995139] [161] VFR_HUD
[19:16:40.220244] [162] HEARTBEAT
[19:16:40.689290] [175] RADIO
[19:16:40.692329] [175] RADIO_STATUS
[19:16:40.804304] [163] VFR_HUD
[19:16:41.140393] [164] HEARTBEAT
[19:16:41.162837] [165] ATTITUDE_TARGET
[19:16:41.616670] [166] VFR_HUD
[19:16:41.636383] [176] RADIO
[19:16:41.639401] [176] RADIO_STATUS
[19:16:42.290552] [167] HEARTBEAT
[19:16:42.524535] [168] VFR_HUD
[19:16:42.633553] [177] RADIO
[19:16:42.636568] [177] RADIO_STATUS
[19:16:43.466613] [171] BATTERY_STATUS
[19:16:43.474577] [172] ATTITUDE_TARGET
[19:16:43.505636] [173] VFR_HUD
[19:16:43.678775] [178] RADIO
[19:16:43.681696] [178] RADIO_STATUS
[19:16:44.133696] [174] VFR_HUD
[19:16:44.140716] [175] HEARTBEAT
[19:16:44.703810] [179] RADIO
[19:16:44.705761] [179] RADIO_STATUS
[19:16:44.823775] [176] VFR_HUD
[19:16:45.292972] [177] HEARTBEAT
[19:16:45.300038] [178] ATTITUDE_TARGET
[19:16:45.627938] [180] RADIO
[19:16:45.630926] [180] RADIO_STATUS
[19:16:45.743972] [179] VFR_HUD
[19:16:46.199041] [180] HEARTBEAT
[19:16:46.434027] [181] VFR_HUD
[19:16:46.663109] [181] RADIO
[19:16:46.665153] [181] RADIO_STATUS
[19:16:47.692234] [182] RADIO
[19:16:47.695190] [182] RADIO_STATUS
[19:16:48.043238] [187] VFR_HUD
[19:16:48.732312] [183] RADIO
[19:16:48.735374] [183] RADIO_STATUS
[19:16:48.852487] [189] VFR_HUD
[19:16:49.201424] [190] HEARTBEAT
[19:16:49.209422] [191] ATTITUDE_TARGET
[19:16:49.652466] [192] VFR_HUD
[19:16:49.760481] [184] RADIO
[19:16:49.763444] [184] RADIO_STATUS
[19:16:50.336576] [193] HEARTBEAT
[19:16:50.360541] [194] VFR_HUD
[19:16:50.680755] [185] RADIO
[19:16:50.683625] [185] RADIO_STATUS
[19:16:51.163637] [195] HEARTBEAT
[19:16:51.170743] [196] SYS_STATUS
[19:16:51.204659] [197] BATTERY_STATUS
[19:16:51.206739] [198] EXTENDED_SYS_STATE
[19:16:51.214675] [199] ATTITUDE_TARGET
[19:16:51.219606] [200] VFR_HUD
[19:16:51.222674] [201] SYSTEM_TIME
[19:16:51.719733] [186] RADIO
[19:16:51.722762] [186] RADIO_STATUS
[19:16:51.950746] [202] VFR_HUD
[19:16:52.175854] [203] HEARTBEAT
[19:16:52.748875] [187] RADIO
[19:16:52.751948] [187] RADIO_STATUS
[19:16:53.668977] [188] RADIO
[19:16:53.671948] [188] RADIO_STATUS
[19:16:54.709145] [189] RADIO
[19:16:54.712413] [189] RADIO_STATUS
[19:16:55.177203] [210] HEARTBEAT
[19:16:55.183211] [211] SYS_STATUS
[19:16:55.303250] [212] BATTERY_STATUS
[19:16:55.738247] [190] RADIO
[19:16:55.741216] [190] RADIO_STATUS
[19:16:56.089297] [215] VFR_HUD
[19:16:56.778421] [217] VFR_HUD
[19:16:56.805356] [191] RADIO
[19:16:56.808428] [191] RADIO_STATUS
[19:16:57.248426] [218] HEARTBEAT
[19:16:57.255433] [219] ATTITUDE_TARGET
[19:16:57.600391] [220] VFR_HUD
[19:16:57.698384] [192] RADIO
[19:16:57.701490] [192] RADIO_STATUS
[19:16:58.388627] [222] VFR_HUD
[19:16:58.727612] [193] RADIO
[19:16:58.730544] [193] RADIO_STATUS
[19:16:59.331756] [225] BATTERY_STATUS
[19:16:59.339705] [226] ATTITUDE_TARGET
[19:16:59.369710] [227] VFR_HUD
[19:16:59.767876] [194] RADIO
[19:16:59.770741] [194] RADIO_STATUS
[19:16:59.998703] [228] VFR_HUD
[19:17:00.223818] [229] HEARTBEAT
[19:17:00.797848] [195] RADIO
[19:17:00.799855] [195] RADIO_STATUS
[19:17:01.148966] [231] HEARTBEAT
[19:17:01.608358] [233] VFR_HUD
[19:17:01.716040] [196] RADIO
[19:17:01.719008] [196] RADIO_STATUS
[19:17:02.528258] [235] VFR_HUD
[19:17:02.867174] [197] RADIO
[19:17:02.870091] [197] RADIO_STATUS
[19:17:03.226304] [236] HEARTBEAT
[19:17:03.233874] [237] SYS_STATUS
[19:17:03.787343] [198] RADIO
[19:17:03.790294] [198] RADIO_STATUS
[19:17:04.138385] [241] VFR_HUD
[19:17:04.166471] [242] HEARTBEAT
[19:17:04.839422] [243] VFR_HUD
[19:17:04.855460] [199] RADIO
[19:17:04.858454] [199] RADIO_STATUS
[19:17:05.297593] [244] HEARTBEAT
[19:17:05.304485] [245] ATTITUDE_TARGET
[19:17:05.648601] [246] VFR_HUD
[19:17:05.752649] [200] RADIO
[19:17:05.754505] [200] RADIO_STATUS
[19:17:06.202633] [247] HEARTBEAT
[19:17:06.437649] [248] VFR_HUD
[19:17:06.776655] [201] RADIO
[19:17:06.780666] [201] RADIO_STATUS
[19:17:07.254787] [249] HEARTBEAT
[19:17:07.260793] [250] SYS_STATUS
[19:17:07.379865] [251] BATTERY_STATUS
[19:17:07.387760] [252] ATTITUDE_TARGET
[19:17:07.417760] [253] VFR_HUD
[19:17:07.822141] [202] RADIO
[19:17:07.824830] [202] RADIO_STATUS
[19:17:08.046871] [254] VFR_HUD
[19:17:08.741028] [203] RADIO
[19:17:08.743931] [203] RADIO_STATUS
[19:17:09.552102] [3] VFR_HUD
[19:17:09.765098] [204] RADIO
[19:17:09.768047] [204] RADIO_STATUS
[19:17:10.241161] [4] HEARTBEAT
[19:17:10.362185] [5] VFR_HUD
[19:17:10.915250] [205] RADIO
[19:17:10.918175] [205] RADIO_STATUS
[19:17:11.835372] [206] RADIO
[19:17:11.838389] [206] RADIO_STATUS
[19:17:11.955344] [13] VFR_HUD
[19:17:12.182636] [14] HEARTBEAT
[19:17:12.754484] [207] RADIO
[19:17:12.757406] [207] RADIO_STATUS
[19:17:12.875599] [15] VFR_HUD
[19:17:13.344605] [16] HEARTBEAT
[19:17:13.352576] [17] ATTITUDE_TARGET
[19:17:13.565714] [18] VFR_HUD
[19:17:13.799627] [208] RADIO
[19:17:13.802629] [208] RADIO_STATUS
[19:17:14.146002] [19] HEARTBEAT
[19:17:14.484729] [20] VFR_HUD
[19:17:14.823870] [209] RADIO
[19:17:14.826756] [209] RADIO_STATUS
[19:17:15.181887] [21] HEARTBEAT
[19:17:15.188831] [22] SYS_STATUS
[19:17:15.308966] [23] BATTERY_STATUS
[19:17:15.869725] [210] RADIO
[19:17:15.871834] [210] RADIO_STATUS
[19:17:15.996032] [26] VFR_HUD
[19:17:16.784175] [28] VFR_HUD
[19:17:16.811259] [211] RADIO
[19:17:16.814113] [211] RADIO_STATUS
[19:17:17.594393] [31] VFR_HUD
[19:17:17.813205] [212] RADIO
[19:17:17.816201] [212] RADIO_STATUS
[19:17:18.159266] [32] HEARTBEAT
[19:17:18.394242] [33] VFR_HUD
[19:17:18.853371] [213] RADIO
[19:17:18.856343] [213] RADIO_STATUS
[19:17:19.882465] [214] RADIO
[19:17:19.885703] [214] RADIO_STATUS
[19:17:19.956490] [39] VFR_HUD
[19:17:20.228646] [40] HEARTBEAT
[19:17:20.802677] [215] RADIO
[19:17:20.805577] [215] RADIO_STATUS
[19:17:21.617712] [44] VFR_HUD
[19:17:21.955704] [216] RADIO
[19:17:21.958731] [216] RADIO_STATUS
[19:17:22.187759] [45] HEARTBEAT
[19:17:22.533670] [46] VFR_HUD
[19:17:22.871857] [217] RADIO
[19:17:22.874858] [217] RADIO_STATUS
[19:17:23.229989] [47] HEARTBEAT
[19:17:23.236963] [48] SYS_STATUS
[19:17:23.698070] [50] ATTITUDE_TARGET
[19:17:23.703039] [51] VFR_HUD
[19:17:23.911182] [218] RADIO
[19:17:23.915682] [218] RADIO_STATUS
[19:17:24.147190] [53] HEARTBEAT
[19:17:24.832196] [54] VFR_HUD
[19:17:24.859155] [219] RADIO
[19:17:24.862112] [219] RADIO_STATUS
[19:17:25.861442] [220] RADIO
[19:17:25.864301] [220] RADIO_STATUS
[19:17:26.207408] [58] HEARTBEAT
[19:17:26.900439] [221] RADIO
[19:17:26.903464] [221] RADIO_STATUS
[19:17:27.384617] [62] BATTERY_STATUS
[19:17:27.394186] [63] ATTITUDE_TARGET
[19:17:27.422524] [64] VFR_HUD
[19:17:27.930594] [222] RADIO
[19:17:27.933573] [222] RADIO_STATUS
[19:17:27.981765] [65] VFR_HUD
[19:17:28.276639] [66] HEARTBEAT
[19:17:28.850702] [223] RADIO
[19:17:28.853867] [223] RADIO_STATUS
[19:17:29.439842] [68] HEARTBEAT
[19:17:29.447726] [69] ATTITUDE_TARGET
[19:17:29.660825] [70] VFR_HUD
[19:17:29.890833] [224] RADIO
[19:17:29.892817] [224] RADIO_STATUS
[19:17:30.245938] [71] HEARTBEAT
[19:17:30.350892] [72] VFR_HUD
[19:17:30.919997] [225] RADIO
[19:17:30.922977] [225] RADIO_STATUS
[19:17:31.297080] [75] BATTERY_STATUS
[19:17:31.299048] [76] EXTENDED_SYS_STATE
[19:17:31.306993] [77] ATTITUDE_TARGET
[19:17:31.312010] [78] VFR_HUD
[19:17:31.315028] [79] SYSTEM_TIME
[19:17:31.961204] [80] VFR_HUD
[19:17:31.988136] [226] RADIO
[19:17:31.991511] [226] RADIO_STATUS
[19:17:32.196176] [81] HEARTBEAT
[19:17:32.880271] [82] VFR_HUD
[19:17:32.913385] [227] RADIO
[19:17:32.917160] [227] RADIO_STATUS
[19:17:33.570578] [85] VFR_HUD
[19:17:33.909358] [228] RADIO
[19:17:33.912548] [228] RADIO_STATUS
[19:17:34.379496] [87] VFR_HUD
[19:17:35.058644] [229] RADIO
[19:17:35.061525] [229] RADIO_STATUS
[19:17:35.187613] [88] HEARTBEAT
[19:17:35.194914] [89] SYS_STATUS
[19:17:35.426598] [91] ATTITUDE_TARGET
[19:17:35.433828] [92] VFR_HUD
[19:17:35.978664] [230] RADIO
[19:17:35.981633] [230] RADIO_STATUS
[19:17:36.113276] [93] VFR_HUD
[19:17:36.324726] [94] HEARTBEAT
[19:17:36.800883] [95] VFR_HUD
[19:17:36.900750] [231] RADIO
[19:17:36.903770] [231] RADIO_STATUS
[19:17:37.138903] [96] HEARTBEAT
[19:17:37.485892] [97] ATTITUDE_TARGET
[19:17:37.709028] [98] VFR_HUD
[19:17:38.046944] [232] RADIO
[19:17:38.049927] [232] RADIO_STATUS
[19:17:38.163992] [99] HEARTBEAT
[19:17:38.397977] [100] VFR_HUD
[19:17:38.967043] [233] RADIO
[19:17:38.970095] [233] RADIO_STATUS
[19:17:40.012309] [234] RADIO
[19:17:40.015288] [234] RADIO_STATUS
[19:17:40.927401] [108] VFR_HUD
[19:17:40.960473] [235] RADIO
[19:17:40.963381] [235] RADIO_STATUS
[19:17:41.166514] [109] HEARTBEAT
[19:17:41.174452] [110] ATTITUDE_TARGET
[19:17:41.617535] [111] VFR_HUD
[19:17:41.957769] [236] RADIO
[19:17:41.959545] [236] RADIO_STATUS
[19:17:43.106709] [237] RADIO
[19:17:43.109664] [237] RADIO_STATUS
[19:17:43.237928] [114] HEARTBEAT
[19:17:43.241717] [115] SYS_STATUS
[19:17:43.473759] [117] ATTITUDE_TARGET
[19:17:43.478755] [118] VFR_HUD
[19:17:44.024850] [238] RADIO
[19:17:44.027792] [238] RADIO_STATUS
[19:17:44.380958] [119] VFR_HUD
[19:17:44.384958] [120] HEARTBEAT
[19:17:44.944989] [239] RADIO
[19:17:44.947937] [239] RADIO_STATUS
[19:17:45.984172] [240] RADIO
[19:17:45.987160] [240] RADIO_STATUS
[19:17:46.210327] [125] HEARTBEAT
[19:17:46.456155] [126] VFR_HUD
[19:17:47.013269] [241] RADIO
[19:17:47.016217] [241] RADIO_STATUS
[19:17:47.387276] [129] BATTERY_STATUS
[19:17:47.395277] [130] ATTITUDE_TARGET
[19:17:47.425408] [131] VFR_HUD
[19:17:48.054407] [132] VFR_HUD
[19:17:48.065446] [242] RADIO
[19:17:48.068363] [242] RADIO_STATUS
[19:17:48.178528] [133] HEARTBEAT
[19:17:48.975248] [134] VFR_HUD
[19:17:49.001484] [243] RADIO
[19:17:49.004576] [243] RADIO_STATUS
[19:17:49.213519] [135] HEARTBEAT
[19:17:49.221694] [136] ATTITUDE_TARGET
[19:17:50.002660] [244] RADIO
[19:17:50.005613] [244] RADIO_STATUS
[19:17:50.353719] [139] VFR_HUD
[19:17:51.041855] [245] RADIO
[19:17:51.044848] [245] RADIO_STATUS
[19:17:51.280788] [140] HEARTBEAT
[19:17:51.286801] [141] SYS_STATUS
[19:17:51.965902] [147] VFR_HUD
[19:17:51.989946] [246] RADIO
[19:17:51.992915] [246] RADIO_STATUS
[19:17:52.188002] [148] HEARTBEAT
[19:17:52.991979] [247] RADIO
[19:17:52.993960] [247] RADIO_STATUS
[19:17:53.353543] [150] HEARTBEAT
[19:17:53.359039] [151] ATTITUDE_TARGET
[19:17:53.572040] [152] VFR_HUD
[19:17:54.031166] [248] RADIO
[19:17:54.034209] [248] RADIO_STATUS
[19:17:54.382232] [154] VFR_HUD
[19:17:55.061255] [249] RADIO
[19:17:55.064262] [249] RADIO_STATUS
[19:17:56.101469] [160] VFR_HUD
[19:17:56.112431] [250] RADIO
[19:17:56.115530] [250] RADIO_STATUS
[19:17:56.226469] [161] HEARTBEAT
[19:17:57.020581] [251] RADIO
[19:17:57.023487] [251] RADIO_STATUS
[19:17:57.259627] [164] ATTITUDE_TARGET
[19:17:57.710569] [165] VFR_HUD
[19:17:58.050736] [252] RADIO
[19:17:58.053629] [252] RADIO_STATUS
[19:17:58.166670] [166] HEARTBEAT
[19:17:58.400734] [167] VFR_HUD
[19:17:59.089828] [253] RADIO
[19:17:59.092818] [253] RADIO_STATUS
[19:17:59.327859] [168] HEARTBEAT
[19:17:59.334902] [169] SYS_STATUS
[19:17:59.568005] [171] ATTITUDE_TARGET
[19:17:59.571934] [172] VFR_HUD
[19:18:00.010938] [173] VFR_HUD
[19:18:00.042953] [254] RADIO
[19:18:00.049741] [254] RADIO_STATUS
[19:18:00.235994] [174] HEARTBEAT
[19:18:00.831173] [175] VFR_HUD
[19:18:01.039177] [255] RADIO
[19:18:01.042111] [255] RADIO_STATUS
[19:18:01.169183] [176] HEARTBEAT
[19:18:01.181294] [177] ATTITUDE_TARGET
[19:18:01.620206] [178] VFR_HUD
[19:18:02.085664] [0] RADIO
[19:18:02.087177] [0] RADIO_STATUS
[19:18:02.430278] [180] VFR_HUD
[19:18:03.109395] [1] RADIO
[19:18:03.112384] [1] RADIO_STATUS
[19:18:04.155596] [186] VFR_HUD
[19:18:04.158586] [187] HEARTBEAT
[19:18:04.259552] [2] RADIO
[19:18:04.262781] [2] RADIO_STATUS
[19:18:04.839648] [188] VFR_HUD
[19:18:05.074646] [3] RADIO
[19:18:05.077657] [3] RADIO_STATUS
[19:18:06.098950] [4] RADIO
[19:18:06.101889] [4] RADIO_STATUS
[19:18:06.215854] [192] HEARTBEAT
[19:18:06.449870] [193] VFR_HUD
[19:18:07.248970] [5] RADIO
[19:18:07.251933] [5] RADIO_STATUS
[19:18:08.064228] [6] RADIO
[19:18:08.067147] [6] RADIO_STATUS
[19:18:08.749249] [201] VFR_HUD
[19:18:09.089213] [7] RADIO
[19:18:09.091147] [7] RADIO_STATUS
[19:18:09.218294] [202] HEARTBEAT
[19:18:09.227382] [203] ATTITUDE_TARGET
[19:18:09.669336] [204] VFR_HUD
[19:18:10.133362] [8] RADIO
[19:18:10.136308] [8] RADIO_STATUS
[19:18:10.359449] [206] VFR_HUD
[19:18:11.158489] [9] RADIO
[19:18:11.161790] [9] RADIO_STATUS
[19:18:11.968613] [214] VFR_HUD
[19:18:12.194642] [215] HEARTBEAT
[19:18:12.225669] [10] RADIO
[19:18:12.228655] [10] RADIO_STATUS
[19:18:12.778744] [216] VFR_HUD
[19:18:13.117962] [11] RADIO
[19:18:13.120784] [11] RADIO_STATUS
[19:18:13.356823] [217] HEARTBEAT
[19:18:13.364819] [218] ATTITUDE_TARGET
[19:18:14.146902] [12] RADIO
[19:18:14.149852] [12] RADIO_STATUS
[19:18:14.263910] [220] HEARTBEAT
[19:18:14.497948] [221] VFR_HUD
[19:18:15.195072] [222] HEARTBEAT
[19:18:15.202121] [223] SYS_STATUS
[19:18:15.296010] [13] RADIO
[19:18:15.299029] [13] RADIO_STATUS
[19:18:15.441098] [224] BATTERY_STATUS
[19:18:15.449093] [225] ATTITUDE_TARGET
[19:18:15.479032] [226] VFR_HUD
[19:18:16.107150] [227] VFR_HUD
[19:18:16.216138] [14] RADIO
[19:18:16.219157] [14] RADIO_STATUS
[19:18:16.332204] [228] HEARTBEAT
[19:18:16.808186] [229] VFR_HUD
[19:18:17.135347] [15] RADIO
[19:18:17.138239] [15] RADIO_STATUS
[19:18:17.265355] [230] HEARTBEAT
[19:18:17.273291] [231] ATTITUDE_TARGET
[19:18:17.716425] [232] VFR_HUD
[19:18:18.181444] [233] HEARTBEAT
[19:18:18.285441] [16] RADIO
[19:18:18.288362] [16] RADIO_STATUS
[19:18:18.405460] [234] VFR_HUD
[19:18:19.204535] [17] RADIO
[19:18:19.207483] [17] RADIO_STATUS
[19:18:20.015684] [240] VFR_HUD
[19:18:20.124693] [18] RADIO
[19:18:20.127565] [18] RADIO_STATUS
[19:18:21.174828] [243] HEARTBEAT
[19:18:21.181791] [244] ATTITUDE_TARGET
[19:18:21.275682] [19] RADIO
[19:18:21.276945] [19] RADIO_STATUS
[19:18:22.193070] [20] RADIO
[19:18:22.195925] [20] RADIO_STATUS
[19:18:22.309975] [246] HEARTBEAT
[19:18:23.241119] [248] HEARTBEAT
[19:18:23.248153] [249] SYS_STATUS
[19:18:23.343060] [21] RADIO
[19:18:23.346195] [21] RADIO_STATUS
[19:18:23.486095] [250] BATTERY_STATUS
[19:18:23.494373] [251] ATTITUDE_TARGET
[19:18:23.524200] [252] VFR_HUD
[19:18:24.149208] [254] HEARTBEAT
[19:18:24.263239] [22] RADIO
[19:18:24.265199] [22] RADIO_STATUS
[19:18:24.843363] [255] VFR_HUD
[19:18:25.182600] [23] RADIO
[19:18:25.185316] [23] RADIO_STATUS
[19:18:25.763655] [2] VFR_HUD
[19:18:26.332487] [24] RADIO
[19:18:26.335460] [24] RADIO_STATUS
[19:18:26.453470] [4] VFR_HUD
[19:18:27.158702] [6] SYS_STATUS
[19:18:27.207612] [7] BATTERY_STATUS
[19:18:27.214674] [8] ATTITUDE_TARGET
[19:18:27.219723] [9] VFR_HUD
[19:18:27.222567] [25] RADIO
[19:18:27.225627] [25] RADIO_STATUS
[19:18:28.173957] [26] RADIO
[19:18:28.176889] [26] RADIO_STATUS
[19:18:28.754931] [12] VFR_HUD
[19:18:29.322882] [27] RADIO
[19:18:29.325855] [27] RADIO_STATUS
[19:18:30.242061] [28] RADIO
[19:18:30.244966] [28] RADIO_STATUS
[19:18:30.367091] [16] HEARTBEAT
[19:18:30.372006] [17] VFR_HUD
[19:18:31.339158] [23] VFR_HUD
[19:18:31.343112] [24] SYSTEM_TIME
[19:18:31.391121] [29] RADIO
[19:18:31.394177] [29] RADIO_STATUS
[19:18:31.984220] [25] VFR_HUD
[19:18:32.197225] [26] HEARTBEAT
[19:18:32.229224] [30] RADIO
[19:18:32.232183] [30] RADIO_STATUS
[19:18:32.891604] [27] VFR_HUD
[19:18:33.230387] [31] RADIO
[19:18:33.233360] [31] RADIO_STATUS
[19:18:34.166643] [31] HEARTBEAT
[19:18:34.275529] [32] RADIO
[19:18:34.278536] [32] RADIO_STATUS
[19:18:35.198801] [33] HEARTBEAT
[19:18:35.205740] [34] SYS_STATUS
[19:18:35.217739] [33] RADIO
[19:18:35.220694] [33] RADIO_STATUS
[19:18:36.110974] [38] VFR_HUD
[19:18:36.219815] [34] RADIO
[19:18:36.222822] [34] RADIO_STATUS
[19:18:36.335847] [39] HEARTBEAT
[19:18:36.800939] [40] VFR_HUD
[19:18:37.270046] [41] HEARTBEAT
[19:18:37.277050] [42] ATTITUDE_TARGET
[19:18:37.286948] [35] RADIO
[19:18:37.289961] [35] RADIO_STATUS
[19:18:38.175208] [44] HEARTBEAT
[19:18:38.289209] [36] RADIO
[19:18:38.292166] [36] RADIO_STATUS
[19:18:38.410616] [45] VFR_HUD
[19:18:39.438338] [37] RADIO
[19:18:39.441339] [37] RADIO_STATUS
[19:18:40.019448] [51] VFR_HUD
[19:18:40.244452] [52] HEARTBEAT
[19:18:40.276463] [38] RADIO
[19:18:40.279505] [38] RADIO_STATUS
[19:18:41.278576] [39] RADIO
[19:18:41.281498] [39] RADIO_STATUS
[19:18:41.409316] [54] HEARTBEAT
[19:18:41.415653] [55] ATTITUDE_TARGET
[19:18:42.322712] [40] RADIO
[19:18:42.325714] [40] RADIO_STATUS
[19:18:43.245828] [59] HEARTBEAT
[19:18:43.252779] [60] SYS_STATUS
[19:18:43.347827] [41] RADIO
[19:18:43.349821] [41] RADIO_STATUS
[19:18:44.266981] [42] RADIO
[19:18:44.270237] [42] RADIO_STATUS
[19:18:44.858111] [66] VFR_HUD
[19:18:45.315992] [67] HEARTBEAT
[19:18:45.323014] [68] ATTITUDE_TARGET
[19:18:45.417057] [43] RADIO
[19:18:45.419089] [43] RADIO_STATUS
[19:18:45.572015] [69] VFR_HUD
[19:18:46.221223] [70] HEARTBEAT
[19:18:46.335242] [44] RADIO
[19:18:46.338166] [44] RADIO_STATUS
[19:18:46.456147] [71] VFR_HUD
[19:18:47.154218] [72] HEARTBEAT
[19:18:47.160208] [73] SYS_STATUS
[19:18:47.395155] [75] ATTITUDE_TARGET
[19:18:47.397257] [76] VFR_HUD
[19:18:47.431283] [45] RADIO
[19:18:47.434221] [45] RADIO_STATUS
[19:18:47.955401] [77] VFR_HUD
[19:18:48.186460] [78] HEARTBEAT
[19:18:48.294347] [46] RADIO
[19:18:48.297355] [46] RADIO_STATUS
[19:18:48.755514] [79] VFR_HUD
[19:18:49.324737] [47] RADIO
[19:18:49.327551] [47] RADIO_STATUS
[19:18:49.565648] [82] VFR_HUD
[19:18:50.135736] [83] HEARTBEAT
[19:18:50.365626] [84] VFR_HUD
[19:18:50.473667] [48] RADIO
[19:18:50.476645] [48] RADIO_STATUS
[19:18:51.393098] [49] RADIO
[19:18:51.395894] [49] RADIO_STATUS
[19:18:51.973996] [92] VFR_HUD
[19:18:52.199088] [93] HEARTBEAT
[19:18:52.318092] [50] RADIO
[19:18:52.322067] [50] RADIO_STATUS
[19:18:52.893068] [94] VFR_HUD
[19:18:53.362189] [95] HEARTBEAT
[19:18:53.370178] [96] ATTITUDE_TARGET
[19:18:53.462182] [51] RADIO
[19:18:53.465081] [51] RADIO_STATUS
[19:18:53.619162] [97] VFR_HUD
[19:18:54.383718] [52] RADIO
[19:18:54.385462] [52] RADIO_STATUS
[19:18:54.503293] [99] VFR_HUD
[19:18:55.200322] [100] HEARTBEAT
[19:18:55.207318] [101] SYS_STATUS
[19:18:55.326390] [102] BATTERY_STATUS
[19:18:55.531522] [53] RADIO
[19:18:55.534310] [53] RADIO_STATUS
[19:18:55.668372] [103] ATTITUDE_TARGET
[19:18:55.673367] [104] VFR_HUD
[19:18:56.341463] [54] RADIO
[19:18:56.344506] [54] RADIO_STATUS
[19:18:56.802606] [107] VFR_HUD
[19:18:57.371662] [55] RADIO
[19:18:57.374648] [55] RADIO_STATUS
[19:18:57.612909] [110] VFR_HUD
[19:18:58.177780] [111] HEARTBEAT
[19:18:58.423840] [112] VFR_HUD
[19:18:58.520841] [56] RADIO
[19:18:58.523785] [56] RADIO_STATUS
[19:18:59.385960] [115] BATTERY_STATUS
[19:18:59.393885] [116] ATTITUDE_TARGET
[19:18:59.400410] [117] VFR_HUD
[19:18:59.419908] [57] RADIO
[19:18:59.422885] [57] RADIO_STATUS
[19:19:00.033796] [118] VFR_HUD
[19:19:00.247557] [119] HEARTBEAT
[19:19:00.366084] [58] RADIO
[19:19:00.368015] [58] RADIO_STATUS
[19:19:01.409225] [121] HEARTBEAT
[19:19:01.417246] [122] ATTITUDE_TARGET
[19:19:01.428233] [59] RADIO
[19:19:01.431179] [59] RADIO_STATUS
[19:19:01.631169] [123] VFR_HUD
[19:19:02.216229] [124] HEARTBEAT
[19:19:02.430287] [60] RADIO
[19:19:02.433282] [60] RADIO_STATUS
[19:19:02.550344] [125] VFR_HUD
[19:19:03.248418] [126] HEARTBEAT
[19:19:03.255396] [127] SYS_STATUS
[19:19:03.487480] [129] ATTITUDE_TARGET
[19:19:03.492433] [130] VFR_HUD
[19:19:03.578407] [61] RADIO
[19:19:03.581557] [61] RADIO_STATUS
[19:19:04.168744] [132] HEARTBEAT
[19:19:04.394590] [62] RADIO
[19:19:04.397599] [62] RADIO_STATUS
[19:19:04.850644] [133] VFR_HUD
[19:19:05.419756] [63] RADIO
[19:19:05.422653] [63] RADIO_STATUS
[19:19:05.671787] [136] VFR_HUD
[19:19:06.225831] [137] HEARTBEAT
[19:19:06.569051] [64] RADIO
[19:19:06.571881] [64] RADIO_STATUS
[19:19:07.158049] [139] HEARTBEAT
[19:19:07.165004] [140] SYS_STATUS
[19:19:07.397121] [142] ATTITUDE_TARGET
[19:19:07.401992] [143] VFR_HUD
[19:19:07.436043] [65] RADIO
[19:19:07.439050] [65] RADIO_STATUS
[19:19:07.960058] [144] VFR_HUD
[19:19:08.295138] [145] HEARTBEAT
[19:19:08.534192] [66] RADIO
[19:19:08.537190] [66] RADIO_STATUS
[19:19:08.773846] [146] VFR_HUD
[19:19:09.457345] [147] HEARTBEAT
[19:19:09.465287] [148] ATTITUDE_TARGET
[19:19:09.475415] [67] RADIO
[19:19:09.478328] [67] RADIO_STATUS
[19:19:09.678338] [149] VFR_HUD
[19:19:10.133419] [150] HEARTBEAT
[19:19:10.368563] [151] VFR_HUD
[19:19:10.477584] [68] RADIO
[19:19:10.485832] [68] RADIO_STATUS
[19:19:11.626640] [69] RADIO
[19:19:11.629647] [69] RADIO_STATUS
[19:19:11.977738] [159] VFR_HUD
[19:19:12.202702] [160] HEARTBEAT
[19:19:12.546718] [70] RADIO
[19:19:12.549740] [70] RADIO_STATUS
[19:19:12.898051] [161] VFR_HUD
[19:19:13.466896] [71] RADIO
[19:19:13.470041] [71] RADIO_STATUS
[19:19:13.586865] [164] VFR_HUD
[19:19:14.510098] [72] RADIO
[19:19:14.513071] [72] RADIO_STATUS
[19:19:15.203228] [167] HEARTBEAT
[19:19:15.210157] [168] SYS_STATUS
[19:19:15.442215] [170] ATTITUDE_TARGET
[19:19:15.447183] [171] VFR_HUD
[19:19:15.453168] [73] RADIO
[19:19:15.456657] [73] RADIO_STATUS
[19:19:16.005308] [172] VFR_HUD
[19:19:16.341307] [173] HEARTBEAT
[19:19:16.580485] [74] RADIO
[19:19:16.583624] [74] RADIO_STATUS
[19:19:17.164500] [175] HEARTBEAT
[19:19:17.172409] [176] ATTITUDE_TARGET
[19:19:17.494519] [75] RADIO
[19:19:17.497450] [75] RADIO_STATUS
[19:19:18.180775] [178] HEARTBEAT
[19:19:18.414663] [179] VFR_HUD
[19:19:18.523751] [76] RADIO
[19:19:18.526605] [76] RADIO_STATUS
[19:19:19.357850] [182] BATTERY_STATUS
[19:19:19.365794] [183] ATTITUDE_TARGET
[19:19:19.395891] [184] VFR_HUD
[19:19:19.564958] [77] RADIO
[19:19:19.566834] [77] RADIO_STATUS
[19:19:20.025123] [185] VFR_HUD
[19:19:20.484021] [78] RADIO
[19:19:20.486938] [78] RADIO_STATUS
[19:19:20.945007] [187] VFR_HUD
[19:19:21.184043] [188] HEARTBEAT
[19:19:21.191045] [189] ATTITUDE_TARGET
[19:19:21.514103] [79] RADIO
[19:19:21.517077] [79] RADIO_STATUS
[19:19:21.634178] [190] VFR_HUD
[19:19:22.554195] [192] VFR_HUD
[19:19:22.663144] [80] RADIO
[19:19:22.666188] [80] RADIO_STATUS
[19:19:23.251324] [193] HEARTBEAT
[19:19:23.258315] [194] SYS_STATUS
[19:19:23.490408] [196] ATTITUDE_TARGET
[19:19:23.495321] [197] VFR_HUD
[19:19:23.500288] [81] RADIO
[19:19:23.505872] [81] RADIO_STATUS
[19:19:24.058370] [198] VFR_HUD
[19:19:24.170554] [199] HEARTBEAT
[19:19:24.502535] [82] RADIO
[19:19:24.505385] [82] RADIO_STATUS
[19:19:24.754564] [200] VFR_HUD
[19:19:25.322529] [201] HEARTBEAT
[19:19:25.329607] [202] ATTITUDE_TARGET
[19:19:25.543773] [203] VFR_HUD
[19:19:25.570565] [83] RADIO
[19:19:25.573722] [83] RADIO_STATUS
[19:19:26.238697] [204] HEARTBEAT
[19:19:26.353778] [205] VFR_HUD
[19:19:26.572729] [84] RADIO
[19:19:26.577105] [84] RADIO_STATUS
[19:19:27.399928] [209] ATTITUDE_TARGET
[19:19:27.405852] [210] VFR_HUD
[19:19:27.612065] [85] RADIO
[19:19:27.614869] [85] RADIO_STATUS
[19:19:28.072169] [211] VFR_HUD
[19:19:28.642033] [86] RADIO
[19:19:28.645092] [86] RADIO_STATUS
[19:19:28.763125] [213] VFR_HUD
[19:19:29.232199] [214] HEARTBEAT
[19:19:29.239144] [215] ATTITUDE_TARGET
[19:19:29.561188] [87] RADIO
[19:19:29.564108] [87] RADIO_STATUS
[19:19:30.138209] [217] HEARTBEAT
[19:19:30.372236] [218] VFR_HUD
[19:19:30.711325] [88] RADIO
[19:19:30.714283] [88] RADIO_STATUS
[19:19:31.299407] [219] HEARTBEAT
[19:19:31.306430] [220] SYS_STATUS
[19:19:31.545543] [223] ATTITUDE_TARGET
[19:19:31.550456] [224] VFR_HUD
[19:19:31.553359] [225] SYSTEM_TIME
[19:19:31.588527] [89] RADIO
[19:19:31.591369] [89] RADIO_STATUS
[19:19:31.981448] [226] VFR_HUD
[19:19:32.550538] [90] RADIO
[19:19:32.553519] [90] RADIO_STATUS
[19:19:33.590684] [231] VFR_HUD
[19:19:33.623638] [91] RADIO
[19:19:33.626581] [91] RADIO_STATUS
[19:19:34.400784] [233] VFR_HUD
[19:19:34.619784] [92] RADIO
[19:19:34.622766] [92] RADIO_STATUS
[19:19:35.446935] [237] ATTITUDE_TARGET
[19:19:35.451903] [238] VFR_HUD
[19:19:35.539916] [93] RADIO
[19:19:35.542943] [93] RADIO_STATUS
[19:19:36.250998] [240] HEARTBEAT
[19:19:36.584993] [94] RADIO
[19:19:36.587970] [94] RADIO_STATUS
[19:19:36.822045] [241] VFR_HUD
[19:19:37.609306] [95] RADIO
[19:19:37.612176] [95] RADIO_STATUS
[19:19:38.185359] [245] HEARTBEAT
[19:19:38.419362] [246] VFR_HUD
[19:19:38.654530] [96] RADIO
[19:19:38.657532] [96] RADIO_STATUS
[19:19:39.347501] [247] HEARTBEAT
[19:19:39.354481] [248] SYS_STATUS
[19:19:39.586499] [250] ATTITUDE_TARGET
[19:19:39.591508] [251] VFR_HUD
[19:19:39.625453] [97] RADIO
[19:19:39.628548] [97] RADIO_STATUS
[19:19:40.029605] [252] VFR_HUD
[19:19:40.145574] [253] HEARTBEAT
[19:19:40.598563] [98] RADIO
[19:19:40.601563] [98] RADIO_STATUS
[19:19:40.949668] [254] VFR_HUD
[19:19:41.189050] [255] HEARTBEAT
[19:19:41.196709] [0] ATTITUDE_TARGET
[19:19:41.639721] [1] VFR_HUD
[19:19:41.671729] [99] RADIO
[19:19:41.674737] [99] RADIO_STATUS
[19:19:42.454885] [3] VFR_HUD
[19:19:42.667880] [100] RADIO
[19:19:42.670840] [100] RADIO_STATUS
[19:19:43.135018] [4] HEARTBEAT
[19:19:43.588042] [101] RADIO
[19:19:43.593680] [101] RADIO_STATUS
[19:19:44.175348] [9] VFR_HUD
[19:19:44.178190] [10] HEARTBEAT
[19:19:44.628158] [102] RADIO
[19:19:44.631166] [102] RADIO_STATUS
[19:19:45.327223] [12] HEARTBEAT
[19:19:45.335186] [13] ATTITUDE_TARGET
[19:19:45.548227] [14] VFR_HUD
[19:19:45.575268] [103] RADIO
[19:19:45.578332] [103] RADIO_STATUS
[19:19:46.233380] [15] HEARTBEAT
[19:19:46.467370] [16] VFR_HUD
[19:19:46.581479] [104] RADIO
[19:19:46.581639] [104] RADIO_STATUS
[19:19:47.165454] [17] HEARTBEAT
[19:19:47.172468] [18] SYS_STATUS
[19:19:47.410509] [19] BATTERY_STATUS
[19:19:47.418482] [20] ATTITUDE_TARGET
[19:19:47.448503] [21] VFR_HUD
[19:19:47.727547] [105] RADIO
[19:19:47.730843] [105] RADIO_STATUS
[19:19:48.077670] [22] VFR_HUD
[19:19:48.202632] [23] HEARTBEAT
[19:19:48.646686] [106] RADIO
[19:19:48.649678] [106] RADIO_STATUS
[19:19:48.767714] [24] VFR_HUD
[19:19:49.236849] [25] HEARTBEAT
[19:19:49.244941] [26] ATTITUDE_TARGET
[19:19:49.687823] [27] VFR_HUD
[19:19:49.714920] [107] RADIO
[19:19:49.717886] [107] RADIO_STATUS
[19:19:50.151917] [28] HEARTBEAT
[19:19:50.376946] [29] VFR_HUD
[19:19:50.715970] [108] RADIO
[19:19:50.718975] [108] RADIO_STATUS
[19:19:51.636076] [109] RADIO
[19:19:51.639042] [109] RADIO_STATUS
[19:19:51.987242] [37] VFR_HUD
[19:19:52.212213] [38] HEARTBEAT
[19:19:52.676347] [110] RADIO
[19:19:52.679238] [110] RADIO_STATUS
[19:19:52.796301] [39] VFR_HUD
[19:19:53.375385] [40] HEARTBEAT
[19:19:53.383443] [41] ATTITUDE_TARGET
[19:19:53.608424] [42] VFR_HUD
[19:19:53.705472] [111] RADIO
[19:19:53.708384] [111] RADIO_STATUS
[19:19:54.281532] [43] HEARTBEAT
[19:19:54.624611] [112] RADIO
[19:19:54.627619] [112] RADIO_STATUS
[19:19:55.457699] [47] BATTERY_STATUS
[19:19:55.465655] [48] ATTITUDE_TARGET
[19:19:55.496727] [49] VFR_HUD
[19:19:55.664646] [113] RADIO
[19:19:55.667654] [113] RADIO_STATUS
[19:19:56.245793] [51] HEARTBEAT
[19:19:56.694924] [114] RADIO
[19:19:56.697827] [114] RADIO_STATUS
[19:19:56.814819] [52] VFR_HUD
[19:19:57.734960] [55] VFR_HUD
[19:19:57.767120] [115] RADIO
[19:19:57.769964] [115] RADIO_STATUS
[19:19:58.191092] [56] HEARTBEAT
[19:19:58.425075] [57] VFR_HUD
[19:19:58.659152] [116] RADIO
[19:19:58.662134] [116] RADIO_STATUS
[19:19:59.684295] [117] RADIO
[19:19:59.687445] [117] RADIO_STATUS
[19:19:59.753368] [60] BATTERY_STATUS
[19:19:59.760276] [61] ATTITUDE_TARGET
[19:19:59.765292] [62] VFR_HUD
[19:20:00.035269] [63] VFR_HUD
[19:20:00.729399] [118] RADIO
[19:20:00.732385] [118] RADIO_STATUS
[19:20:00.849486] [65] VFR_HUD
[19:20:01.193487] [66] HEARTBEAT
[19:20:01.201506] [67] ATTITUDE_TARGET
[19:20:01.676542] [119] RADIO
[19:20:01.679539] [119] RADIO_STATUS
[19:20:02.330746] [69] HEARTBEAT
[19:20:02.353667] [70] VFR_HUD
[19:20:02.673707] [120] RADIO
[19:20:02.676725] [120] RADIO_STATUS
[19:20:03.315805] [75] VFR_HUD
[19:20:03.718803] [121] RADIO
[19:20:03.721773] [121] RADIO_STATUS
[19:20:04.169953] [77] HEARTBEAT
[19:20:04.746059] [122] RADIO
[19:20:04.746452] [122] RADIO_STATUS
[19:20:05.333370] [79] HEARTBEAT
[19:20:05.341081] [80] ATTITUDE_TARGET
[19:20:05.565096] [81] VFR_HUD
[19:20:05.663216] [123] RADIO
[19:20:05.666077] [123] RADIO_STATUS
[19:20:06.239235] [82] HEARTBEAT
[19:20:06.473256] [83] VFR_HUD
[19:20:06.702319] [124] RADIO
[19:20:06.705285] [124] RADIO_STATUS
[19:20:07.171361] [84] HEARTBEAT
[19:20:07.177382] [85] SYS_STATUS
[19:20:07.732407] [125] RADIO
[19:20:07.735441] [125] RADIO_STATUS
[19:20:08.083515] [89] VFR_HUD
[19:20:08.772570] [91] VFR_HUD
[19:20:08.804560] [126] RADIO
[19:20:08.807605] [126] RADIO_STATUS
[19:20:09.241701] [92] HEARTBEAT
[19:20:09.249671] [93] ATTITUDE_TARGET
[19:20:09.801745] [127] RADIO
[19:20:09.804866] [127] RADIO_STATUS
[19:20:10.147803] [95] HEARTBEAT
[19:20:10.382778] [96] VFR_HUD
[19:20:10.721810] [128] RADIO
[19:20:10.724794] [128] RADIO_STATUS
[19:20:11.358936] [102] VFR_HUD
[19:20:11.361925] [103] SYSTEM_TIME
[19:20:11.762015] [129] RADIO
[19:20:11.764947] [129] RADIO_STATUS
[19:20:11.993036] [104] VFR_HUD
[19:20:12.227023] [105] HEARTBEAT
[19:20:12.792117] [130] RADIO
[19:20:12.795226] [130] RADIO_STATUS
[19:20:12.912194] [106] VFR_HUD
[19:20:13.138218] [107] HEARTBEAT
[19:20:13.832313] [131] RADIO
[19:20:13.835206] [131] RADIO_STATUS
[19:20:14.187306] [110] HEARTBEAT
[19:20:14.752313] [132] RADIO
[19:20:14.754285] [132] RADIO_STATUS
[19:20:15.220430] [112] HEARTBEAT
[19:20:15.226410] [113] SYS_STATUS
[19:20:15.781450] [133] RADIO
[19:20:15.784474] [133] RADIO_STATUS
[19:20:16.132523] [117] VFR_HUD
[19:20:16.160677] [118] HEARTBEAT
[19:20:16.821666] [119] VFR_HUD
[19:20:16.848576] [134] RADIO
[19:20:16.851594] [134] RADIO_STATUS
[19:20:17.291721] [120] HEARTBEAT
[19:20:17.298691] [121] ATTITUDE_TARGET
[19:20:17.851760] [135] RADIO
[19:20:17.854881] [135] RADIO_STATUS
[19:20:18.206839] [123] HEARTBEAT
[19:20:18.431849] [124] VFR_HUD
[19:20:18.770923] [136] RADIO
