[00:02:36.804847] [185] RADIO
[00:02:36.807783] [185] RADIO_STATUS
[00:02:37.025902] [81] HEARTBEAT
[00:02:37.260972] [82] VFR_HUD
[00:02:37.718912] [186] RADIO
[00:02:37.721821] [186] RADIO_STATUS
[00:02:38.083055] [83] HEARTBEAT
[00:02:38.088912] [84] SYS_STATUS
[00:02:38.129844] [85] BATTERY_STATUS
[00:02:38.137078] [86] ATTITUDE_TARGET
[00:02:38.142044] [87] VFR_HUD
[00:02:38.749124] [187] RADIO
[00:02:38.752054] [187] RADIO_STATUS
[00:02:38.821982] [88] VFR_HUD
[00:02:38.985052] [89] HEARTBEAT
[00:02:39.684161] [90] VFR_HUD
[00:02:39.800172] [188] RADIO
[00:02:39.803186] [188] RADIO_STATUS
[00:02:40.028293] [91] HEARTBEAT
[00:02:40.037277] [92] ATTITUDE_TARGET
[00:02:40.371213] [93] VFR_HUD
[00:02:40.818236] [189] RADIO
[00:02:40.821279] [189] RADIO_STATUS
[00:02:41.054494] [94] HEARTBEAT
[00:02:41.168266] [95] VFR_HUD
[00:02:41.737318] [190] RADIO
[00:02:41.740289] [190] RADIO_STATUS
[00:02:41.986410] [96] HEARTBEAT
[00:02:41.992352] [97] SYS_STATUS
[00:02:42.111454] [98] BATTERY_STATUS
[00:02:42.119438] [99] ATTITUDE_TARGET
[00:02:42.149407] [100] VFR_HUD
[00:02:42.778415] [101] VFR_HUD
[00:02:42.805410] [191] RADIO
[00:02:42.808470] [191] RADIO_STATUS
[00:02:43.003762] [102] HEARTBEAT
[00:02:43.587526] [103] VFR_HUD
[00:02:43.806581] [192] RADIO
[00:02:43.809561] [192] RADIO_STATUS
[00:02:44.056593] [104] HEARTBEAT
[00:02:44.064569] [105] ATTITUDE_TARGET
[00:02:44.389824] [106] VFR_HUD
[00:02:44.726717] [193] RADIO
[00:02:44.728703] [193] RADIO_STATUS
[00:02:44.962767] [107] HEARTBEAT
[00:02:45.201747] [108] VFR_HUD
[00:02:45.765901] [194] RADIO
[00:02:45.768768] [194] RADIO_STATUS
[00:02:46.003856] [109] HEARTBEAT
[00:02:46.010802] [110] SYS_STATUS
[00:02:46.124886] [111] BATTERY_STATUS
[00:02:46.242980] [112] ATTITUDE_TARGET
[00:02:46.247960] [113] VFR_HUD
[00:02:46.794918] [195] RADIO
[00:02:46.797831] [195] RADIO_STATUS
[00:02:46.834082] [114] VFR_HUD
[00:02:47.031996] [115] HEARTBEAT
[00:02:47.605979] [116] VFR_HUD
[00:02:47.835083] [196] RADIO
[00:02:47.838115] [196] RADIO_STATUS
[00:02:47.957098] [117] HEARTBEAT
[00:02:48.074076] [118] ATTITUDE_TARGET
[00:02:48.421530] [119] VFR_HUD
[00:02:48.864141] [197] RADIO
[00:02:48.867157] [197] RADIO_STATUS
[00:02:48.981803] [120] HEARTBEAT
[00:02:49.215293] [121] VFR_HUD
[00:02:49.784650] [198] RADIO
[00:02:49.787300] [198] RADIO_STATUS
[00:02:50.143395] [122] HEARTBEAT
[00:02:50.149358] [123] SYS_STATUS
[00:02:50.388430] [126] ATTITUDE_TARGET
[00:02:50.393916] [127] VFR_HUD
[00:02:50.397330] [128] SYSTEM_TIME
[00:02:50.825383] [129] VFR_HUD
[00:02:50.857389] [199] RADIO
[00:02:50.860360] [199] RADIO_STATUS
[00:02:51.060497] [130] HEARTBEAT
[00:02:51.646622] [131] VFR_HUD
[00:02:51.853805] [200] RADIO
[00:02:51.856465] [200] RADIO_STATUS
[00:02:51.983482] [132] HEARTBEAT
[00:02:51.991471] [133] ATTITUDE_TARGET
[00:02:52.434565] [134] VFR_HUD
[00:02:52.898581] [201] RADIO
[00:02:52.901581] [201] RADIO_STATUS
[00:02:53.015595] [135] HEARTBEAT
[00:02:53.245945] [136] VFR_HUD
[00:02:53.818712] [202] RADIO
[00:02:53.821685] [202] RADIO_STATUS
[00:02:54.051704] [137] HEARTBEAT
[00:02:54.058692] [138] SYS_STATUS
[00:02:54.173721] [139] BATTERY_STATUS
[00:02:54.292544] [140] ATTITUDE_TARGET
[00:02:54.295678] [141] VFR_HUD
[00:02:54.844064] [203] RADIO
[00:02:54.846833] [203] RADIO_STATUS
[00:02:54.969812] [142] VFR_HUD
[00:02:54.972860] [143] HEARTBEAT
[00:02:55.664902] [144] VFR_HUD
[00:02:55.887916] [204] RADIO
[00:02:55.890937] [204] RADIO_STATUS
[00:02:56.469043] [147] VFR_HUD
[00:02:56.912101] [205] RADIO
[00:02:56.915051] [205] RADIO_STATUS
[00:02:57.029123] [148] HEARTBEAT
[00:02:57.263112] [149] VFR_HUD
[00:02:57.832122] [206] RADIO
[00:02:57.835168] [206] RADIO_STATUS
[00:02:58.877238] [207] RADIO
[00:02:58.880247] [207] RADIO_STATUS
[00:02:59.003412] [155] VFR_HUD
[00:02:59.006375] [156] HEARTBEAT
[00:02:59.687434] [157] VFR_HUD
[00:02:59.901714] [208] RADIO
[00:02:59.904413] [208] RADIO_STATUS
[00:03:00.031484] [158] HEARTBEAT
[00:03:00.039520] [159] ATTITUDE_TARGET
[00:03:00.482495] [160] VFR_HUD
[00:03:00.946503] [209] RADIO
[00:03:00.949483] [209] RADIO_STATUS
[00:03:01.062578] [161] HEARTBEAT
[00:03:01.171531] [162] VFR_HUD
[00:03:01.860588] [210] RADIO
[00:03:01.863551] [210] RADIO_STATUS
[00:03:01.988640] [163] HEARTBEAT
[00:03:01.995742] [164] SYS_STATUS
[00:03:02.114639] [165] BATTERY_STATUS
[00:03:02.121652] [166] ATTITUDE_TARGET
[00:03:02.151627] [167] VFR_HUD
[00:03:02.780704] [168] VFR_HUD
[00:03:02.890807] [211] RADIO
[00:03:02.893145] [211] RADIO_STATUS
[00:03:03.006786] [169] HEARTBEAT
[00:03:03.595878] [170] VFR_HUD
[00:03:03.934809] [212] RADIO
[00:03:03.937737] [212] RADIO_STATUS
[00:03:04.059810] [171] HEARTBEAT
[00:03:04.067900] [172] ATTITUDE_TARGET
[00:03:04.389863] [173] VFR_HUD
[00:03:04.959169] [213] RADIO
[00:03:04.961939] [213] RADIO_STATUS
[00:03:05.076002] [174] HEARTBEAT
[00:03:05.309987] [175] VFR_HUD
[00:03:05.879097] [214] RADIO
[00:03:05.882005] [214] RADIO_STATUS
[00:03:06.253142] [178] BATTERY_STATUS
[00:03:06.260214] [179] ATTITUDE_TARGET
[00:03:06.291172] [180] VFR_HUD
[00:03:06.814159] [181] VFR_HUD
[00:03:06.930178] [215] RADIO
[00:03:06.933139] [215] RADIO_STATUS
[00:03:07.044222] [182] HEARTBEAT
[00:03:07.609232] [183] VFR_HUD
[00:03:07.948275] [216] RADIO
[00:03:07.951229] [216] RADIO_STATUS
[00:03:08.078337] [184] HEARTBEAT
[00:03:08.086307] [185] ATTITUDE_TARGET
[00:03:08.529338] [186] VFR_HUD
[00:03:08.984414] [187] HEARTBEAT
[00:03:09.098428] [217] RADIO
[00:03:09.100381] [217] RADIO_STATUS
[00:03:09.218479] [188] VFR_HUD
[00:03:09.907510] [218] RADIO
[00:03:09.910483] [218] RADIO_STATUS
[00:03:10.163598] [191] BATTERY_STATUS
[00:03:10.165516] [192] EXTENDED_SYS_STATE
[00:03:10.175425] [193] ATTITUDE_TARGET
[00:03:10.178627] [194] VFR_HUD
[00:03:10.181525] [195] SYSTEM_TIME
[00:03:10.828583] [196] VFR_HUD
[00:03:10.937622] [219] RADIO
[00:03:10.940593] [219] RADIO_STATUS
[00:03:11.637726] [198] VFR_HUD
[00:03:11.987004] [199] HEARTBEAT
[00:03:11.994725] [200] ATTITUDE_TARGET
[00:03:12.086750] [220] RADIO
[00:03:12.089789] [220] RADIO_STATUS
[00:03:12.437903] [201] VFR_HUD
[00:03:13.005910] [221] RADIO
[00:03:13.008797] [221] RADIO_STATUS
[00:03:13.122859] [202] HEARTBEAT
[00:03:13.926957] [222] RADIO
[00:03:13.928912] [222] RADIO_STATUS
[00:03:13.972999] [204] HEARTBEAT
[00:03:13.978940] [205] SYS_STATUS
[00:03:14.015973] [206] BATTERY_STATUS
[00:03:14.024076] [207] ATTITUDE_TARGET
[00:03:14.029019] [208] VFR_HUD
[00:03:14.972118] [209] VFR_HUD
[00:03:14.975048] [210] HEARTBEAT
[00:03:14.983080] [223] RADIO
[00:03:14.986086] [223] RADIO_STATUS
[00:03:15.656150] [211] VFR_HUD
[00:03:15.995198] [224] RADIO
[00:03:15.998564] [224] RADIO_STATUS
[00:03:16.043261] [212] HEARTBEAT
[00:03:16.051223] [213] ATTITUDE_TARGET
[00:03:16.471346] [214] VFR_HUD
[00:03:17.031391] [215] HEARTBEAT
[00:03:17.144343] [225] RADIO
[00:03:17.147321] [225] RADIO_STATUS
[00:03:17.265939] [216] VFR_HUD
[00:03:17.951552] [217] HEARTBEAT
[00:03:17.970476] [218] SYS_STATUS
[00:03:18.019486] [219] BATTERY_STATUS
[00:03:18.027480] [220] ATTITUDE_TARGET
[00:03:18.032430] [221] VFR_HUD
[00:03:18.034483] [226] RADIO
[00:03:18.037464] [226] RADIO_STATUS
[00:03:18.986125] [227] RADIO
[00:03:18.988788] [227] RADIO_STATUS
[00:03:19.030548] [222] VFR_HUD
[00:03:19.033759] [223] HEARTBEAT
[00:03:19.566703] [224] VFR_HUD
[00:03:20.035717] [225] HEARTBEAT
[00:03:20.043755] [226] ATTITUDE_TARGET
[00:03:20.138760] [228] RADIO
[00:03:20.141733] [228] RADIO_STATUS
[00:03:20.375742] [227] VFR_HUD
[00:03:21.054820] [229] RADIO
[00:03:21.057857] [229] RADIO_STATUS
[00:03:21.088804] [228] HEARTBEAT
[00:03:21.175798] [229] VFR_HUD
[00:03:21.974899] [230] RADIO
[00:03:21.977852] [230] RADIO_STATUS
[00:03:22.033906] [230] HEARTBEAT
[00:03:22.040868] [231] SYS_STATUS
[00:03:22.048944] [232] BATTERY_STATUS
[00:03:22.060940] [233] ATTITUDE_TARGET
[00:03:22.065832] [234] VFR_HUD
[00:03:22.785038] [235] VFR_HUD
[00:03:23.010052] [236] HEARTBEAT
[00:03:23.042013] [231] RADIO
[00:03:23.045031] [231] RADIO_STATUS
[00:03:23.600266] [237] VFR_HUD
[00:03:24.044156] [232] RADIO
[00:03:24.046116] [232] RADIO_STATUS
[00:03:24.091210] [238] HEARTBEAT
[00:03:24.099393] [239] ATTITUDE_TARGET
[00:03:24.394278] [240] VFR_HUD
[00:03:24.969356] [241] HEARTBEAT
[00:03:25.088428] [233] RADIO
[00:03:25.091227] [233] RADIO_STATUS
[00:03:25.209279] [242] VFR_HUD
[00:03:26.011481] [243] HEARTBEAT
[00:03:26.017449] [244] SYS_STATUS
[00:03:26.030470] [234] RADIO
[00:03:26.033432] [234] RADIO_STATUS
[00:03:26.137510] [245] BATTERY_STATUS
[00:03:26.250582] [246] ATTITUDE_TARGET
[00:03:26.254504] [247] VFR_HUD
[00:03:26.813494] [248] VFR_HUD
[00:03:27.032543] [235] RADIO
[00:03:27.035593] [235] RADIO_STATUS
[00:03:27.148595] [249] HEARTBEAT
[00:03:27.612584] [250] VFR_HUD
[00:03:27.971663] [251] HEARTBEAT
[00:03:27.979630] [252] ATTITUDE_TARGET
[00:03:28.100267] [236] RADIO
[00:03:28.102579] [236] RADIO_STATUS
[00:03:28.422694] [253] VFR_HUD
[00:03:28.987833] [254] HEARTBEAT
[00:03:29.019816] [237] RADIO
[00:03:29.021775] [237] RADIO_STATUS
[00:03:29.221824] [255] VFR_HUD
[00:03:30.020897] [238] RADIO
[00:03:30.023852] [238] RADIO_STATUS
[00:03:30.148930] [0] HEARTBEAT
[00:03:30.155961] [1] SYS_STATUS
[00:03:30.279250] [2] BATTERY_STATUS
[00:03:30.280949] [3] EXTENDED_SYS_STATE
[00:03:30.312994] [4] ATTITUDE_TARGET
[00:03:30.318008] [5] VFR_HUD
[00:03:30.321008] [6] SYSTEM_TIME
[00:03:30.830982] [7] VFR_HUD
[00:03:31.057048] [8] HEARTBEAT
[00:03:31.088463] [239] RADIO
[00:03:31.091088] [239] RADIO_STATUS
[00:03:31.641120] [9] VFR_HUD
[00:03:31.990114] [10] HEARTBEAT
[00:03:31.998103] [11] ATTITUDE_TARGET
[00:03:32.090115] [240] RADIO
[00:03:32.093093] [240] RADIO_STATUS
[00:03:32.440162] [12] VFR_HUD
[00:03:33.015222] [13] HEARTBEAT
[00:03:33.134198] [241] RADIO
[00:03:33.137153] [241] RADIO_STATUS
[00:03:33.255343] [14] VFR_HUD
[00:03:34.057371] [15] HEARTBEAT
[00:03:34.063470] [16] SYS_STATUS
[00:03:34.158340] [242] RADIO
[00:03:34.161348] [242] RADIO_STATUS
[00:03:34.199706] [17] BATTERY_STATUS
[00:03:34.226418] [18] ATTITUDE_TARGET
[00:03:34.231389] [19] VFR_HUD
[00:03:34.864439] [20] VFR_HUD
[00:03:34.975593] [21] HEARTBEAT
[00:03:35.081448] [243] RADIO
[00:03:35.084894] [243] RADIO_STATUS
[00:03:35.658658] [22] VFR_HUD
[00:03:36.017578] [23] HEARTBEAT
[00:03:36.025554] [24] ATTITUDE_TARGET
[00:03:36.145557] [244] RADIO
[00:03:36.148529] [244] RADIO_STATUS
[00:03:36.473670] [25] VFR_HUD
[00:03:37.033685] [26] HEARTBEAT
[00:03:37.146677] [245] RADIO
[00:03:37.149769] [245] RADIO_STATUS
[00:03:37.267681] [27] VFR_HUD
[00:03:37.952853] [28] HEARTBEAT
[00:03:37.972791] [29] SYS_STATUS
[00:03:38.065769] [246] RADIO
[00:03:38.068738] [246] RADIO_STATUS
[00:03:38.106759] [30] BATTERY_STATUS
[00:03:38.133769] [31] ATTITUDE_TARGET
[00:03:38.138886] [32] VFR_HUD
[00:03:38.766903] [33] VFR_HUD
[00:03:38.996903] [34] HEARTBEAT
[00:03:39.105907] [247] RADIO
[00:03:39.108827] [247] RADIO_STATUS
[00:03:39.565979] [35] VFR_HUD
[00:03:40.035029] [36] HEARTBEAT
[00:03:40.043029] [37] ATTITUDE_TARGET
[00:03:40.135127] [248] RADIO
[00:03:40.138052] [248] RADIO_STATUS
[00:03:40.381102] [38] VFR_HUD
[00:03:41.054275] [249] RADIO
[00:03:41.057215] [249] RADIO_STATUS
[00:03:41.088201] [39] HEARTBEAT
[00:03:41.175257] [40] VFR_HUD
[00:03:41.997306] [41] HEARTBEAT
[00:03:42.004332] [42] SYS_STATUS
[00:03:42.043292] [43] BATTERY_STATUS
[00:03:42.051288] [44] ATTITUDE_TARGET
[00:03:42.056303] [45] VFR_HUD
[00:03:42.094383] [250] RADIO
[00:03:42.097317] [250] RADIO_STATUS
[00:03:43.020537] [46] VFR_HUD
[00:03:43.022456] [47] HEARTBEAT
[00:03:43.123435] [251] RADIO
[00:03:43.126389] [251] RADIO_STATUS
[00:03:43.599492] [48] VFR_HUD
[00:03:44.068575] [49] HEARTBEAT
[00:03:44.076663] [50] ATTITUDE_TARGET
[00:03:44.162683] [252] RADIO
[00:03:44.165542] [252] RADIO_STATUS
[00:03:44.393702] [51] VFR_HUD
[00:03:44.974662] [52] HEARTBEAT
[00:03:45.082723] [253] RADIO
[00:03:45.085851] [253] RADIO_STATUS
[00:03:45.203842] [53] VFR_HUD
[00:03:46.011019] [54] HEARTBEAT
[00:03:46.018128] [55] SYS_STATUS
[00:03:46.112804] [254] RADIO
[00:03:46.114791] [254] RADIO_STATUS
[00:03:46.181818] [56] BATTERY_STATUS
[00:03:46.189832] [57] ATTITUDE_TARGET
[00:03:46.194804] [58] VFR_HUD
[00:03:47.053904] [59] VFR_HUD
[00:03:47.056896] [60] HEARTBEAT
[00:03:47.167985] [255] RADIO
[00:03:47.170917] [255] RADIO_STATUS
[00:03:47.613053] [61] VFR_HUD
[00:03:47.971039] [62] HEARTBEAT
[00:03:47.978975] [63] ATTITUDE_TARGET
[00:03:48.099079] [0] RADIO
[00:03:48.101975] [0] RADIO_STATUS
[00:03:48.422103] [64] VFR_HUD
[00:03:48.987136] [65] HEARTBEAT
[00:03:49.101144] [1] RADIO
[00:03:49.104172] [1] RADIO_STATUS
[00:03:49.222734] [66] VFR_HUD
[00:03:50.038326] [67] HEARTBEAT
[00:03:50.045307] [68] SYS_STATUS
[00:03:50.167303] [69] BATTERY_STATUS
[00:03:50.168239] [70] EXTENDED_SYS_STATE
[00:03:50.176293] [71] ATTITUDE_TARGET
[00:03:50.181262] [72] VFR_HUD
[00:03:50.185331] [73] SYSTEM_TIME
[00:03:50.216270] [2] RADIO
[00:03:50.219347] [2] RADIO_STATUS
[00:03:50.830377] [74] VFR_HUD
[00:03:51.056599] [75] HEARTBEAT
[00:03:51.169541] [3] RADIO
[00:03:51.172416] [3] RADIO_STATUS
[00:03:51.645578] [76] VFR_HUD
[00:03:51.989882] [77] HEARTBEAT
[00:03:51.997567] [78] ATTITUDE_TARGET
[00:03:52.209678] [4] RADIO
[00:03:52.212531] [4] RADIO_STATUS
[00:03:52.439812] [79] VFR_HUD
[00:03:53.014738] [80] HEARTBEAT
[00:03:53.133665] [5] RADIO
[00:03:53.136838] [5] RADIO_STATUS
[00:03:53.254826] [81] VFR_HUD
[00:03:54.055848] [82] HEARTBEAT
[00:03:54.062821] [83] SYS_STATUS
[00:03:54.157856] [6] RADIO
[00:03:54.160797] [6] RADIO_STATUS
[00:03:54.227851] [84] BATTERY_STATUS
[00:03:54.234855] [85] ATTITUDE_TARGET
[00:03:54.239871] [86] VFR_HUD
[00:03:54.973962] [87] VFR_HUD
[00:03:54.976954] [88] HEARTBEAT
[00:03:55.203341] [7] RADIO
[00:03:55.205970] [7] RADIO_STATUS
[00:03:55.658043] [89] VFR_HUD
[00:03:56.017116] [90] HEARTBEAT
[00:03:56.025119] [91] ATTITUDE_TARGET
[00:03:56.145147] [8] RADIO
[00:03:56.148110] [8] RADIO_STATUS
[00:03:56.468130] [92] VFR_HUD
[00:03:57.033312] [93] HEARTBEAT
[00:03:57.146326] [9] RADIO
[00:03:57.149210] [9] RADIO_STATUS
[00:03:57.267384] [94] VFR_HUD
[00:03:57.952316] [95] HEARTBEAT
[00:03:57.972508] [96] SYS_STATUS
[00:03:58.086347] [97] BATTERY_STATUS
[00:03:58.203337] [98] ATTITUDE_TARGET
[00:03:58.208321] [99] VFR_HUD
[00:03:58.242337] [10] RADIO
[00:03:58.245886] [10] RADIO_STATUS
[00:03:58.771441] [100] VFR_HUD
[00:03:58.991560] [101] HEARTBEAT
[00:03:59.215477] [11] RADIO
[00:03:59.218420] [11] RADIO_STATUS
[00:03:59.566499] [102] VFR_HUD
[00:04:00.035617] [103] HEARTBEAT
[00:04:00.042520] [104] ATTITUDE_TARGET
[00:04:00.260580] [12] RADIO
[00:04:00.262476] [12] RADIO_STATUS
[00:04:00.380537] [105] VFR_HUD
[00:04:01.060666] [106] HEARTBEAT
[00:04:01.174765] [107] VFR_HUD
[00:04:01.207735] [13] RADIO
[00:04:01.209611] [13] RADIO_STATUS
[00:04:01.996751] [108] HEARTBEAT
[00:04:02.004852] [109] SYS_STATUS
[00:04:02.043893] [110] BATTERY_STATUS
[00:04:02.053673] [111] ATTITUDE_TARGET
[00:04:02.055751] [112] VFR_HUD
[00:04:02.203813] [14] RADIO
[00:04:02.206760] [14] RADIO_STATUS
[00:04:03.020033] [113] VFR_HUD
[00:04:03.022831] [114] HEARTBEAT
[00:04:03.247973] [15] RADIO
[00:04:03.250864] [15] RADIO_STATUS
[00:04:03.593996] [115] VFR_HUD
[00:04:04.068017] [116] HEARTBEAT
[00:04:04.075907] [117] ATTITUDE_TARGET
[00:04:04.272075] [16] RADIO
[00:04:04.275062] [16] RADIO_STATUS
[00:04:04.392968] [118] VFR_HUD
[00:04:04.974087] [119] HEARTBEAT
[00:04:05.203079] [120] VFR_HUD
[00:04:05.317150] [17] RADIO
[00:04:05.320062] [17] RADIO_STATUS
[00:04:06.010143] [121] HEARTBEAT
[00:04:06.017099] [122] SYS_STATUS
[00:04:06.137163] [123] BATTERY_STATUS
[00:04:06.249179] [124] ATTITUDE_TARGET
[00:04:06.254144] [125] VFR_HUD
[00:04:06.260160] [18] RADIO
[00:04:06.263137] [18] RADIO_STATUS
[00:04:06.812337] [126] VFR_HUD
[00:04:07.043395] [127] HEARTBEAT
[00:04:07.261245] [19] RADIO
[00:04:07.264214] [19] RADIO_STATUS
[00:04:07.612356] [128] VFR_HUD
[00:04:07.976472] [129] HEARTBEAT
[00:04:07.984363] [130] ATTITUDE_TARGET
[00:04:08.300560] [20] RADIO
[00:04:08.303569] [20] RADIO_STATUS
[00:04:08.421454] [131] VFR_HUD
[00:04:08.986513] [132] HEARTBEAT
[00:04:09.221533] [133] VFR_HUD
[00:04:09.248504] [21] RADIO
[00:04:09.251454] [21] RADIO_STATUS
[00:04:10.043587] [134] HEARTBEAT
[00:04:10.049557] [135] SYS_STATUS
[00:04:10.084638] [136] BATTERY_STATUS
[00:04:10.085569] [137] EXTENDED_SYS_STATE
[00:04:10.093612] [138] ATTITUDE_TARGET
[00:04:10.098690] [139] VFR_HUD
[00:04:10.102630] [140] SYSTEM_TIME
[00:04:10.249704] [22] RADIO
[00:04:10.252598] [22] RADIO_STATUS
[00:04:10.830666] [141] VFR_HUD
[00:04:11.055708] [142] HEARTBEAT
[00:04:11.289717] [23] RADIO
[00:04:11.291801] [23] RADIO_STATUS
[00:04:11.644814] [143] VFR_HUD
[00:04:11.988903] [144] HEARTBEAT
[00:04:11.996758] [145] ATTITUDE_TARGET
[00:04:12.318755] [24] RADIO
[00:04:12.322325] [24] RADIO_STATUS
[00:04:12.439824] [146] VFR_HUD
[00:04:13.014932] [147] HEARTBEAT
[00:04:13.238962] [25] RADIO
[00:04:13.241970] [25] RADIO_STATUS
[00:04:13.276956] [148] VFR_HUD
[00:04:14.056038] [149] HEARTBEAT
[00:04:14.063058] [150] SYS_STATUS
[00:04:14.183155] [151] BATTERY_STATUS
[00:04:14.295205] [152] ATTITUDE_TARGET
[00:04:14.300157] [153] VFR_HUD
[00:04:14.306235] [26] RADIO
[00:04:14.308982] [26] RADIO_STATUS
[00:04:14.858173] [154] VFR_HUD
[00:04:14.964216] [155] HEARTBEAT
[00:04:15.307348] [27] RADIO
[00:04:15.310188] [27] RADIO_STATUS
[00:04:15.658271] [156] VFR_HUD
[00:04:16.017249] [157] HEARTBEAT
[00:04:16.025284] [158] ATTITUDE_TARGET
[00:04:16.347340] [28] RADIO
[00:04:16.350240] [28] RADIO_STATUS
[00:04:16.468487] [159] VFR_HUD
[00:04:17.033523] [160] HEARTBEAT
[00:04:17.162382] [161] VFR_HUD
[00:04:17.278638] [29] RADIO
[00:04:17.281355] [29] RADIO_STATUS
[00:04:17.964496] [162] HEARTBEAT
[00:04:17.971505] [163] SYS_STATUS
[00:04:18.086496] [164] BATTERY_STATUS
[00:04:18.203452] [165] ATTITUDE_TARGET
[00:04:18.208525] [166] VFR_HUD
[00:04:18.296476] [30] RADIO
[00:04:18.299490] [30] RADIO_STATUS
[00:04:18.772500] [167] VFR_HUD
[00:04:18.992529] [168] HEARTBEAT
[00:04:19.341563] [31] RADIO
[00:04:19.343572] [31] RADIO_STATUS
[00:04:19.566738] [169] VFR_HUD
[00:04:20.035848] [170] HEARTBEAT
[00:04:20.043729] [171] ATTITUDE_TARGET
[00:04:20.282685] [32] RADIO
[00:04:20.285704] [32] RADIO_STATUS
[00:04:20.380834] [172] VFR_HUD
[00:04:21.060774] [173] HEARTBEAT
[00:04:21.175833] [174] VFR_HUD
[00:04:21.284817] [33] RADIO
[00:04:21.287811] [33] RADIO_STATUS
[00:04:21.992903] [175] HEARTBEAT
[00:04:21.999863] [176] SYS_STATUS
[00:04:22.118022] [177] BATTERY_STATUS
[00:04:22.125912] [178] ATTITUDE_TARGET
[00:04:22.156016] [179] VFR_HUD
[00:04:22.329926] [34] RADIO
[00:04:22.332899] [34] RADIO_STATUS
[00:04:22.785036] [180] VFR_HUD
[00:04:23.010091] [181] HEARTBEAT
[00:04:23.354085] [35] RADIO
[00:04:23.357098] [35] RADIO_STATUS
[00:04:23.594122] [182] VFR_HUD
[00:04:24.063192] [183] HEARTBEAT
[00:04:24.072211] [184] ATTITUDE_TARGET
[00:04:24.273318] [36] RADIO
[00:04:24.276170] [36] RADIO_STATUS
[00:04:24.394220] [185] VFR_HUD
[00:04:24.974382] [186] HEARTBEAT
[00:04:25.203446] [187] VFR_HUD
[00:04:25.318412] [37] RADIO
[00:04:25.321373] [37] RADIO_STATUS
[00:04:26.010545] [188] HEARTBEAT
[00:04:26.017486] [189] SYS_STATUS
[00:04:26.132487] [190] BATTERY_STATUS
[00:04:26.250512] [191] ATTITUDE_TARGET
[00:04:26.254513] [192] VFR_HUD
[00:04:26.342528] [38] RADIO
[00:04:26.345453] [38] RADIO_STATUS
[00:04:26.813562] [193] VFR_HUD
[00:04:27.043532] [194] HEARTBEAT
[00:04:27.387563] [39] RADIO
[00:04:27.390540] [39] RADIO_STATUS
[00:04:27.612587] [195] VFR_HUD
[00:04:27.976764] [196] HEARTBEAT
[00:04:27.984676] [197] ATTITUDE_TARGET
[00:04:28.302289] [40] RADIO
[00:04:28.304732] [40] RADIO_STATUS
[00:04:28.427698] [198] VFR_HUD
[00:04:28.987792] [199] HEARTBEAT
[00:04:29.221840] [200] VFR_HUD
[00:04:29.330811] [41] RADIO
[00:04:29.333762] [41] RADIO_STATUS
[00:04:30.043941] [201] HEARTBEAT
[00:04:30.050876] [202] SYS_STATUS
[00:04:30.085028] [203] BATTERY_STATUS
[00:04:30.086935] [204] EXTENDED_SYS_STATE
[00:04:30.093894] [205] ATTITUDE_TARGET
[00:04:30.098852] [206] VFR_HUD
[00:04:30.102906] [207] SYSTEM_TIME
[00:04:30.375934] [42] RADIO
[00:04:30.378832] [42] RADIO_STATUS
[00:04:30.830972] [208] VFR_HUD
[00:04:30.951969] [209] HEARTBEAT
[00:04:31.400108] [43] RADIO
[00:04:31.403077] [43] RADIO_STATUS
[00:04:31.646063] [210] VFR_HUD
[00:04:31.990245] [211] HEARTBEAT
[00:04:31.998184] [212] ATTITUDE_TARGET
[00:04:32.320230] [44] RADIO
[00:04:32.323381] [44] RADIO_STATUS
[00:04:32.440194] [213] VFR_HUD
[00:04:33.021702] [214] HEARTBEAT
[00:04:33.250334] [215] VFR_HUD
[00:04:33.359311] [45] RADIO
[00:04:33.362209] [45] RADIO_STATUS
[00:04:34.057390] [216] HEARTBEAT
[00:04:34.064340] [217] SYS_STATUS
[00:04:34.185818] [218] BATTERY_STATUS
[00:04:34.296399] [219] ATTITUDE_TARGET
[00:04:34.301355] [220] VFR_HUD
[00:04:34.388369] [46] RADIO
[00:04:34.391356] [46] RADIO_STATUS
[00:04:34.859409] [221] VFR_HUD
[00:04:34.964476] [222] HEARTBEAT
[00:04:35.428476] [47] RADIO
[00:04:35.431432] [47] RADIO_STATUS
[00:04:35.554430] [223] VFR_HUD
[00:04:36.018633] [224] HEARTBEAT
[00:04:36.025595] [225] ATTITUDE_TARGET
[00:04:36.348587] [48] RADIO
[00:04:36.350538] [48] RADIO_STATUS
[00:04:36.468691] [226] VFR_HUD
[00:04:37.034693] [227] HEARTBEAT
[00:04:37.163715] [228] VFR_HUD
[00:04:37.377761] [49] RADIO
[00:04:37.380693] [49] RADIO_STATUS
[00:04:37.965843] [229] HEARTBEAT
[00:04:37.972873] [230] SYS_STATUS
[00:04:38.086936] [231] BATTERY_STATUS
[00:04:38.204793] [232] ATTITUDE_TARGET
[00:04:38.209734] [233] VFR_HUD
[00:04:38.416794] [50] RADIO
[00:04:38.419789] [50] RADIO_STATUS
[00:04:38.772958] [234] VFR_HUD
[00:04:38.992906] [235] HEARTBEAT
[00:04:39.337067] [51] RADIO
[00:04:39.340130] [51] RADIO_STATUS
[00:04:39.568262] [236] VFR_HUD
[00:04:40.036071] [237] HEARTBEAT
[00:04:40.044041] [238] ATTITUDE_TARGET
[00:04:40.366174] [52] RADIO
[00:04:40.369104] [52] RADIO_STATUS
[00:04:40.487097] [239] VFR_HUD
[00:04:41.062156] [240] HEARTBEAT
[00:04:41.176128] [241] VFR_HUD
[00:04:41.405137] [53] RADIO
[00:04:41.408115] [53] RADIO_STATUS
[00:04:41.993267] [242] HEARTBEAT
[00:04:42.000362] [243] SYS_STATUS
[00:04:42.119242] [244] BATTERY_STATUS
[00:04:42.126312] [245] ATTITUDE_TARGET
[00:04:42.157222] [246] VFR_HUD
[00:04:42.435240] [54] RADIO
[00:04:42.438192] [54] RADIO_STATUS
[00:04:42.785315] [247] VFR_HUD
[00:04:43.011370] [248] HEARTBEAT
[00:04:43.354436] [55] RADIO
[00:04:43.357353] [55] RADIO_STATUS
[00:04:43.595576] [249] VFR_HUD
[00:04:44.064485] [250] HEARTBEAT
[00:04:44.072510] [251] ATTITUDE_TARGET
[00:04:44.394490] [252] VFR_HUD
[00:04:44.421517] [56] RADIO
[00:04:44.424533] [56] RADIO_STATUS
[00:04:44.976622] [253] HEARTBEAT
[00:04:45.204568] [254] VFR_HUD
[00:04:45.423576] [57] RADIO
[00:04:45.426669] [57] RADIO_STATUS
[00:04:46.011711] [255] HEARTBEAT
[00:04:46.020316] [0] SYS_STATUS
[00:04:46.133668] [1] BATTERY_STATUS
[00:04:46.250706] [2] ATTITUDE_TARGET
[00:04:46.255678] [3] VFR_HUD
[00:04:46.463699] [58] RADIO
[00:04:46.466680] [58] RADIO_STATUS
[00:04:46.818720] [4] VFR_HUD
[00:04:47.039839] [5] HEARTBEAT
[00:04:47.387812] [59] RADIO
[00:04:47.390878] [59] RADIO_STATUS
[00:04:47.613934] [6] VFR_HUD
[00:04:47.977954] [7] HEARTBEAT
[00:04:47.985933] [8] ATTITUDE_TARGET
[00:04:48.411943] [60] RADIO
[00:04:48.415088] [60] RADIO_STATUS
[00:04:48.450931] [9] VFR_HUD
[00:04:48.988130] [10] HEARTBEAT
[00:04:49.222995] [11] VFR_HUD
[00:04:49.457896] [61] RADIO
[00:04:49.459934] [61] RADIO_STATUS
[00:04:50.045123] [12] HEARTBEAT
[00:04:50.052107] [13] SYS_STATUS
[00:04:50.086134] [14] BATTERY_STATUS
[00:04:50.088039] [15] EXTENDED_SYS_STATE
[00:04:50.096136] [16] ATTITUDE_TARGET
[00:04:50.100105] [17] VFR_HUD
[00:04:50.104087] [18] SYSTEM_TIME
[00:04:50.482242] [62] RADIO
[00:04:50.484108] [62] RADIO_STATUS
[00:04:50.832157] [19] VFR_HUD
[00:04:50.953204] [20] HEARTBEAT
[00:04:51.401311] [63] RADIO
[00:04:51.404363] [63] RADIO_STATUS
[00:04:51.642274] [21] VFR_HUD
[00:04:51.991328] [22] HEARTBEAT
[00:04:52.000057] [23] ATTITUDE_TARGET
[00:04:52.442375] [24] VFR_HUD
[00:04:52.474391] [64] RADIO
[00:04:52.477370] [64] RADIO_STATUS
[00:04:53.022550] [25] HEARTBEAT
[00:04:53.251594] [26] VFR_HUD
[00:04:53.470503] [65] RADIO
[00:04:53.473690] [65] RADIO_STATUS
[00:04:54.058640] [27] HEARTBEAT
[00:04:54.065547] [28] SYS_STATUS
[00:04:54.180560] [29] BATTERY_STATUS
[00:04:54.297674] [30] ATTITUDE_TARGET
[00:04:54.302629] [31] VFR_HUD
[00:04:54.515678] [66] RADIO
[00:04:54.518548] [66] RADIO_STATUS
[00:04:54.860789] [32] VFR_HUD
[00:04:54.966672] [33] HEARTBEAT
[00:04:55.429719] [67] RADIO
[00:04:55.432684] [67] RADIO_STATUS
[00:04:55.660722] [34] VFR_HUD
[00:04:56.024881] [35] HEARTBEAT
[00:04:56.032748] [36] ATTITUDE_TARGET
[00:04:56.459976] [68] RADIO
[00:04:56.461781] [68] RADIO_STATUS
[00:04:56.497975] [37] VFR_HUD
[00:04:57.035888] [38] HEARTBEAT
[00:04:57.164940] [39] VFR_HUD
[00:04:57.498993] [69] RADIO
[00:04:57.502062] [69] RADIO_STATUS
[00:04:57.955020] [40] HEARTBEAT
[00:04:57.977999] [41] SYS_STATUS
[00:04:58.094154] [42] BATTERY_STATUS
[00:04:58.206139] [43] ATTITUDE_TARGET
[00:04:58.211019] [44] VFR_HUD
[00:04:58.528135] [70] RADIO
[00:04:58.531096] [70] RADIO_STATUS
[00:04:58.769160] [45] VFR_HUD
[00:04:58.994265] [46] HEARTBEAT
[00:04:59.448324] [71] RADIO
[00:04:59.451167] [71] RADIO_STATUS
[00:04:59.568354] [47] VFR_HUD
[00:05:00.037277] [48] HEARTBEAT
[00:05:00.045274] [49] ATTITUDE_TARGET
[00:05:00.378270] [50] VFR_HUD
[00:05:00.487388] [72] RADIO
[00:05:00.490245] [72] RADIO_STATUS
[00:05:00.943379] [51] HEARTBEAT
[00:05:01.178369] [52] VFR_HUD
[00:05:01.517614] [73] RADIO
[00:05:01.519577] [73] RADIO_STATUS
[00:05:01.995514] [53] HEARTBEAT
[00:05:02.001611] [54] SYS_STATUS
[00:05:02.120522] [55] BATTERY_STATUS
[00:05:02.128482] [56] ATTITUDE_TARGET
[00:05:02.158453] [57] VFR_HUD
[00:05:02.559829] [74] RADIO
[00:05:02.559973] [74] RADIO_STATUS
[00:05:02.787590] [58] VFR_HUD
[00:05:03.012670] [59] HEARTBEAT
[00:05:03.476701] [75] RADIO
[00:05:03.479572] [75] RADIO_STATUS
[00:05:03.596844] [60] VFR_HUD
[00:05:04.065839] [61] HEARTBEAT
[00:05:04.073827] [62] ATTITUDE_TARGET
[00:05:04.396852] [63] VFR_HUD
[00:05:04.505740] [76] RADIO
[00:05:04.508726] [76] RADIO_STATUS
[00:05:04.971851] [64] HEARTBEAT
[00:05:05.210915] [65] VFR_HUD
[00:05:05.544959] [77] RADIO
[00:05:05.547863] [77] RADIO_STATUS
[00:05:06.013008] [66] HEARTBEAT
[00:05:06.020529] [67] SYS_STATUS
[00:05:06.134961] [68] BATTERY_STATUS
[00:05:06.251996] [69] ATTITUDE_TARGET
[00:05:06.256939] [70] VFR_HUD
[00:05:06.575076] [78] RADIO
[00:05:06.578017] [78] RADIO_STATUS
[00:05:06.820097] [71] VFR_HUD
[00:05:07.040095] [72] HEARTBEAT
[00:05:07.494169] [79] RADIO
[00:05:07.497091] [79] RADIO_STATUS
[00:05:07.615218] [73] VFR_HUD
[00:05:07.979205] [74] HEARTBEAT
[00:05:07.991613] [75] ATTITUDE_TARGET
[00:05:08.429311] [76] VFR_HUD
[00:05:08.545223] [80] RADIO
[00:05:08.548195] [80] RADIO_STATUS
[00:05:08.989375] [77] HEARTBEAT
[00:05:09.224405] [78] VFR_HUD
[00:05:09.563415] [81] RADIO
[00:05:09.566394] [81] RADIO_STATUS
[00:05:10.040509] [79] HEARTBEAT
[00:05:10.047487] [80] SYS_STATUS
[00:05:10.169536] [81] BATTERY_STATUS
[00:05:10.170438] [82] EXTENDED_SYS_STATE
[00:05:10.178464] [83] ATTITUDE_TARGET
[00:05:10.183579] [84] VFR_HUD
[00:05:10.187424] [85] SYSTEM_TIME
[00:05:10.602519] [82] RADIO
[00:05:10.605499] [82] RADIO_STATUS
[00:05:10.833547] [86] VFR_HUD
[00:05:10.953619] [87] HEARTBEAT
[00:05:11.527642] [83] RADIO
[00:05:11.530590] [83] RADIO_STATUS
[00:05:11.642631] [88] VFR_HUD
[00:05:11.991679] [89] HEARTBEAT
[00:05:11.999822] [90] ATTITUDE_TARGET
[00:05:12.442753] [91] VFR_HUD
[00:05:12.551946] [84] RADIO
[00:05:12.554731] [84] RADIO_STATUS
[00:05:13.022912] [92] HEARTBEAT
[00:05:13.252847] [93] VFR_HUD
[00:05:13.596871] [85] RADIO
[00:05:13.599839] [85] RADIO_STATUS
[00:05:14.060015] [94] HEARTBEAT
[00:05:14.065937] [95] SYS_STATUS
[00:05:14.180937] [96] BATTERY_STATUS
[00:05:14.298153] [97] ATTITUDE_TARGET
[00:05:14.303026] [98] VFR_HUD
[00:05:14.544061] [86] RADIO
[00:05:14.547002] [86] RADIO_STATUS
[00:05:14.861168] [99] VFR_HUD
[00:05:14.967152] [100] HEARTBEAT
[00:05:15.540189] [87] RADIO
[00:05:15.543110] [87] RADIO_STATUS
[00:05:15.579091] [101] VFR_HUD
[00:05:16.025338] [102] HEARTBEAT
[00:05:16.033259] [103] ATTITUDE_TARGET
[00:05:16.351252] [104] VFR_HUD
[00:05:16.585229] [88] RADIO
[00:05:16.588277] [88] RADIO_STATUS
[00:05:17.036453] [105] HEARTBEAT
[00:05:17.166325] [106] VFR_HUD
[00:05:17.609502] [89] RADIO
[00:05:17.612396] [89] RADIO_STATUS
[00:05:17.967580] [107] HEARTBEAT
[00:05:17.974586] [108] SYS_STATUS
[00:05:18.094481] [109] BATTERY_STATUS
[00:05:18.206586] [110] ATTITUDE_TARGET
[00:05:18.211406] [111] VFR_HUD
[00:05:18.534449] [90] RADIO
[00:05:18.537497] [90] RADIO_STATUS
[00:05:18.769528] [112] VFR_HUD
[00:05:19.000665] [113] HEARTBEAT
[00:05:19.569603] [114] VFR_HUD
[00:05:19.601613] [91] RADIO
[00:05:19.604563] [91] RADIO_STATUS
[00:05:20.038766] [115] HEARTBEAT
[00:05:20.046648] [116] ATTITUDE_TARGET
[00:05:20.378792] [117] VFR_HUD
[00:05:20.600389] [92] RADIO
[00:05:20.601711] [92] RADIO_STATUS
[00:05:20.944777] [118] HEARTBEAT
[00:05:21.178851] [119] VFR_HUD
[00:05:21.642892] [93] RADIO
[00:05:21.645841] [93] RADIO_STATUS
[00:05:21.995978] [120] HEARTBEAT
[00:05:22.003024] [121] SYS_STATUS
[00:05:22.120875] [122] BATTERY_STATUS
[00:05:22.128895] [123] ATTITUDE_TARGET
[00:05:22.158988] [124] VFR_HUD
[00:05:22.667026] [94] RADIO
[00:05:22.670307] [94] RADIO_STATUS
[00:05:22.787959] [125] VFR_HUD
[00:05:23.012983] [126] HEARTBEAT
[00:05:23.590465] [95] RADIO
[00:05:23.590662] [95] RADIO_STATUS
[00:05:23.625170] [127] VFR_HUD
[00:05:24.066330] [128] HEARTBEAT
[00:05:24.074247] [129] ATTITUDE_TARGET
[00:05:24.397185] [130] VFR_HUD
[00:05:24.626325] [96] RADIO
[00:05:24.629225] [96] RADIO_STATUS
[00:05:24.972189] [131] HEARTBEAT
[00:05:25.212289] [132] VFR_HUD
[00:05:25.656312] [97] RADIO
[00:05:25.659229] [97] RADIO_STATUS
[00:05:26.014328] [133] HEARTBEAT
[00:05:26.020349] [134] SYS_STATUS
[00:05:26.135423] [135] BATTERY_STATUS
[00:05:26.253353] [136] ATTITUDE_TARGET
[00:05:26.257354] [137] VFR_HUD
[00:05:26.695367] [98] RADIO
[00:05:26.698323] [98] RADIO_STATUS
[00:05:26.821413] [138] VFR_HUD
[00:05:27.041421] [139] HEARTBEAT
[00:05:27.615609] [140] VFR_HUD
[00:05:27.642491] [99] RADIO
[00:05:27.645442] [99] RADIO_STATUS
[00:05:27.974590] [141] HEARTBEAT
[00:05:27.982502] [142] ATTITUDE_TARGET
[00:05:28.425534] [143] VFR_HUD
[00:05:28.644571] [100] RADIO
[00:05:28.647625] [100] RADIO_STATUS
[00:05:28.990808] [144] HEARTBEAT
[00:05:29.224710] [145] VFR_HUD
[00:05:29.683818] [101] RADIO
[00:05:29.686658] [101] RADIO_STATUS
[00:05:30.041813] [146] HEARTBEAT
[00:05:30.048754] [147] SYS_STATUS
[00:05:30.169827] [148] BATTERY_STATUS
[00:05:30.171840] [149] EXTENDED_SYS_STATE
[00:05:30.179886] [150] ATTITUDE_TARGET
[00:05:30.184971] [151] VFR_HUD
[00:05:30.187923] [152] SYSTEM_TIME
[00:05:30.712876] [102] RADIO
[00:05:30.715883] [102] RADIO_STATUS
[00:05:30.751918] [153] VFR_HUD
[00:05:30.949060] [154] HEARTBEAT
[00:05:31.633106] [103] RADIO
[00:05:31.635988] [103] RADIO_STATUS
[00:05:31.753049] [155] VFR_HUD
[00:05:31.992077] [156] HEARTBEAT
[00:05:32.000035] [157] ATTITUDE_TARGET
[00:05:32.443173] [158] VFR_HUD
[00:05:32.672152] [104] RADIO
[00:05:32.675196] [104] RADIO_STATUS
[00:05:33.020979] [159] HEARTBEAT
[00:05:33.252254] [160] VFR_HUD
[00:05:33.701315] [105] RADIO
[00:05:33.705939] [105] RADIO_STATUS
[00:05:33.943454] [161] HEARTBEAT
[00:05:34.072335] [162] SYS_STATUS
[00:05:34.080301] [163] BATTERY_STATUS
[00:05:34.189343] [164] ATTITUDE_TARGET
[00:05:34.194301] [165] VFR_HUD
[00:05:34.741387] [106] RADIO
[00:05:34.744461] [106] RADIO_STATUS
[00:05:34.867398] [166] VFR_HUD
[00:05:34.979449] [167] HEARTBEAT
[00:05:35.557506] [168] VFR_HUD
[00:05:35.672671] [107] RADIO
[00:05:35.675462] [107] RADIO_STATUS
[00:05:36.026532] [169] HEARTBEAT
[00:05:36.033528] [170] ATTITUDE_TARGET
[00:05:36.476714] [171] VFR_HUD
[00:05:36.690616] [108] RADIO
[00:05:36.693587] [108] RADIO_STATUS
[00:05:37.036693] [172] HEARTBEAT
[00:05:37.160749] [173] VFR_HUD
[00:05:37.729691] [109] RADIO
[00:05:37.732647] [109] RADIO_STATUS
[00:05:37.968770] [174] HEARTBEAT
[00:05:37.974776] [175] SYS_STATUS
[00:05:38.094845] [176] BATTERY_STATUS
[00:05:38.206836] [177] ATTITUDE_TARGET
[00:05:38.211796] [178] VFR_HUD
[00:05:38.655004] [110] RADIO
[00:05:38.657912] [110] RADIO_STATUS
[00:05:38.769944] [179] VFR_HUD
[00:05:39.000998] [180] HEARTBEAT
[00:05:39.569978] [181] VFR_HUD
[00:05:39.679006] [111] RADIO
[00:05:39.682065] [111] RADIO_STATUS
[00:05:40.039233] [182] HEARTBEAT
[00:05:40.047101] [183] ATTITUDE_TARGET
[00:05:40.379147] [184] VFR_HUD
[00:05:40.724202] [112] RADIO
[00:05:40.727199] [112] RADIO_STATUS
[00:05:41.070242] [185] HEARTBEAT
[00:05:41.179249] [186] VFR_HUD
[00:05:41.748283] [113] RADIO
[00:05:41.751381] [113] RADIO_STATUS
[00:05:42.001388] [187] HEARTBEAT
[00:05:42.008320] [188] SYS_STATUS
[00:05:42.047368] [189] BATTERY_STATUS
[00:05:42.057805] [190] ATTITUDE_TARGET
[00:05:42.060405] [191] VFR_HUD
[00:05:42.667481] [114] RADIO
[00:05:42.670362] [114] RADIO_STATUS
[00:05:42.788480] [192] VFR_HUD
[00:05:43.013415] [193] HEARTBEAT
[00:05:43.607724] [194] VFR_HUD
[00:05:43.723467] [115] RADIO
[00:05:43.726437] [115] RADIO_STATUS
[00:05:44.072561] [195] HEARTBEAT
[00:05:44.080702] [196] ATTITUDE_TARGET
[00:05:44.397570] [197] VFR_HUD
[00:05:44.736713] [116] RADIO
[00:05:44.739525] [116] RADIO_STATUS
[00:05:44.972672] [198] HEARTBEAT
[00:05:45.212618] [199] VFR_HUD
[00:05:45.781675] [117] RADIO
[00:05:45.784663] [117] RADIO_STATUS
[00:05:46.014841] [200] HEARTBEAT
[00:05:46.021731] [201] SYS_STATUS
[00:05:46.140775] [202] BATTERY_STATUS
[00:05:46.253862] [203] ATTITUDE_TARGET
[00:05:46.258753] [204] VFR_HUD
[00:05:46.700912] [118] RADIO
[00:05:46.703944] [118] RADIO_STATUS
[00:05:46.816791] [205] VFR_HUD
[00:05:47.041905] [206] HEARTBEAT
[00:05:47.616891] [207] VFR_HUD
[00:05:47.725872] [119] RADIO
[00:05:47.728844] [119] RADIO_STATUS
[00:05:47.975083] [208] HEARTBEAT
[00:05:47.982984] [209] ATTITUDE_TARGET
[00:05:48.426143] [210] VFR_HUD
[00:05:48.770144] [120] RADIO
[00:05:48.773884] [120] RADIO_STATUS
[00:05:48.991138] [211] HEARTBEAT
[00:05:49.225123] [212] VFR_HUD
[00:05:49.794257] [121] RADIO
[00:05:49.797162] [121] RADIO_STATUS
[00:05:50.042375] [213] HEARTBEAT
[00:05:50.049354] [214] SYS_STATUS
[00:05:50.170235] [215] BATTERY_STATUS
[00:05:50.172251] [216] EXTENDED_SYS_STATE
[00:05:50.180227] [217] ATTITUDE_TARGET
[00:05:50.185193] [218] VFR_HUD
[00:05:50.188169] [219] SYSTEM_TIME
[00:05:50.713287] [122] RADIO
[00:05:50.716244] [122] RADIO_STATUS
[00:05:50.834290] [220] VFR_HUD
[00:05:50.949334] [221] HEARTBEAT
[00:05:51.644401] [222] VFR_HUD
[00:05:51.753432] [123] RADIO
[00:05:51.756373] [123] RADIO_STATUS
[00:05:51.993562] [223] HEARTBEAT
[00:05:52.001536] [224] ATTITUDE_TARGET
[00:05:52.443530] [225] VFR_HUD
[00:05:52.782826] [124] RADIO
[00:05:52.785619] [124] RADIO_STATUS
[00:05:53.021427] [226] HEARTBEAT
[00:05:53.258600] [227] VFR_HUD
[00:05:53.827695] [125] RADIO
[00:05:53.830598] [125] RADIO_STATUS
[00:05:53.943644] [228] HEARTBEAT
[00:05:54.073751] [229] SYS_STATUS
[00:05:54.080702] [230] BATTERY_STATUS
[00:05:54.189736] [231] ATTITUDE_TARGET
[00:05:54.194712] [232] VFR_HUD
[00:05:54.742814] [126] RADIO
[00:05:54.745766] [126] RADIO_STATUS
[00:05:54.868778] [233] VFR_HUD
[00:05:54.979846] [234] HEARTBEAT
[00:05:55.662953] [235] VFR_HUD
[00:05:55.771905] [127] RADIO
[00:05:55.774885] [127] RADIO_STATUS
[00:05:56.021978] [236] HEARTBEAT
[00:05:56.029956] [237] ATTITUDE_TARGET
[00:05:56.478001] [238] VFR_HUD
[00:05:56.811048] [128] RADIO
[00:05:56.814069] [128] RADIO_STATUS
[00:05:57.037129] [239] HEARTBEAT
[00:05:57.162198] [240] VFR_HUD
[00:05:57.841218] [129] RADIO
[00:05:57.844112] [129] RADIO_STATUS
[00:05:57.969231] [241] HEARTBEAT
[00:05:57.976176] [242] SYS_STATUS
[00:05:58.090213] [243] BATTERY_STATUS
[00:05:58.208260] [244] ATTITUDE_TARGET
[00:05:58.213213] [245] VFR_HUD
[00:05:58.760279] [130] RADIO
[00:05:58.763350] [130] RADIO_STATUS
[00:05:58.881260] [246] VFR_HUD
[00:05:59.001369] [247] HEARTBEAT
[00:05:59.570363] [248] VFR_HUD
[00:05:59.799497] [131] RADIO
[00:05:59.802377] [131] RADIO_STATUS
[00:06:00.039492] [249] HEARTBEAT
[00:06:00.047501] [250] ATTITUDE_TARGET
[00:06:00.385610] [251] VFR_HUD
[00:06:00.829503] [132] RADIO
[00:06:00.832517] [132] RADIO_STATUS
[00:06:01.070615] [252] HEARTBEAT
[00:06:01.180665] [253] VFR_HUD
[00:06:01.869640] [133] RADIO
[00:06:01.872162] [133] RADIO_STATUS
[00:06:02.002701] [254] HEARTBEAT
[00:06:02.009700] [255] SYS_STATUS
[00:06:02.048798] [0] BATTERY_STATUS
[00:06:02.056649] [1] ATTITUDE_TARGET
[00:06:02.061757] [2] VFR_HUD
[00:06:02.788730] [134] RADIO
[00:06:02.791718] [134] RADIO_STATUS
[00:06:03.024856] [3] VFR_HUD
[00:06:03.027764] [4] HEARTBEAT
[00:06:03.603848] [5] VFR_HUD
[00:06:03.817907] [135] RADIO
[00:06:03.820898] [135] RADIO_STATUS
[00:06:04.073925] [6] HEARTBEAT
[00:06:04.080996] [7] ATTITUDE_TARGET
[00:06:04.399047] [8] VFR_HUD
[00:06:04.858166] [136] RADIO
[00:06:04.860897] [136] RADIO_STATUS
[00:06:04.979019] [9] HEARTBEAT
[00:06:05.212640] [10] VFR_HUD
[00:06:05.887137] [137] RADIO
[00:06:05.890188] [137] RADIO_STATUS
[00:06:06.015172] [11] HEARTBEAT
[00:06:06.022119] [12] SYS_STATUS
[00:06:06.142186] [13] BATTERY_STATUS
[00:06:06.254172] [14] ATTITUDE_TARGET
[00:06:06.259140] [15] VFR_HUD
[00:06:06.807645] [138] RADIO
[00:06:06.810434] [138] RADIO_STATUS
[00:06:06.927238] [16] VFR_HUD
[00:06:07.048309] [17] HEARTBEAT
[00:06:07.617333] [18] VFR_HUD
[00:06:07.846387] [139] RADIO
[00:06:07.849336] [139] RADIO_STATUS
[00:06:07.976393] [19] HEARTBEAT
[00:06:07.984366] [20] ATTITUDE_TARGET
[00:06:08.426514] [21] VFR_HUD
[00:06:08.875529] [140] RADIO
[00:06:08.878595] [140] RADIO_STATUS
[00:06:08.992512] [22] HEARTBEAT
[00:06:09.226555] [23] VFR_HUD
[00:06:09.915568] [141] RADIO
[00:06:09.918649] [141] RADIO_STATUS
[00:06:10.043620] [24] HEARTBEAT
[00:06:10.050752] [25] SYS_STATUS
[00:06:10.174338] [26] BATTERY_STATUS
[00:06:10.174478] [27] EXTENDED_SYS_STATE
[00:06:10.181706] [28] ATTITUDE_TARGET
[00:06:10.186766] [29] VFR_HUD
[00:06:10.189634] [30] SYSTEM_TIME
[00:06:10.835665] [31] VFR_HUD
[00:06:10.867716] [142] RADIO
[00:06:10.870672] [142] RADIO_STATUS
[00:06:10.950844] [32] HEARTBEAT
[00:06:11.650815] [33] VFR_HUD
[00:06:11.864784] [143] RADIO
[00:06:11.867769] [143] RADIO_STATUS
[00:06:11.994919] [34] HEARTBEAT
[00:06:12.001803] [35] ATTITUDE_TARGET
[00:06:12.445013] [36] VFR_HUD
[00:06:12.909011] [144] RADIO
[00:06:12.911887] [144] RADIO_STATUS
[00:06:13.019979] [37] HEARTBEAT
[00:06:13.260063] [38] VFR_HUD
[00:06:13.829226] [145] RADIO
[00:06:13.832101] [145] RADIO_STATUS
[00:06:13.940102] [39] HEARTBEAT
[00:06:13.960125] [40] SYS_STATUS
[00:06:14.003233] [41] BATTERY_STATUS
[00:06:14.011122] [42] ATTITUDE_TARGET
[00:06:14.016079] [43] VFR_HUD
[00:06:14.853221] [146] RADIO
[00:06:14.856150] [146] RADIO_STATUS
[00:06:14.927198] [44] VFR_HUD
[00:06:14.945294] [45] HEARTBEAT
[00:06:15.554305] [46] VFR_HUD
[00:06:15.898341] [147] RADIO
[00:06:15.901306] [147] RADIO_STATUS
[00:06:16.023373] [47] HEARTBEAT
[00:06:16.030402] [48] ATTITUDE_TARGET
[00:06:16.358447] [49] VFR_HUD
[00:06:16.922597] [148] RADIO
[00:06:16.925472] [148] RADIO_STATUS
[00:06:16.956589] [50] HEARTBEAT
[00:06:17.163555] [51] VFR_HUD
[00:06:17.970646] [52] HEARTBEAT
[00:06:17.977555] [53] SYS_STATUS
[00:06:17.990695] [149] RADIO
[00:06:17.993819] [149] RADIO_STATUS
[00:06:18.092673] [54] BATTERY_STATUS
[00:06:18.209725] [55] ATTITUDE_TARGET
[00:06:18.214594] [56] VFR_HUD
[00:06:18.777696] [57] VFR_HUD
[00:06:18.898698] [150] RADIO
[00:06:18.901709] [150] RADIO_STATUS
[00:06:18.997822] [58] HEARTBEAT
[00:06:19.571855] [59] VFR_HUD
[00:06:19.911977] [151] RADIO
[00:06:19.913894] [151] RADIO_STATUS
[00:06:19.945002] [60] HEARTBEAT
[00:06:19.967995] [61] ATTITUDE_TARGET
[00:06:20.386917] [62] VFR_HUD
[00:06:20.946992] [63] HEARTBEAT
[00:06:20.977946] [152] RADIO
[00:06:20.980888] [152] RADIO_STATUS
[00:06:21.181015] [64] VFR_HUD
[00:06:21.980051] [153] RADIO
[00:06:21.983026] [153] RADIO_STATUS
[00:06:22.040204] [65] HEARTBEAT
[00:06:22.046068] [66] SYS_STATUS
[00:06:22.054062] [67] BATTERY_STATUS
[00:06:22.066075] [68] ATTITUDE_TARGET
[00:06:22.071088] [69] VFR_HUD
[00:06:22.790232] [70] VFR_HUD
[00:06:22.900272] [154] RADIO
[00:06:22.902135] [154] RADIO_STATUS
[00:06:23.016237] [71] HEARTBEAT
[00:06:23.600432] [72] VFR_HUD
[00:06:23.940293] [155] RADIO
[00:06:23.942278] [155] RADIO_STATUS
[00:06:24.074300] [73] HEARTBEAT
[00:06:24.082302] [74] ATTITUDE_TARGET
[00:06:24.400222] [75] VFR_HUD
[00:06:24.968403] [156] RADIO
[00:06:24.971403] [156] RADIO_STATUS
[00:06:25.002484] [76] HEARTBEAT
[00:06:25.209544] [77] VFR_HUD
[00:06:26.016597] [78] HEARTBEAT
[00:06:26.023591] [79] SYS_STATUS
[00:06:26.036613] [157] RADIO
[00:06:26.039583] [157] RADIO_STATUS
[00:06:26.143624] [80] BATTERY_STATUS
[00:06:26.255653] [81] ATTITUDE_TARGET
[00:06:26.260598] [82] VFR_HUD
[00:06:26.818718] [83] VFR_HUD
[00:06:26.927733] [158] RADIO
[00:06:26.930707] [158] RADIO_STATUS
[00:06:27.049776] [84] HEARTBEAT
[00:06:27.618869] [85] VFR_HUD
[00:06:27.957946] [159] RADIO
[00:06:27.960783] [159] RADIO_STATUS
[00:06:28.005866] [86] HEARTBEAT
[00:06:28.012838] [87] ATTITUDE_TARGET
[00:06:28.427890] [88] VFR_HUD
[00:06:28.993990] [89] HEARTBEAT
[00:06:29.109798] [160] RADIO
[00:06:29.110055] [160] RADIO_STATUS
[00:06:29.228032] [90] VFR_HUD
[00:06:29.917125] [161] RADIO
[00:06:29.920125] [161] RADIO_STATUS
[00:06:30.050089] [91] HEARTBEAT
[00:06:30.057119] [92] SYS_STATUS
[00:06:30.091094] [93] BATTERY_STATUS
[00:06:30.093016] [94] EXTENDED_SYS_STATE
[00:06:30.101567] [95] ATTITUDE_TARGET
[00:06:30.105075] [96] VFR_HUD
[00:06:30.109174] [97] SYSTEM_TIME
[00:06:30.837210] [98] VFR_HUD
[00:06:30.946262] [162] RADIO
[00:06:30.949151] [162] RADIO_STATUS
[00:06:31.062285] [99] HEARTBEAT
[00:06:31.651314] [100] VFR_HUD
[00:06:31.995407] [101] HEARTBEAT
[00:06:32.003413] [102] ATTITUDE_TARGET
[00:06:32.095383] [163] RADIO
[00:06:32.098511] [163] RADIO_STATUS
[00:06:32.446471] [103] VFR_HUD
[00:06:33.015523] [164] RADIO
[00:06:33.017468] [164] RADIO_STATUS
[00:06:33.131651] [104] HEARTBEAT
[00:06:33.154617] [105] VFR_HUD
[00:06:33.940634] [106] HEARTBEAT
[00:06:33.960654] [107] SYS_STATUS
[00:06:34.003648] [108] BATTERY_STATUS
[00:06:34.011738] [109] ATTITUDE_TARGET
[00:06:34.016608] [110] VFR_HUD
[00:06:34.056514] [165] RADIO
[00:06:34.057589] [165] RADIO_STATUS
[00:06:34.979766] [111] VFR_HUD
[00:06:34.982735] [112] HEARTBEAT
[00:06:34.990711] [166] RADIO
[00:06:34.993834] [166] RADIO_STATUS
[00:06:35.556895] [113] VFR_HUD
[00:06:36.002849] [167] RADIO
[00:06:36.005800] [167] RADIO_STATUS
[00:06:36.132982] [114] HEARTBEAT
[00:06:36.140891] [115] ATTITUDE_TARGET
[00:06:36.354041] [116] VFR_HUD
[00:06:37.038977] [117] HEARTBEAT
[00:06:37.153128] [168] RADIO
[00:06:37.155000] [168] RADIO_STATUS
[00:06:37.190970] [118] VFR_HUD
[00:06:37.971073] [119] HEARTBEAT
[00:06:37.977022] [120] SYS_STATUS
[00:06:37.990050] [169] RADIO
[00:06:37.993259] [169] RADIO_STATUS
[00:06:38.092055] [121] BATTERY_STATUS
[00:06:38.209106] [122] ATTITUDE_TARGET
[00:06:38.214056] [123] VFR_HUD
[00:06:38.778163] [124] VFR_HUD
[00:06:38.992160] [170] RADIO
[00:06:38.995074] [170] RADIO_STATUS
[00:06:39.108209] [125] HEARTBEAT
[00:06:39.572226] [126] VFR_HUD
[00:06:40.041340] [127] HEARTBEAT
[00:06:40.049315] [128] ATTITUDE_TARGET
[00:06:40.059291] [171] RADIO
[00:06:40.062297] [171] RADIO_STATUS
[00:06:40.387346] [129] VFR_HUD
[00:06:40.947388] [130] HEARTBEAT
[00:06:40.978482] [172] RADIO
[00:06:40.981358] [172] RADIO_STATUS
[00:06:41.181429] [131] VFR_HUD
[00:06:41.998535] [132] HEARTBEAT
[00:06:42.005548] [133] SYS_STATUS
[00:06:42.123549] [134] BATTERY_STATUS
[00:06:42.131513] [135] ATTITUDE_TARGET
[00:06:42.161527] [136] VFR_HUD
[00:06:42.189568] [173] RADIO
[00:06:42.191493] [173] RADIO_STATUS
[00:06:42.790723] [137] VFR_HUD
[00:06:43.015814] [138] HEARTBEAT
[00:06:43.047701] [174] RADIO
[00:06:43.050643] [174] RADIO_STATUS
[00:06:43.599786] [139] VFR_HUD
[00:06:44.048835] [175] RADIO
[00:06:44.051793] [175] RADIO_STATUS
[00:06:44.178964] [140] HEARTBEAT
[00:06:44.186832] [141] ATTITUDE_TARGET
[00:06:44.400078] [142] VFR_HUD
[00:06:44.979918] [143] HEARTBEAT
[00:06:45.093914] [176] RADIO
[00:06:45.096884] [176] RADIO_STATUS
[00:06:45.208925] [144] VFR_HUD
[00:06:46.016088] [145] HEARTBEAT
[00:06:46.023161] [146] SYS_STATUS
[00:06:46.036053] [177] RADIO
[00:06:46.039079] [177] RADIO_STATUS
[00:06:46.138081] [147] BATTERY_STATUS
[00:06:46.255110] [148] ATTITUDE_TARGET
[00:06:46.260083] [149] VFR_HUD
[00:06:46.818248] [150] VFR_HUD
[00:06:47.038275] [178] RADIO
[00:06:47.041215] [178] RADIO_STATUS
[00:06:47.072226] [151] HEARTBEAT
[00:06:47.618215] [152] VFR_HUD
[00:06:47.982256] [153] HEARTBEAT
[00:06:47.990247] [154] ATTITUDE_TARGET
[00:06:48.082231] [179] RADIO
[00:06:48.085243] [179] RADIO_STATUS
[00:06:48.433389] [155] VFR_HUD
[00:06:48.993460] [156] HEARTBEAT
[00:06:49.106303] [180] RADIO
[00:06:49.109366] [180] RADIO_STATUS
[00:06:49.145490] [157] VFR_HUD
[00:06:50.031555] [181] RADIO
[00:06:50.034567] [181] RADIO_STATUS
[00:06:50.089752] [158] HEARTBEAT
[00:06:50.096640] [159] SYS_STATUS
[00:06:50.104523] [160] BATTERY_STATUS
[00:06:50.106499] [161] EXTENDED_SYS_STATE
[00:06:50.122519] [162] ATTITUDE_TARGET
[00:06:50.127506] [163] VFR_HUD
[00:06:50.131495] [164] SYSTEM_TIME
[00:06:50.836530] [165] VFR_HUD
[00:06:50.957554] [166] HEARTBEAT
[00:06:51.066567] [182] RADIO
[00:06:51.069546] [182] RADIO_STATUS
[00:06:51.651716] [167] VFR_HUD
[00:06:51.995669] [168] HEARTBEAT
[00:06:52.003694] [169] ATTITUDE_TARGET
[00:06:52.095729] [183] RADIO
[00:06:52.098754] [183] RADIO_STATUS
[00:06:52.446766] [170] VFR_HUD
[00:06:53.026838] [171] HEARTBEAT
[00:06:53.134783] [184] RADIO
[00:06:53.137738] [184] RADIO_STATUS
[00:06:53.255822] [172] VFR_HUD
[00:06:54.062935] [173] HEARTBEAT
[00:06:54.069897] [174] SYS_STATUS
[00:06:54.164915] [185] RADIO
[00:06:54.167811] [185] RADIO_STATUS
[00:06:54.234913] [175] BATTERY_STATUS
[00:06:54.241897] [176] ATTITUDE_TARGET
[00:06:54.246959] [177] VFR_HUD
[00:06:54.981029] [178] VFR_HUD
[00:06:54.983998] [179] HEARTBEAT
[00:06:55.084121] [186] RADIO
[00:06:55.087075] [186] RADIO_STATUS
[00:06:55.560071] [180] VFR_HUD
[00:06:56.024126] [181] HEARTBEAT
[00:06:56.031076] [182] ATTITUDE_TARGET
[00:06:56.234157] [187] RADIO
[00:06:56.236233] [187] RADIO_STATUS
[00:06:56.354326] [183] VFR_HUD
[00:06:57.039223] [184] HEARTBEAT
[00:06:57.153244] [188] RADIO
[00:06:57.156699] [188] RADIO_STATUS
[00:06:57.191189] [185] VFR_HUD
[00:06:57.971350] [186] HEARTBEAT
[00:06:57.978388] [187] SYS_STATUS
[00:06:58.072290] [189] RADIO
[00:06:58.075410] [189] RADIO_STATUS
[00:06:58.142334] [188] BATTERY_STATUS
[00:06:58.150400] [189] ATTITUDE_TARGET
[00:06:58.155371] [190] VFR_HUD
[00:06:59.008381] [191] VFR_HUD
[00:06:59.011544] [192] HEARTBEAT
[00:06:59.128389] [190] RADIO
[00:06:59.131367] [190] RADIO_STATUS
[00:06:59.572438] [193] VFR_HUD
[00:07:00.041595] [194] HEARTBEAT
[00:07:00.049551] [195] ATTITUDE_TARGET
[00:07:00.141537] [191] RADIO
[00:07:00.144516] [191] RADIO_STATUS
[00:07:00.382568] [196] VFR_HUD
[00:07:00.947728] [197] HEARTBEAT
[00:07:01.181685] [198] VFR_HUD
[00:07:01.208636] [192] RADIO
[00:07:01.211599] [192] RADIO_STATUS
[00:07:01.998752] [199] HEARTBEAT
[00:07:02.005711] [200] SYS_STATUS
[00:07:02.124736] [201] BATTERY_STATUS
[00:07:02.131758] [202] ATTITUDE_TARGET
[00:07:02.162740] [203] VFR_HUD
[00:07:02.184728] [193] RADIO
[00:07:02.187724] [193] RADIO_STATUS
[00:07:02.790788] [204] VFR_HUD
[00:07:03.016921] [205] HEARTBEAT
[00:07:03.129887] [194] RADIO
[00:07:03.132920] [194] RADIO_STATUS
[00:07:03.600873] [206] VFR_HUD
[00:07:04.070005] [207] HEARTBEAT
[00:07:04.077979] [208] ATTITUDE_TARGET
[00:07:04.280133] [195] RADIO
[00:07:04.282917] [195] RADIO_STATUS
[00:07:04.400126] [209] VFR_HUD
[00:07:04.976091] [210] HEARTBEAT
[00:07:05.095091] [196] RADIO
[00:07:05.098198] [196] RADIO_STATUS
[00:07:05.210225] [211] VFR_HUD
[00:07:06.017205] [212] HEARTBEAT
[00:07:06.024227] [213] SYS_STATUS
[00:07:06.119214] [197] RADIO
[00:07:06.122239] [197] RADIO_STATUS
[00:07:06.160164] [214] BATTERY_STATUS
[00:07:06.187201] [215] ATTITUDE_TARGET
[00:07:06.191164] [216] VFR_HUD
[00:07:06.824299] [217] VFR_HUD
[00:07:07.045325] [218] HEARTBEAT
[00:07:07.164372] [198] RADIO
[00:07:07.166328] [198] RADIO_STATUS
[00:07:07.619414] [219] VFR_HUD
[00:07:07.983508] [220] HEARTBEAT
[00:07:07.991414] [221] ATTITUDE_TARGET
[00:07:08.188458] [199] RADIO
[00:07:08.191421] [199] RADIO_STATUS
[00:07:08.433617] [222] VFR_HUD
[00:07:08.993661] [223] HEARTBEAT
[00:07:09.107567] [200] RADIO
[00:07:09.110592] [200] RADIO_STATUS
[00:07:09.228699] [224] VFR_HUD
[00:07:10.050645] [225] HEARTBEAT
[00:07:10.057821] [226] SYS_STATUS
[00:07:10.091678] [227] BATTERY_STATUS
[00:07:10.093630] [228] EXTENDED_SYS_STATE
[00:07:10.100723] [229] ATTITUDE_TARGET
[00:07:10.105641] [230] VFR_HUD
[00:07:10.109629] [231] SYSTEM_TIME
[00:07:10.152647] [201] RADIO
[00:07:10.154596] [201] RADIO_STATUS
[00:07:10.837782] [232] VFR_HUD
[00:07:10.957786] [233] HEARTBEAT
[00:07:11.176775] [202] RADIO
[00:07:11.179827] [202] RADIO_STATUS
[00:07:11.646930] [234] VFR_HUD
[00:07:11.995937] [235] HEARTBEAT
[00:07:12.003917] [236] ATTITUDE_TARGET
[00:07:12.220987] [203] RADIO
[00:07:12.223854] [203] RADIO_STATUS
[00:07:12.445946] [237] VFR_HUD
[00:07:13.027034] [238] HEARTBEAT
[00:07:13.140050] [204] RADIO
[00:07:13.143100] [204] RADIO_STATUS
[00:07:13.256048] [239] VFR_HUD
[00:07:13.946162] [240] HEARTBEAT
[00:07:14.076204] [241] SYS_STATUS
[00:07:14.083124] [242] BATTERY_STATUS
[00:07:14.165237] [205] RADIO
[00:07:14.168090] [205] RADIO_STATUS
[00:07:14.206203] [243] ATTITUDE_TARGET
[00:07:14.230138] [244] VFR_HUD
[00:07:14.865248] [245] VFR_HUD
[00:07:14.971372] [246] HEARTBEAT
[00:07:15.210288] [206] RADIO
[00:07:15.212243] [206] RADIO_STATUS
[00:07:15.560294] [247] VFR_HUD
[00:07:16.029388] [248] HEARTBEAT
[00:07:16.037683] [249] ATTITUDE_TARGET
[00:07:16.234479] [207] RADIO
[00:07:16.237525] [207] RADIO_STATUS
[00:07:16.354505] [250] VFR_HUD
[00:07:17.040551] [251] HEARTBEAT
[00:07:17.153556] [208] RADIO
[00:07:17.156508] [208] RADIO_STATUS
[00:07:17.192639] [252] VFR_HUD
[00:07:17.971640] [253] HEARTBEAT
[00:07:17.978579] [254] SYS_STATUS
[00:07:18.098779] [255] BATTERY_STATUS
[00:07:18.210651] [0] ATTITUDE_TARGET
[00:07:18.215764] [1] VFR_HUD
[00:07:18.220602] [209] RADIO
[00:07:18.223589] [209] RADIO_STATUS
[00:07:18.773669] [2] VFR_HUD
[00:07:19.000144] [3] HEARTBEAT
[00:07:19.222817] [210] RADIO
[00:07:19.225705] [210] RADIO_STATUS
[00:07:19.573890] [4] VFR_HUD
[00:07:20.042909] [5] HEARTBEAT
[00:07:20.051878] [6] ATTITUDE_TARGET
[00:07:20.145858] [211] RADIO
[00:07:20.148821] [211] RADIO_STATUS
[00:07:20.383022] [7] VFR_HUD
[00:07:20.947938] [8] HEARTBEAT
[00:07:21.183147] [9] VFR_HUD
[00:07:21.209963] [212] RADIO
[00:07:21.212924] [212] RADIO_STATUS
[00:07:22.000173] [10] HEARTBEAT
[00:07:22.006035] [11] SYS_STATUS
[00:07:22.125118] [12] BATTERY_STATUS
[00:07:22.133058] [13] ATTITUDE_TARGET
[00:07:22.163080] [14] VFR_HUD
[00:07:22.185104] [213] RADIO
[00:07:22.190179] [213] RADIO_STATUS
[00:07:22.792206] [15] VFR_HUD
[00:07:23.017210] [16] HEARTBEAT
[00:07:23.251315] [214] RADIO
[00:07:23.254152] [214] RADIO_STATUS
[00:07:23.601255] [17] VFR_HUD
[00:07:24.070338] [18] HEARTBEAT
[00:07:24.078270] [19] ATTITUDE_TARGET
[00:07:24.280289] [215] RADIO
[00:07:24.283298] [215] RADIO_STATUS
[00:07:24.401319] [20] VFR_HUD
[00:07:24.976462] [21] HEARTBEAT
[00:07:25.200794] [216] RADIO
[00:07:25.203487] [216] RADIO_STATUS
[00:07:25.238552] [22] VFR_HUD
[00:07:26.019354] [23] HEARTBEAT
[00:07:26.024611] [24] SYS_STATUS
[00:07:26.139619] [25] BATTERY_STATUS
[00:07:26.257608] [26] ATTITUDE_TARGET
[00:07:26.261624] [27] VFR_HUD
[00:07:26.267705] [217] RADIO
[00:07:26.273253] [217] RADIO_STATUS
[00:07:26.825814] [28] VFR_HUD
[00:07:26.937073] [29] HEARTBEAT
[00:07:27.269930] [218] RADIO
[00:07:27.272670] [218] RADIO_STATUS
[00:07:27.619815] [30] VFR_HUD
[00:07:27.978853] [31] HEARTBEAT
[00:07:27.986838] [32] ATTITUDE_TARGET
[00:07:28.191160] [219] RADIO
[00:07:28.191833] [219] RADIO_STATUS
[00:07:28.434891] [33] VFR_HUD
[00:07:28.994964] [34] HEARTBEAT
[00:07:29.229058] [35] VFR_HUD
[00:07:29.256051] [220] RADIO
[00:07:29.258931] [220] RADIO_STATUS
[00:07:30.046084] [36] HEARTBEAT
[00:07:30.055441] [37] SYS_STATUS
[00:07:30.174076] [38] BATTERY_STATUS
[00:07:30.176019] [39] EXTENDED_SYS_STATE
[00:07:30.184170] [40] ATTITUDE_TARGET
[00:07:30.189050] [41] VFR_HUD
[00:07:30.192174] [42] SYSTEM_TIME
[00:07:30.220577] [221] RADIO
[00:07:30.223012] [221] RADIO_STATUS
[00:07:30.838315] [43] VFR_HUD
[00:07:30.959167] [44] HEARTBEAT
[00:07:31.298170] [222] RADIO
[00:07:31.300106] [222] RADIO_STATUS
[00:07:31.648249] [45] VFR_HUD
[00:07:31.997300] [46] HEARTBEAT
[00:07:32.005279] [47] ATTITUDE_TARGET
[00:07:32.224045] [223] RADIO
[00:07:32.225219] [223] RADIO_STATUS
[00:07:32.343297] [48] VFR_HUD
[00:07:33.028442] [49] HEARTBEAT
[00:07:33.246433] [224] RADIO
[00:07:33.249489] [224] RADIO_STATUS
[00:07:33.287447] [50] VFR_HUD
[00:07:33.948589] [51] HEARTBEAT
[00:07:34.077574] [52] SYS_STATUS
[00:07:34.084615] [53] BATTERY_STATUS
[00:07:34.194522] [54] ATTITUDE_TARGET
[00:07:34.200066] [55] VFR_HUD
[00:07:34.291545] [225] RADIO
[00:07:34.294518] [225] RADIO_STATUS
[00:07:34.752635] [56] VFR_HUD
[00:07:34.972637] [57] HEARTBEAT
[00:07:35.315731] [226] RADIO
[00:07:35.318587] [226] RADIO_STATUS
[00:07:35.561651] [58] VFR_HUD
[00:07:36.030807] [59] HEARTBEAT
[00:07:36.038771] [60] ATTITUDE_TARGET
[00:07:36.235781] [227] RADIO
[00:07:36.238788] [227] RADIO_STATUS
[00:07:36.356808] [61] VFR_HUD
[00:07:36.936923] [62] HEARTBEAT
[00:07:37.165885] [63] VFR_HUD
[00:07:37.280918] [228] RADIO
[00:07:37.283987] [228] RADIO_STATUS
[00:07:37.972981] [64] HEARTBEAT
[00:07:37.979901] [65] SYS_STATUS
[00:07:38.099984] [66] BATTERY_STATUS
[00:07:38.212138] [67] ATTITUDE_TARGET
[00:07:38.216920] [68] VFR_HUD
[00:07:38.251100] [229] RADIO
[00:07:38.253988] [229] RADIO_STATUS
[00:07:38.776249] [69] VFR_HUD
[00:07:39.006151] [70] HEARTBEAT
[00:07:39.349170] [230] RADIO
[00:07:39.352152] [230] RADIO_STATUS
[00:07:39.575145] [71] VFR_HUD
[00:07:40.044263] [72] HEARTBEAT
[00:07:40.052214] [73] ATTITUDE_TARGET
[00:07:40.269244] [231] RADIO
[00:07:40.272280] [231] RADIO_STATUS
[00:07:40.384348] [74] VFR_HUD
[00:07:40.950464] [75] HEARTBEAT
[00:07:41.184425] [76] VFR_HUD
[00:07:41.293345] [232] RADIO
[00:07:41.296355] [232] RADIO_STATUS
[00:07:42.001447] [77] HEARTBEAT
[00:07:42.007434] [78] SYS_STATUS
[00:07:42.126502] [79] BATTERY_STATUS
[00:07:42.134659] [80] ATTITUDE_TARGET
[00:07:42.164435] [81] VFR_HUD
[00:07:42.337590] [233] RADIO
[00:07:42.340450] [233] RADIO_STATUS
[00:07:42.793551] [82] VFR_HUD
[00:07:43.021234] [83] HEARTBEAT
[00:07:43.361612] [234] RADIO
[00:07:43.364563] [234] RADIO_STATUS
[00:07:43.607621] [84] VFR_HUD
[00:07:43.943694] [85] HEARTBEAT
[00:07:43.965678] [86] ATTITUDE_TARGET
[00:07:44.281709] [235] RADIO
[00:07:44.284765] [235] RADIO_STATUS
[00:07:44.402787] [87] VFR_HUD
[00:07:44.977827] [88] HEARTBEAT
[00:07:45.217812] [89] VFR_HUD
[00:07:45.332792] [236] RADIO
[00:07:45.335793] [236] RADIO_STATUS
[00:07:46.019029] [90] HEARTBEAT
[00:07:46.026027] [91] SYS_STATUS
[00:07:46.145917] [92] BATTERY_STATUS
[00:07:46.257934] [93] ATTITUDE_TARGET
[00:07:46.262883] [94] VFR_HUD
[00:07:46.350902] [237] RADIO
[00:07:46.354172] [237] RADIO_STATUS
[00:07:46.826021] [95] VFR_HUD
[00:07:47.046175] [96] HEARTBEAT
[00:07:47.395164] [238] RADIO
[00:07:47.398021] [238] RADIO_STATUS
[00:07:47.622900] [97] VFR_HUD
[00:07:47.980236] [98] HEARTBEAT
[00:07:47.989007] [99] ATTITUDE_TARGET
[00:07:48.309138] [239] RADIO
[00:07:48.312081] [239] RADIO_STATUS
[00:07:48.430297] [100] VFR_HUD
[00:07:48.995258] [101] HEARTBEAT
[00:07:49.230371] [102] VFR_HUD
[00:07:49.339398] [240] RADIO
[00:07:49.342277] [240] RADIO_STATUS
[00:07:50.046454] [103] HEARTBEAT
[00:07:50.053413] [104] SYS_STATUS
[00:07:50.175447] [105] BATTERY_STATUS
[00:07:50.176383] [106] EXTENDED_SYS_STATE
[00:07:50.184456] [107] ATTITUDE_TARGET
[00:07:50.189433] [108] VFR_HUD
[00:07:50.193417] [109] SYSTEM_TIME
[00:07:50.378485] [241] RADIO
[00:07:50.381421] [241] RADIO_STATUS
[00:07:50.838623] [110] VFR_HUD
[00:07:50.954687] [111] HEARTBEAT
[00:07:51.407640] [242] RADIO
[00:07:51.410615] [242] RADIO_STATUS
[00:07:51.648644] [112] VFR_HUD
[00:07:51.997714] [113] HEARTBEAT
[00:07:52.005720] [114] ATTITUDE_TARGET
[00:07:52.327833] [243] RADIO
[00:07:52.330713] [243] RADIO_STATUS
[00:07:52.365736] [115] VFR_HUD
[00:07:53.022828] [116] HEARTBEAT
[00:07:53.257870] [117] VFR_HUD
[00:07:53.366839] [244] RADIO
[00:07:53.369812] [244] RADIO_STATUS
[00:07:53.960991] [118] HEARTBEAT
[00:07:53.966909] [119] SYS_STATUS
[00:07:54.006940] [120] BATTERY_STATUS
[00:07:54.014024] [121] ATTITUDE_TARGET
[00:07:54.019673] [122] VFR_HUD
[00:07:54.397016] [245] RADIO
[00:07:54.400028] [245] RADIO_STATUS
[00:07:54.753107] [123] VFR_HUD
[00:07:54.974375] [124] HEARTBEAT
[00:07:55.436082] [246] RADIO
[00:07:55.439098] [246] RADIO_STATUS
[00:07:55.557111] [125] VFR_HUD
[00:07:56.031221] [126] HEARTBEAT
[00:07:56.039188] [127] ATTITUDE_TARGET
[00:07:56.356214] [128] VFR_HUD
[00:07:56.383225] [247] RADIO
[00:07:56.386373] [247] RADIO_STATUS
[00:07:57.042379] [129] HEARTBEAT
[00:07:57.166334] [130] VFR_HUD
[00:07:57.385481] [248] RADIO
[00:07:57.388348] [248] RADIO_STATUS
[00:07:57.974813] [131] HEARTBEAT
[00:07:57.980455] [132] SYS_STATUS
[00:07:58.100475] [133] BATTERY_STATUS
[00:07:58.212584] [134] ATTITUDE_TARGET
[00:07:58.217520] [135] VFR_HUD
[00:07:58.425627] [249] RADIO
[00:07:58.428516] [249] RADIO_STATUS
[00:07:58.775608] [136] VFR_HUD
[00:07:59.006660] [137] HEARTBEAT
[00:07:59.349629] [250] RADIO
[00:07:59.352611] [250] RADIO_STATUS
[00:07:59.575704] [138] VFR_HUD
[00:08:00.044758] [139] HEARTBEAT
[00:08:00.051728] [140] ATTITUDE_TARGET
[00:08:00.373785] [251] RADIO
[00:08:00.376756] [251] RADIO_STATUS
[00:08:00.494794] [141] VFR_HUD
[00:08:00.949877] [142] HEARTBEAT
[00:08:01.183844] [143] VFR_HUD
[00:08:01.414016] [252] RADIO
[00:08:01.417038] [252] RADIO_STATUS
[00:08:02.007012] [144] HEARTBEAT
[00:08:02.012950] [145] SYS_STATUS
[00:08:02.053100] [146] BATTERY_STATUS
[00:08:02.060976] [147] ATTITUDE_TARGET
[00:08:02.066017] [148] VFR_HUD
[00:08:02.442995] [253] RADIO
[00:08:02.445977] [253] RADIO_STATUS
[00:08:02.794144] [149] VFR_HUD
[00:08:03.019133] [150] HEARTBEAT
[00:08:03.363227] [254] RADIO
[00:08:03.366149] [254] RADIO_STATUS
[00:08:03.608109] [151] VFR_HUD
[00:08:03.944172] [152] HEARTBEAT
[00:08:03.966236] [153] ATTITUDE_TARGET
[00:08:04.403416] [154] VFR_HUD
[00:08:04.435226] [255] RADIO
[00:08:04.438225] [255] RADIO_STATUS
[00:08:04.978388] [155] HEARTBEAT
[00:08:05.322407] [156] VFR_HUD
[00:08:05.432423] [0] RADIO
[00:08:05.434342] [0] RADIO_STATUS
[00:08:06.019570] [157] HEARTBEAT
[00:08:06.026492] [158] SYS_STATUS
[00:08:06.146531] [159] BATTERY_STATUS
[00:08:06.258580] [160] ATTITUDE_TARGET
[00:08:06.263543] [161] VFR_HUD
[00:08:06.476547] [1] RADIO
[00:08:06.479537] [1] RADIO_STATUS
[00:08:06.821591] [162] VFR_HUD
[00:08:07.047648] [163] HEARTBEAT
[00:08:07.396720] [2] RADIO
[00:08:07.399715] [2] RADIO_STATUS
[00:08:07.621773] [164] VFR_HUD
[00:08:07.980710] [165] HEARTBEAT
[00:08:07.988725] [166] ATTITUDE_TARGET
[00:08:08.420706] [3] RADIO
[00:08:08.423728] [3] RADIO_STATUS
[00:08:08.541943] [167] VFR_HUD
[00:08:08.996822] [168] HEARTBEAT
[00:08:09.230824] [169] VFR_HUD
[00:08:09.464876] [4] RADIO
[00:08:09.467809] [4] RADIO_STATUS
[00:08:10.047968] [170] HEARTBEAT
[00:08:10.055647] [171] SYS_STATUS
[00:08:10.175934] [172] BATTERY_STATUS
[00:08:10.177894] [173] EXTENDED_SYS_STATE
[00:08:10.185960] [174] ATTITUDE_TARGET
[00:08:10.190904] [175] VFR_HUD
[00:08:10.193912] [176] SYSTEM_TIME
[00:08:10.489090] [5] RADIO
