[03:19:57.104453] [134] HEARTBEAT
[03:19:57.218408] [109] RADIO
[03:19:57.221423] [109] RADIO_STATUS
[03:19:57.569448] [135] VFR_HUD
[03:19:57.914571] [136] HEARTBEAT
[03:19:57.936477] [137] ATTITUDE_TARGET
[03:19:58.263582] [110] RADIO
[03:19:58.266552] [110] RADIO_STATUS
[03:19:58.378591] [138] VFR_HUD
[03:19:58.943719] [139] HEARTBEAT
[03:19:59.178759] [140] VFR_HUD
[03:19:59.210720] [111] RADIO
[03:19:59.213691] [111] RADIO_STATUS
[03:19:59.995931] [141] HEARTBEAT
[03:20:00.002887] [142] SYS_STATUS
[03:20:00.120955] [143] BATTERY_STATUS
[03:20:00.128883] [144] ATTITUDE_TARGET
[03:20:00.158912] [145] VFR_HUD
[03:20:00.207945] [112] RADIO
[03:20:00.209850] [112] RADIO_STATUS
[03:20:00.788062] [146] VFR_HUD
[03:20:01.013124] [147] HEARTBEAT
[03:20:01.252122] [113] RADIO
[03:20:01.255048] [113] RADIO_STATUS
[03:20:01.603164] [148] VFR_HUD
[03:20:01.946377] [149] HEARTBEAT
[03:20:01.954192] [150] ATTITUDE_TARGET
[03:20:02.276273] [114] RADIO
[03:20:02.279203] [114] RADIO_STATUS
[03:20:02.397287] [151] VFR_HUD
[03:20:02.972395] [152] HEARTBEAT
[03:20:03.212450] [153] VFR_HUD
[03:20:03.332450] [115] RADIO
[03:20:03.335480] [115] RADIO_STATUS
[03:20:04.013767] [154] HEARTBEAT
[03:20:04.020735] [155] SYS_STATUS
[03:20:04.135649] [156] BATTERY_STATUS
[03:20:04.253690] [157] ATTITUDE_TARGET
[03:20:04.257998] [158] VFR_HUD
[03:20:04.291640] [116] RADIO
[03:20:04.294614] [116] RADIO_STATUS
[03:20:04.823019] [159] VFR_HUD
[03:20:04.932831] [160] HEARTBEAT
[03:20:05.264948] [117] RADIO
[03:20:05.267770] [117] RADIO_STATUS
[03:20:05.615988] [161] VFR_HUD
[03:20:05.974994] [162] HEARTBEAT
[03:20:05.982948] [163] ATTITUDE_TARGET
[03:20:06.310102] [118] RADIO
[03:20:06.313036] [118] RADIO_STATUS
[03:20:06.425136] [164] VFR_HUD
[03:20:06.991217] [165] HEARTBEAT
[03:20:07.115148] [166] VFR_HUD
[03:20:07.334192] [119] RADIO
[03:20:07.337182] [119] RADIO_STATUS
[03:20:07.915388] [167] HEARTBEAT
[03:20:07.935333] [168] SYS_STATUS
[03:20:07.973355] [169] BATTERY_STATUS
[03:20:07.975306] [170] EXTENDED_SYS_STATE
[03:20:07.983416] [171] ATTITUDE_TARGET
[03:20:07.988335] [172] VFR_HUD
[03:20:07.991375] [173] SYSTEM_TIME
[03:20:08.254386] [120] RADIO
[03:20:08.257330] [120] RADIO_STATUS
[03:20:08.724447] [174] VFR_HUD
[03:20:08.955528] [175] HEARTBEAT
[03:20:09.108177] JAMMING_START
[03:20:09.298665] [121] RADIO
[03:20:09.301597] [121] RADIO_STATUS
[03:20:09.524605] [176] VFR_HUD
[03:20:09.992753] [177] HEARTBEAT
[03:20:10.000777] [178] ATTITUDE_TARGET
[03:20:10.322757] [122] RADIO
[03:20:10.325723] [122] RADIO_STATUS
[03:20:10.361857] [179] VFR_HUD
[03:20:10.903826] [180] HEARTBEAT
[03:20:11.132849] [181] VFR_HUD
[03:20:11.367906] [123] RADIO
[03:20:11.369853] [123] RADIO_STATUS
[03:20:11.955022] [182] HEARTBEAT
[03:20:11.961987] [183] SYS_STATUS
[03:20:12.002013] [184] BATTERY_STATUS
[03:20:12.009069] [185] ATTITUDE_TARGET
[03:20:12.014024] [186] VFR_HUD
[03:20:12.282046] [124] RADIO
[03:20:12.285034] [124] RADIO_STATUS
[03:20:12.978184] [187] VFR_HUD
[03:20:12.981133] [188] HEARTBEAT
[03:20:13.311217] [125] RADIO
[03:20:13.314239] [125] RADIO_STATUS
[03:20:13.552261] [189] VFR_HUD
[03:20:14.026469] [190] HEARTBEAT
[03:20:14.034352] [191] ATTITUDE_TARGET
[03:20:14.351460] [192] VFR_HUD
[03:20:14.378439] [126] RADIO
[03:20:14.381389] [126] RADIO_STATUS
[03:20:14.932653] [193] HEARTBEAT
[03:20:15.161591] [194] VFR_HUD
[03:20:15.270594] [127] RADIO
[03:20:15.273587] [127] RADIO_STATUS
[03:20:15.968666] [195] HEARTBEAT
[03:20:15.975652] [196] SYS_STATUS
[03:20:16.094681] [197] BATTERY_STATUS
[03:20:16.207733] [198] ATTITUDE_TARGET
[03:20:16.212703] [199] VFR_HUD
[03:20:16.299716] [128] RADIO
[03:20:16.302687] [128] RADIO_STATUS
[03:20:16.770842] [200] VFR_HUD
[03:20:17.000979] [201] HEARTBEAT
[03:20:17.339909] [129] RADIO
[03:20:17.343014] [129] RADIO_STATUS
[03:20:17.570025] [202] VFR_HUD
[03:20:17.916036] [203] HEARTBEAT
[03:20:17.938122] [204] ATTITUDE_TARGET
[03:20:18.369077] [130] RADIO
[03:20:18.372126] [130] RADIO_STATUS
[03:20:18.490659] [205] VFR_HUD
[03:20:18.945215] [206] HEARTBEAT
[03:20:19.179195] [207] VFR_HUD
[03:20:19.288561] [131] RADIO
[03:20:19.291174] [131] RADIO_STATUS
[03:20:20.001483] [208] HEARTBEAT
[03:20:20.008377] [209] SYS_STATUS
[03:20:20.048338] [210] BATTERY_STATUS
[03:20:20.056325] [211] ATTITUDE_TARGET
[03:20:20.060352] [212] VFR_HUD
[03:20:20.328393] [132] RADIO
[03:20:20.331358] [132] RADIO_STATUS
[03:20:20.914489] [213] VFR_HUD
[03:20:20.917431] [214] HEARTBEAT
[03:20:21.357555] [133] RADIO
[03:20:21.360466] [133] RADIO_STATUS
[03:20:21.603563] [215] VFR_HUD
[03:20:21.947632] [216] HEARTBEAT
[03:20:21.955613] [217] ATTITUDE_TARGET
[03:20:22.397702] [218] VFR_HUD
[03:20:22.424664] [134] RADIO
[03:20:22.427792] [134] RADIO_STATUS
[03:20:22.972874] [219] HEARTBEAT
[03:20:23.212815] [220] VFR_HUD
[03:20:23.332873] [135] RADIO
[03:20:23.335880] [135] RADIO_STATUS
[03:20:24.015063] [221] HEARTBEAT
[03:20:24.021090] [222] SYS_STATUS
[03:20:24.141027] [223] BATTERY_STATUS
[03:20:24.253194] [224] ATTITUDE_TARGET
[03:20:24.258078] [225] VFR_HUD
[03:20:24.346045] [136] RADIO
[03:20:24.349002] [136] RADIO_STATUS
[03:20:24.816121] [226] VFR_HUD
[03:20:24.922276] [227] HEARTBEAT
[03:20:25.390230] [137] RADIO
[03:20:25.393216] [137] RADIO_STATUS
[03:20:25.616279] [228] VFR_HUD
[03:20:25.975370] [229] HEARTBEAT
[03:20:25.983379] [230] ATTITUDE_TARGET
[03:20:26.311387] [231] VFR_HUD
[03:20:26.337396] [138] RADIO
[03:20:26.340381] [138] RADIO_STATUS
[03:20:26.990559] [232] HEARTBEAT
[03:20:27.115542] [233] VFR_HUD
[03:20:27.339611] [139] RADIO
[03:20:27.342569] [139] RADIO_STATUS
[03:20:27.910738] [234] HEARTBEAT
[03:20:27.930788] [235] SYS_STATUS
[03:20:27.973797] [236] BATTERY_STATUS
[03:20:27.975739] [237] EXTENDED_SYS_STATE
[03:20:27.983730] [238] ATTITUDE_TARGET
[03:20:27.988697] [239] VFR_HUD
[03:20:27.991691] [240] SYSTEM_TIME
[03:20:28.378847] [140] RADIO
[03:20:28.381773] [140] RADIO_STATUS
[03:20:28.729861] [241] VFR_HUD
[03:20:28.949953] [242] HEARTBEAT
[03:20:29.403952] [141] RADIO
[03:20:29.407020] [141] RADIO_STATUS
[03:20:29.523934] [243] VFR_HUD
[03:20:29.993009] [244] HEARTBEAT
[03:20:30.000987] [245] ATTITUDE_TARGET
[03:20:30.339164] [246] VFR_HUD
[03:20:30.460040] [142] RADIO
[03:20:30.463038] [142] RADIO_STATUS
[03:20:30.904220] [247] HEARTBEAT
[03:20:31.134152] [248] VFR_HUD
[03:20:31.368240] [143] RADIO
[03:20:31.371199] [143] RADIO_STATUS
[03:20:31.956373] [249] HEARTBEAT
[03:20:31.962350] [250] SYS_STATUS
[03:20:32.002354] [251] BATTERY_STATUS
[03:20:32.010376] [252] ATTITUDE_TARGET
[03:20:32.015307] [253] VFR_HUD
[03:20:32.392422] [144] RADIO
[03:20:32.395405] [144] RADIO_STATUS
[03:20:32.743455] [254] VFR_HUD
[03:20:32.968521] [255] HEARTBEAT
[03:20:33.436547] [145] RADIO
[03:20:33.439545] [145] RADIO_STATUS
[03:20:33.552591] [0] VFR_HUD
[03:20:34.021776] [1] HEARTBEAT
[03:20:34.029678] [2] ATTITUDE_TARGET
[03:20:34.352818] [3] VFR_HUD
[03:20:34.384812] [146] RADIO
[03:20:34.387802] [146] RADIO_STATUS
[03:20:34.932982] [4] HEARTBEAT
[03:20:35.161916] [5] VFR_HUD
[03:20:35.380913] [147] RADIO
[03:20:35.383874] [147] RADIO_STATUS
[03:20:35.969049] [6] HEARTBEAT
[03:20:35.976038] [7] SYS_STATUS
[03:20:36.091153] [8] BATTERY_STATUS
[03:20:36.208061] [9] ATTITUDE_TARGET
[03:20:36.212987] [10] VFR_HUD
[03:20:36.426107] [148] RADIO
[03:20:36.429048] [148] RADIO_STATUS
[03:20:36.771164] [11] VFR_HUD
[03:20:37.002303] [12] HEARTBEAT
[03:20:37.450393] [149] RADIO
[03:20:37.453194] [149] RADIO_STATUS
[03:20:37.571314] [13] VFR_HUD
[03:20:37.935397] [14] HEARTBEAT
[03:20:37.943401] [15] ATTITUDE_TARGET
[03:20:38.370467] [150] RADIO
[03:20:38.373445] [150] RADIO_STATUS
[03:20:38.408503] [16] VFR_HUD
[03:20:38.946599] [17] HEARTBEAT
[03:20:39.180579] [18] VFR_HUD
[03:20:39.409703] [151] RADIO
[03:20:39.412521] [151] RADIO_STATUS
[03:20:40.002731] [19] HEARTBEAT
[03:20:40.009679] [20] SYS_STATUS
[03:20:40.049716] [21] BATTERY_STATUS
[03:20:40.058396] [22] ATTITUDE_TARGET
[03:20:40.061739] [23] VFR_HUD
[03:20:40.439742] [152] RADIO
[03:20:40.442678] [152] RADIO_STATUS
[03:20:40.789845] [24] VFR_HUD
[03:20:40.905870] [25] HEARTBEAT
[03:20:41.478979] [153] RADIO
[03:20:41.481937] [153] RADIO_STATUS
[03:20:41.604972] [26] VFR_HUD
[03:20:41.949012] [27] HEARTBEAT
[03:20:41.956996] [28] ATTITUDE_TARGET
[03:20:42.399074] [29] VFR_HUD
[03:20:42.426070] [154] RADIO
[03:20:42.428991] [154] RADIO_STATUS
[03:20:42.980178] [30] HEARTBEAT
[03:20:43.209182] [31] VFR_HUD
[03:20:43.428188] [155] RADIO
[03:20:43.431137] [155] RADIO_STATUS
[03:20:44.016350] [32] HEARTBEAT
[03:20:44.023335] [33] SYS_STATUS
[03:20:44.143350] [34] BATTERY_STATUS
[03:20:44.255311] [35] ATTITUDE_TARGET
[03:20:44.260283] [36] VFR_HUD
[03:20:44.467340] [156] RADIO
[03:20:44.470300] [156] RADIO_STATUS
[03:20:44.818443] [37] VFR_HUD
[03:20:44.923432] [38] HEARTBEAT
[03:20:45.497616] [157] RADIO
[03:20:45.500522] [157] RADIO_STATUS
[03:20:45.535521] [39] VFR_HUD
[03:20:45.977663] [40] HEARTBEAT
[03:20:45.984599] [41] ATTITUDE_TARGET
[03:20:46.307762] [42] VFR_HUD
[03:20:46.416731] [158] RADIO
[03:20:46.419684] [158] RADIO_STATUS
[03:20:46.992892] [43] HEARTBEAT
[03:20:47.122832] [44] VFR_HUD
[03:20:47.456860] [159] RADIO
[03:20:47.459878] [159] RADIO_STATUS
[03:20:47.912984] [45] HEARTBEAT
[03:20:47.932942] [46] SYS_STATUS
[03:20:48.048954] [47] BATTERY_STATUS
[03:20:48.050991] [48] EXTENDED_SYS_STATE
[03:20:48.170015] [49] ATTITUDE_TARGET
[03:20:48.175020] [50] VFR_HUD
[03:20:48.178995] [51] SYSTEM_TIME
[03:20:48.486062] [160] RADIO
[03:20:48.489033] [160] RADIO_STATUS
[03:20:48.732099] [52] VFR_HUD
[03:20:48.952168] [53] HEARTBEAT
[03:20:49.526317] [54] VFR_HUD
[03:20:49.553257] [161] RADIO
[03:20:49.556256] [161] RADIO_STATUS
[03:20:49.995403] [55] HEARTBEAT
[03:20:50.003433] [56] ATTITUDE_TARGET
[03:20:50.341431] [57] VFR_HUD
[03:20:50.461525] [162] RADIO
[03:20:50.464504] [162] RADIO_STATUS
[03:20:50.901552] [58] HEARTBEAT
[03:20:51.135571] [59] VFR_HUD
[03:20:51.474629] [163] RADIO
[03:20:51.477579] [163] RADIO_STATUS
[03:20:51.952667] [60] HEARTBEAT
[03:20:51.959706] [61] SYS_STATUS
[03:20:52.077741] [62] BATTERY_STATUS
[03:20:52.085726] [63] ATTITUDE_TARGET
[03:20:52.115762] [64] VFR_HUD
[03:20:52.519813] [164] RADIO
[03:20:52.522843] [164] RADIO_STATUS
[03:20:52.744858] [65] VFR_HUD
[03:20:52.971018] [66] HEARTBEAT
[03:20:53.543994] [165] RADIO
[03:20:53.546932] [165] RADIO_STATUS
[03:20:53.665045] [67] VFR_HUD
[03:20:54.023132] [68] HEARTBEAT
[03:20:54.031055] [69] ATTITUDE_TARGET
[03:20:54.354105] [70] VFR_HUD
[03:20:54.463204] [166] RADIO
[03:20:54.466145] [166] RADIO_STATUS
[03:20:54.934293] [71] HEARTBEAT
[03:20:55.163313] [72] VFR_HUD
[03:20:55.508318] [167] RADIO
[03:20:55.511322] [167] RADIO_STATUS
[03:20:55.970436] [73] HEARTBEAT
[03:20:55.977423] [74] SYS_STATUS
[03:20:56.092416] [75] BATTERY_STATUS
[03:20:56.209498] [76] ATTITUDE_TARGET
[03:20:56.214455] [77] VFR_HUD
[03:20:56.455655] [168] RADIO
[03:20:56.458445] [168] RADIO_STATUS
[03:20:56.777549] [78] VFR_HUD
[03:20:56.998568] [79] HEARTBEAT
[03:20:57.572695] [80] VFR_HUD
[03:20:57.604727] [169] RADIO
[03:20:57.607686] [169] RADIO_STATUS
[03:20:57.936755] [81] HEARTBEAT
[03:20:57.944723] [82] ATTITUDE_TARGET
[03:20:58.386846] [83] VFR_HUD
[03:20:58.507887] [170] RADIO
[03:20:58.510843] [170] RADIO_STATUS
[03:20:58.946946] [84] HEARTBEAT
[03:20:59.181954] [85] VFR_HUD
[03:20:59.521020] [171] RADIO
[03:20:59.523990] [171] RADIO_STATUS
[03:21:00.004119] [86] HEARTBEAT
[03:21:00.011076] [87] SYS_STATUS
[03:21:00.050171] [88] BATTERY_STATUS
[03:21:00.058225] [89] ATTITUDE_TARGET
[03:21:00.063026] [90] VFR_HUD
[03:21:00.565144] [172] RADIO
[03:21:00.568090] [172] RADIO_STATUS
[03:21:00.922582] [91] VFR_HUD
[03:21:00.925176] [92] HEARTBEAT
[03:21:01.590330] [173] RADIO
[03:21:01.593267] [173] RADIO_STATUS
[03:21:01.710344] [93] VFR_HUD
[03:21:01.949398] [94] HEARTBEAT
[03:21:01.957416] [95] ATTITUDE_TARGET
[03:21:02.400564] [96] VFR_HUD
[03:21:02.509455] [174] RADIO
[03:21:02.512457] [174] RADIO_STATUS
[03:21:02.980555] [97] HEARTBEAT
[03:21:03.209642] [98] VFR_HUD
[03:21:03.553689] [175] RADIO
[03:21:03.556665] [175] RADIO_STATUS
[03:21:04.016835] [99] HEARTBEAT
[03:21:04.023872] [100] SYS_STATUS
[03:21:04.143808] [101] BATTERY_STATUS
[03:21:04.255889] [102] ATTITUDE_TARGET
[03:21:04.260823] [103] VFR_HUD
[03:21:04.579060] [176] RADIO
[03:21:04.581853] [176] RADIO_STATUS
[03:21:04.818887] [104] VFR_HUD
[03:21:04.924909] [105] HEARTBEAT
[03:21:05.513990] [106] VFR_HUD
[03:21:05.635011] [177] RADIO
[03:21:05.638127] [177] RADIO_STATUS
[03:21:05.983067] [107] HEARTBEAT
[03:21:05.991085] [108] ATTITUDE_TARGET
[03:21:06.428209] [109] VFR_HUD
[03:21:06.538132] [178] RADIO
[03:21:06.541142] [178] RADIO_STATUS
[03:21:06.994208] [110] HEARTBEAT
[03:21:07.123329] [111] VFR_HUD
[03:21:07.567316] [179] RADIO
[03:21:07.570275] [179] RADIO_STATUS
[03:21:07.926472] [112] HEARTBEAT
[03:21:07.932411] [113] SYS_STATUS
[03:21:08.055398] [114] BATTERY_STATUS
[03:21:08.056278] [115] EXTENDED_SYS_STATE
[03:21:08.093936] [116] ATTITUDE_TARGET
[03:21:08.094081] [117] VFR_HUD
[03:21:08.097322] [118] SYSTEM_TIME
[03:21:08.606453] [180] RADIO
[03:21:08.609456] [180] RADIO_STATUS
[03:21:08.732461] [119] VFR_HUD
[03:21:08.952536] [120] HEARTBEAT
[03:21:09.527564] [121] VFR_HUD
[03:21:09.554578] [181] RADIO
[03:21:09.557561] [181] RADIO_STATUS
[03:21:09.996728] [122] HEARTBEAT
[03:21:10.003710] [123] ATTITUDE_TARGET
[03:21:10.337095] [124] VFR_HUD
[03:21:10.555845] [182] RADIO
[03:21:10.558809] [182] RADIO_STATUS
[03:21:11.021983] [125] HEARTBEAT
[03:21:11.136872] [126] VFR_HUD
[03:21:11.595988] [183] RADIO
[03:21:11.598922] [183] RADIO_STATUS
[03:21:11.954108] [127] HEARTBEAT
[03:21:11.960005] [128] SYS_STATUS
[03:21:12.079119] [129] BATTERY_STATUS
[03:21:12.087079] [130] ATTITUDE_TARGET
[03:21:12.117060] [131] VFR_HUD
[03:21:12.625176] [184] RADIO
[03:21:12.628115] [184] RADIO_STATUS
[03:21:12.746157] [132] VFR_HUD
[03:21:12.971270] [133] HEARTBEAT
[03:21:13.555378] [134] VFR_HUD
[03:21:13.664328] [185] RADIO
[03:21:13.667332] [185] RADIO_STATUS
[03:21:14.024396] [135] HEARTBEAT
[03:21:14.032390] [136] ATTITUDE_TARGET
[03:21:14.355465] [137] VFR_HUD
[03:21:14.584476] [186] RADIO
[03:21:14.587417] [186] RADIO_STATUS
[03:21:14.930561] [138] HEARTBEAT
[03:21:15.169599] [139] VFR_HUD
[03:21:15.613703] [187] RADIO
[03:21:15.616721] [187] RADIO_STATUS
[03:21:15.971871] [140] HEARTBEAT
[03:21:15.978762] [141] SYS_STATUS
[03:21:16.092777] [142] BATTERY_STATUS
[03:21:16.210852] [143] ATTITUDE_TARGET
[03:21:16.215837] [144] VFR_HUD
[03:21:16.652853] [188] RADIO
[03:21:16.655900] [188] RADIO_STATUS
[03:21:16.778909] [145] VFR_HUD
[03:21:16.998975] [146] HEARTBEAT
[03:21:17.573006] [147] VFR_HUD
[03:21:17.599989] [189] RADIO
[03:21:17.603020] [189] RADIO_STATUS
[03:21:17.938169] [148] HEARTBEAT
[03:21:17.945234] [149] ATTITUDE_TARGET
[03:21:18.391373] [150] VFR_HUD
[03:21:18.602189] [190] RADIO
[03:21:18.605174] [190] RADIO_STATUS
[03:21:18.948265] [151] HEARTBEAT
[03:21:19.182376] [152] VFR_HUD
[03:21:19.641414] [191] RADIO
[03:21:19.644375] [191] RADIO_STATUS
[03:21:19.999526] [153] HEARTBEAT
[03:21:20.006485] [154] SYS_STATUS
[03:21:20.125500] [155] BATTERY_STATUS
[03:21:20.132443] [156] ATTITUDE_TARGET
[03:21:20.163584] [157] VFR_HUD
[03:21:20.671577] [192] RADIO
[03:21:20.674550] [192] RADIO_STATUS
[03:21:20.791548] [158] VFR_HUD
[03:21:20.912598] [159] HEARTBEAT
[03:21:21.601648] [160] VFR_HUD
[03:21:21.710819] [193] RADIO
[03:21:21.713816] [193] RADIO_STATUS
[03:21:21.950709] [161] HEARTBEAT
[03:21:21.958749] [162] ATTITUDE_TARGET
[03:21:22.401920] [163] VFR_HUD
[03:21:22.635842] [194] RADIO
[03:21:22.638865] [194] RADIO_STATUS
[03:21:22.981940] [164] HEARTBEAT
[03:21:23.210953] [165] VFR_HUD
[03:21:23.659988] [195] RADIO
[03:21:23.662956] [195] RADIO_STATUS
[03:21:23.901111] [166] HEARTBEAT
[03:21:24.031113] [167] SYS_STATUS
[03:21:24.038094] [168] BATTERY_STATUS
[03:21:24.147084] [169] ATTITUDE_TARGET
[03:21:24.152060] [170] VFR_HUD
[03:21:24.705175] [196] RADIO
[03:21:24.708097] [196] RADIO_STATUS
[03:21:24.820144] [171] VFR_HUD
[03:21:24.926218] [172] HEARTBEAT
[03:21:25.515296] [173] VFR_HUD
[03:21:25.636394] [197] RADIO
[03:21:25.641363] [197] RADIO_STATUS
[03:21:25.984400] [174] HEARTBEAT
[03:21:25.992407] [175] ATTITUDE_TARGET
[03:21:26.435475] [176] VFR_HUD
[03:21:26.649472] [198] RADIO
[03:21:26.652436] [198] RADIO_STATUS
[03:21:26.995536] [177] HEARTBEAT
[03:21:27.229597] [178] VFR_HUD
[03:21:27.693665] [199] RADIO
[03:21:27.696651] [199] RADIO_STATUS
[03:21:27.926738] [179] HEARTBEAT
[03:21:27.933703] [180] SYS_STATUS
[03:21:28.056725] [181] BATTERY_STATUS
[03:21:28.058700] [182] EXTENDED_SYS_STATE
[03:21:28.090705] [183] ATTITUDE_TARGET
[03:21:28.095786] [184] VFR_HUD
[03:21:28.098698] [185] SYSTEM_TIME
[03:21:28.717831] [200] RADIO
[03:21:28.720809] [200] RADIO_STATUS
[03:21:28.838820] [186] VFR_HUD
[03:21:28.958900] [187] HEARTBEAT
[03:21:29.528957] [188] VFR_HUD
[03:21:29.638037] [201] RADIO
[03:21:29.640939] [201] RADIO_STATUS
[03:21:29.998560] [189] HEARTBEAT
[03:21:30.005091] [190] ATTITUDE_TARGET
[03:21:30.340558] [191] VFR_HUD
[03:21:30.682182] [202] RADIO
[03:21:30.685127] [202] RADIO_STATUS
[03:21:31.028387] [192] HEARTBEAT
[03:21:31.138323] [193] VFR_HUD
[03:21:31.707293] [203] RADIO
[03:21:31.710293] [203] RADIO_STATUS
[03:21:31.955574] [194] HEARTBEAT
[03:21:31.962416] [195] SYS_STATUS
[03:21:32.080425] [196] BATTERY_STATUS
[03:21:32.088365] [197] ATTITUDE_TARGET
[03:21:32.118402] [198] VFR_HUD
[03:21:32.747522] [199] VFR_HUD
[03:21:32.779625] [204] RADIO
[03:21:32.782440] [204] RADIO_STATUS
[03:21:32.972571] [200] HEARTBEAT
[03:21:33.562632] [201] VFR_HUD
[03:21:33.677607] [205] RADIO
[03:21:33.680597] [205] RADIO_STATUS
[03:21:34.025729] [202] HEARTBEAT
[03:21:34.033703] [203] ATTITUDE_TARGET
[03:21:34.356836] [204] VFR_HUD
[03:21:34.695821] [206] RADIO
[03:21:34.698828] [206] RADIO_STATUS
[03:21:34.931884] [205] HEARTBEAT
[03:21:35.170938] [206] VFR_HUD
[03:21:35.740147] [207] RADIO
[03:21:35.742983] [207] RADIO_STATUS
[03:21:35.973105] [207] HEARTBEAT
[03:21:35.980068] [208] SYS_STATUS
[03:21:36.095070] [209] BATTERY_STATUS
[03:21:36.212160] [210] ATTITUDE_TARGET
[03:21:36.217090] [211] VFR_HUD
[03:21:36.765193] [208] RADIO
[03:21:36.768136] [208] RADIO_STATUS
[03:21:36.803218] [212] VFR_HUD
[03:21:37.001214] [213] HEARTBEAT
[03:21:37.575456] [214] VFR_HUD
[03:21:37.684380] [209] RADIO
[03:21:37.687345] [209] RADIO_STATUS
[03:21:37.934411] [215] HEARTBEAT
[03:21:37.942571] [216] ATTITUDE_TARGET
[03:21:38.384455] [217] VFR_HUD
[03:21:38.723511] [210] RADIO
[03:21:38.726501] [210] RADIO_STATUS
[03:21:38.949571] [218] HEARTBEAT
[03:21:39.184589] [219] VFR_HUD
[03:21:39.753646] [211] RADIO
[03:21:39.756651] [211] RADIO_STATUS
[03:21:40.001717] [220] HEARTBEAT
[03:21:40.007690] [221] SYS_STATUS
[03:21:40.126837] [222] BATTERY_STATUS
[03:21:40.134761] [223] ATTITUDE_TARGET
[03:21:40.164746] [224] VFR_HUD
[03:21:40.672866] [212] RADIO
[03:21:40.675938] [212] RADIO_STATUS
[03:21:40.793850] [225] VFR_HUD
[03:21:40.908962] [226] HEARTBEAT
[03:21:41.602991] [227] VFR_HUD
[03:21:41.711976] [213] RADIO
[03:21:41.714944] [213] RADIO_STATUS
[03:21:41.952055] [228] HEARTBEAT
[03:21:41.960022] [229] ATTITUDE_TARGET
[03:21:42.402123] [230] VFR_HUD
[03:21:42.742165] [214] RADIO
[03:21:42.744136] [214] RADIO_STATUS
[03:21:42.978187] [231] HEARTBEAT
[03:21:43.212263] [232] VFR_HUD
[03:21:43.781536] [215] RADIO
[03:21:43.784318] [215] RADIO_STATUS
[03:21:43.902396] [233] HEARTBEAT
[03:21:44.031484] [234] SYS_STATUS
[03:21:44.039427] [235] BATTERY_STATUS
[03:21:44.148454] [236] ATTITUDE_TARGET
[03:21:44.153387] [237] VFR_HUD
[03:21:44.700466] [216] RADIO
[03:21:44.703470] [216] RADIO_STATUS
[03:21:44.826538] [238] VFR_HUD
[03:21:44.938559] [239] HEARTBEAT
[03:21:45.516656] [240] VFR_HUD
[03:21:45.730675] [217] RADIO
[03:21:45.733646] [217] RADIO_STATUS
[03:21:45.985778] [241] HEARTBEAT
[03:21:45.993741] [242] ATTITUDE_TARGET
[03:21:46.435996] [243] VFR_HUD
[03:21:46.769897] [218] RADIO
[03:21:46.772852] [218] RADIO_STATUS
[03:21:46.995910] [244] HEARTBEAT
[03:21:47.120916] [245] VFR_HUD
[03:21:47.798991] [219] RADIO
[03:21:47.801957] [219] RADIO_STATUS
[03:21:47.928034] [246] HEARTBEAT
[03:21:47.935007] [247] SYS_STATUS
[03:21:48.057015] [248] BATTERY_STATUS
[03:21:48.059069] [249] EXTENDED_SYS_STATE
[03:21:48.091049] [250] ATTITUDE_TARGET
[03:21:48.096021] [251] VFR_HUD
[03:21:48.099054] [252] SYSTEM_TIME
[03:21:48.719203] [220] RADIO
[03:21:48.722140] [220] RADIO_STATUS
[03:21:48.839194] [253] VFR_HUD
[03:21:48.960307] [254] HEARTBEAT
[03:21:49.529377] [255] VFR_HUD
[03:21:49.758385] [221] RADIO
[03:21:49.761396] [221] RADIO_STATUS
[03:21:49.998513] [0] HEARTBEAT
[03:21:50.006489] [1] ATTITUDE_TARGET
[03:21:50.338529] [2] VFR_HUD
[03:21:50.787587] [222] RADIO
[03:21:50.790570] [222] RADIO_STATUS
[03:21:51.029660] [3] HEARTBEAT
[03:21:51.140707] [4] VFR_HUD
[03:21:51.827874] [223] RADIO
[03:21:51.829795] [223] RADIO_STATUS
[03:21:51.955942] [5] HEARTBEAT
[03:21:51.961883] [6] SYS_STATUS
[03:21:52.080865] [7] BATTERY_STATUS
[03:21:52.088891] [8] ATTITUDE_TARGET
[03:21:52.118915] [9] VFR_HUD
[03:21:52.747963] [10] VFR_HUD
[03:21:52.780087] [224] RADIO
[03:21:52.782958] [224] RADIO_STATUS
[03:21:52.973159] [11] HEARTBEAT
[03:21:53.563090] [12] VFR_HUD
[03:21:53.776162] [225] RADIO
[03:21:53.779089] [225] RADIO_STATUS
[03:21:54.031165] [13] HEARTBEAT
[03:21:54.043785] [14] ATTITUDE_TARGET
[03:21:54.357241] [15] VFR_HUD
[03:21:54.821315] [226] RADIO
[03:21:54.824251] [226] RADIO_STATUS
[03:21:54.932327] [16] HEARTBEAT
[03:21:55.172464] [17] VFR_HUD
[03:21:55.741488] [227] RADIO
[03:21:55.744456] [227] RADIO_STATUS
[03:21:55.973544] [18] HEARTBEAT
[03:21:55.980481] [19] SYS_STATUS
[03:21:56.100590] [20] BATTERY_STATUS
[03:21:56.212590] [21] ATTITUDE_TARGET
[03:21:56.217455] [22] VFR_HUD
[03:21:56.765743] [228] RADIO
[03:21:56.768613] [228] RADIO_STATUS
[03:21:56.803596] [23] VFR_HUD
[03:21:57.001703] [24] HEARTBEAT
[03:21:57.575841] [25] VFR_HUD
[03:21:57.809769] [229] RADIO
[03:21:57.812737] [229] RADIO_STATUS
[03:21:57.934878] [26] HEARTBEAT
[03:21:57.941905] [27] ATTITUDE_TARGET
[03:21:58.384884] [28] VFR_HUD
[03:21:58.833964] [230] RADIO
[03:21:58.836837] [230] RADIO_STATUS
[03:21:58.949965] [29] HEARTBEAT
[03:21:59.185066] [30] VFR_HUD
[03:21:59.754107] [231] RADIO
[03:21:59.757031] [231] RADIO_STATUS
[03:22:00.002185] [31] HEARTBEAT
[03:22:00.008126] [32] SYS_STATUS
[03:22:00.127150] [33] BATTERY_STATUS
[03:22:00.135181] [34] ATTITUDE_TARGET
[03:22:00.165168] [35] VFR_HUD
[03:22:00.794272] [36] VFR_HUD
[03:22:00.826259] [232] RADIO
[03:22:00.829184] [232] RADIO_STATUS
[03:22:00.909326] [37] HEARTBEAT
[03:22:01.603433] [38] VFR_HUD
[03:22:01.823449] [233] RADIO
[03:22:01.826424] [233] RADIO_STATUS
[03:22:01.952472] [39] HEARTBEAT
[03:22:01.960505] [40] ATTITUDE_TARGET
[03:22:02.403541] [41] VFR_HUD
[03:22:02.867622] [234] RADIO
[03:22:02.870604] [234] RADIO_STATUS
[03:22:02.978672] [42] HEARTBEAT
[03:22:03.218684] [43] VFR_HUD
[03:22:03.782772] [235] RADIO
[03:22:03.785860] [235] RADIO_STATUS
[03:22:04.020892] [44] HEARTBEAT
[03:22:04.026894] [45] SYS_STATUS
[03:22:04.141848] [46] BATTERY_STATUS
[03:22:04.259909] [47] ATTITUDE_TARGET
[03:22:04.264790] [48] VFR_HUD
[03:22:04.811945] [236] RADIO
[03:22:04.814888] [236] RADIO_STATUS
[03:22:04.850046] [49] VFR_HUD
[03:22:04.927951] [50] HEARTBEAT
[03:22:05.512076] [51] VFR_HUD
[03:22:05.852207] [237] RADIO
[03:22:05.855083] [237] RADIO_STATUS
[03:22:05.987254] [52] HEARTBEAT
[03:22:05.994127] [53] ATTITUDE_TARGET
[03:22:06.312163] [54] VFR_HUD
[03:22:06.881215] [238] RADIO
[03:22:06.884205] [238] RADIO_STATUS
[03:22:06.915249] [55] HEARTBEAT
[03:22:07.121282] [56] VFR_HUD
[03:22:07.800367] [239] RADIO
[03:22:07.803414] [239] RADIO_STATUS
[03:22:07.928448] [57] HEARTBEAT
[03:22:07.935444] [58] SYS_STATUS
[03:22:08.053488] [59] BATTERY_STATUS
[03:22:08.055424] [60] EXTENDED_SYS_STATE
[03:22:08.174511] [61] ATTITUDE_TARGET
[03:22:08.181794] [62] VFR_HUD
[03:22:08.182432] [63] SYSTEM_TIME
[03:22:08.731535] [64] VFR_HUD
[03:22:08.840559] [240] RADIO
[03:22:08.843453] [240] RADIO_STATUS
[03:22:08.961669] [65] HEARTBEAT
[03:22:09.530632] [66] VFR_HUD
[03:22:09.869894] [241] RADIO
[03:22:09.872688] [241] RADIO_STATUS
[03:22:09.903724] [67] HEARTBEAT
[03:22:09.926787] [68] ATTITUDE_TARGET
[03:22:10.340765] [69] VFR_HUD
[03:22:10.789911] [242] RADIO
[03:22:10.792847] [242] RADIO_STATUS
[03:22:10.905908] [70] HEARTBEAT
[03:22:11.139888] [71] VFR_HUD
[03:22:11.829013] [243] RADIO
[03:22:11.831944] [243] RADIO_STATUS
[03:22:11.962148] [72] HEARTBEAT
[03:22:11.969057] [73] SYS_STATUS
[03:22:12.009035] [74] BATTERY_STATUS
[03:22:12.016031] [75] ATTITUDE_TARGET
[03:22:12.021064] [76] VFR_HUD
[03:22:12.858208] [244] RADIO
[03:22:12.861198] [244] RADIO_STATUS
[03:22:12.985344] [77] VFR_HUD
[03:22:12.988262] [78] HEARTBEAT
[03:22:13.564327] [79] VFR_HUD
[03:22:13.898370] [245] RADIO
[03:22:13.901317] [245] RADIO_STATUS
[03:22:14.033425] [80] HEARTBEAT
[03:22:14.041389] [81] ATTITUDE_TARGET
[03:22:14.358439] [82] VFR_HUD
[03:22:14.817576] [246] RADIO
[03:22:14.820447] [246] RADIO_STATUS
[03:22:14.933547] [83] HEARTBEAT
[03:22:15.173579] [84] VFR_HUD
[03:22:15.847776] [247] RADIO
[03:22:15.850712] [247] RADIO_STATUS
[03:22:15.975746] [85] HEARTBEAT
[03:22:15.982827] [86] SYS_STATUS
[03:22:16.101779] [87] BATTERY_STATUS
[03:22:16.214800] [88] ATTITUDE_TARGET
[03:22:16.218770] [89] VFR_HUD
[03:22:16.777913] [90] VFR_HUD
[03:22:16.886934] [248] RADIO
[03:22:16.890053] [248] RADIO_STATUS
[03:22:17.008016] [91] HEARTBEAT
[03:22:17.577220] [92] VFR_HUD
[03:22:17.916069] [249] RADIO
[03:22:17.919158] [249] RADIO_STATUS
[03:22:18.046132] [93] HEARTBEAT
[03:22:18.054058] [94] ATTITUDE_TARGET
[03:22:18.387224] [95] VFR_HUD
[03:22:18.836305] [250] RADIO
[03:22:18.838242] [250] RADIO_STATUS
[03:22:18.952272] [96] HEARTBEAT
[03:22:19.186342] [97] VFR_HUD
[03:22:19.880472] [251] RADIO
[03:22:19.883435] [251] RADIO_STATUS
[03:22:20.003554] [98] HEARTBEAT
[03:22:20.010466] [99] SYS_STATUS
[03:22:20.128478] [100] BATTERY_STATUS
[03:22:20.137892] [101] ATTITUDE_TARGET
[03:22:20.166506] [102] VFR_HUD
[03:22:20.795607] [103] VFR_HUD
[03:22:20.904716] [252] RADIO
[03:22:20.907600] [252] RADIO_STATUS
[03:22:21.020727] [104] HEARTBEAT
[03:22:21.610815] [105] VFR_HUD
[03:22:21.953910] [106] HEARTBEAT
[03:22:21.961924] [107] ATTITUDE_TARGET
[03:22:21.971875] [253] RADIO
[03:22:21.974838] [253] RADIO_STATUS
[03:22:22.404947] [108] VFR_HUD
[03:22:22.869004] [254] RADIO
[03:22:22.873000] [254] RADIO_STATUS
[03:22:22.979995] [109] HEARTBEAT
[03:22:23.220031] [110] VFR_HUD
[03:22:23.893172] [255] RADIO
[03:22:23.896160] [255] RADIO_STATUS
[03:22:24.021399] [111] HEARTBEAT
[03:22:24.028204] [112] SYS_STATUS
[03:22:24.143256] [113] BATTERY_STATUS
[03:22:24.260255] [114] ATTITUDE_TARGET
[03:22:24.265221] [115] VFR_HUD
[03:22:24.703322] [116] VFR_HUD
[03:22:24.929410] [117] HEARTBEAT
[03:22:24.960365] [0] RADIO
[03:22:24.963350] [0] RADIO_STATUS
[03:22:25.513489] [118] VFR_HUD
[03:22:25.962534] [1] RADIO
[03:22:25.965518] [1] RADIO_STATUS
[03:22:26.092628] [119] HEARTBEAT
[03:22:26.099576] [120] ATTITUDE_TARGET
[03:22:26.312647] [121] VFR_HUD
[03:22:26.881777] [2] RADIO
[03:22:26.884577] [2] RADIO_STATUS
[03:22:26.915673] [122] HEARTBEAT
[03:22:27.232714] [123] VFR_HUD
[03:22:27.929831] [124] HEARTBEAT
[03:22:27.937013] [125] SYS_STATUS
[03:22:27.948847] [3] RADIO
[03:22:27.951755] [3] RADIO_STATUS
[03:22:28.053909] [126] BATTERY_STATUS
[03:22:28.055850] [127] EXTENDED_SYS_STATE
[03:22:28.174879] [128] ATTITUDE_TARGET
[03:22:28.179878] [129] VFR_HUD
[03:22:28.183805] [130] SYSTEM_TIME
[03:22:28.731957] [131] VFR_HUD
[03:22:28.951086] [4] RADIO
[03:22:28.953917] [4] RADIO_STATUS
[03:22:28.985005] [132] HEARTBEAT
[03:22:29.532043] [133] VFR_HUD
[03:22:29.876067] [5] RADIO
[03:22:29.879036] [5] RADIO_STATUS
[03:22:29.905181] [134] HEARTBEAT
[03:22:29.927054] [135] ATTITUDE_TARGET
[03:22:30.346331] [136] VFR_HUD
[03:22:30.907309] [137] HEARTBEAT
[03:22:31.020352] [6] RADIO
[03:22:31.023275] [6] RADIO_STATUS
[03:22:31.141324] [138] VFR_HUD
[03:22:31.939447] [7] RADIO
[03:22:31.942401] [7] RADIO_STATUS
[03:22:31.999493] [139] HEARTBEAT
[03:22:32.006482] [140] SYS_STATUS
[03:22:32.013467] [141] BATTERY_STATUS
[03:22:32.026494] [142] ATTITUDE_TARGET
[03:22:32.031459] [143] VFR_HUD
[03:22:32.750802] [144] VFR_HUD
[03:22:32.975658] [145] HEARTBEAT
[03:22:33.090452] [8] RADIO
[03:22:33.092704] [8] RADIO_STATUS
[03:22:33.564772] [146] VFR_HUD
[03:22:34.008912] [9] RADIO
[03:22:34.011841] [9] RADIO_STATUS
[03:22:34.056880] [147] HEARTBEAT
[03:22:34.064929] [148] ATTITUDE_TARGET
[03:22:34.359873] [149] VFR_HUD
[03:22:34.927940] [10] RADIO
[03:22:34.930966] [10] RADIO_STATUS
[03:22:34.961991] [150] HEARTBEAT
[03:22:35.169133] [151] VFR_HUD
[03:22:35.976177] [152] HEARTBEAT
[03:22:35.983208] [153] SYS_STATUS
[03:22:36.078174] [11] RADIO
[03:22:36.081276] [11] RADIO_STATUS
[03:22:36.147159] [154] BATTERY_STATUS
[03:22:36.155165] [155] ATTITUDE_TARGET
[03:22:36.160134] [156] VFR_HUD
[03:22:36.997344] [12] RADIO
[03:22:37.000298] [12] RADIO_STATUS
[03:22:37.041401] [157] VFR_HUD
[03:22:37.044392] [158] HEARTBEAT
[03:22:37.578481] [159] VFR_HUD
[03:22:37.937609] [160] HEARTBEAT
[03:22:37.944514] [161] ATTITUDE_TARGET
[03:22:38.146507] [13] RADIO
[03:22:38.149597] [13] RADIO_STATUS
[03:22:38.387523] [162] VFR_HUD
[03:22:38.952674] [163] HEARTBEAT
[03:22:39.066629] [14] RADIO
[03:22:39.069628] [14] RADIO_STATUS
[03:22:39.104666] [164] VFR_HUD
[03:22:39.985888] [15] RADIO
[03:22:39.988823] [15] RADIO_STATUS
[03:22:40.045898] [165] HEARTBEAT
[03:22:40.052860] [166] SYS_STATUS
[03:22:40.060874] [167] BATTERY_STATUS
[03:22:40.072906] [168] ATTITUDE_TARGET
[03:22:40.077968] [169] VFR_HUD
[03:22:40.796949] [170] VFR_HUD
[03:22:40.912003] [171] HEARTBEAT
[03:22:41.025997] [16] RADIO
[03:22:41.028965] [16] RADIO_STATUS
[03:22:41.611201] [172] VFR_HUD
[03:22:41.955203] [173] HEARTBEAT
[03:22:41.963156] [174] ATTITUDE_TARGET
[03:22:41.973113] [17] RADIO
[03:22:41.976091] [17] RADIO_STATUS
[03:22:42.406229] [175] VFR_HUD
[03:22:42.974392] [18] RADIO
[03:22:42.977276] [18] RADIO_STATUS
[03:22:43.090373] [176] HEARTBEAT
[03:22:43.114295] [177] VFR_HUD
[03:22:44.022490] [178] HEARTBEAT
[03:22:44.029426] [179] SYS_STATUS
[03:22:44.124474] [19] RADIO
[03:22:44.127438] [19] RADIO_STATUS
[03:22:44.193465] [180] BATTERY_STATUS
[03:22:44.201452] [181] ATTITUDE_TARGET
[03:22:44.206478] [182] VFR_HUD
[03:22:44.940588] [183] VFR_HUD
[03:22:44.943536] [184] HEARTBEAT
[03:22:45.043621] [20] RADIO
[03:22:45.046592] [20] RADIO_STATUS
[03:22:45.514684] [185] VFR_HUD
[03:22:45.963811] [21] RADIO
[03:22:45.966756] [21] RADIO_STATUS
[03:22:46.093780] [186] HEARTBEAT
[03:22:46.100784] [187] ATTITUDE_TARGET
[03:22:46.313921] [188] VFR_HUD
[03:22:46.998966] [189] HEARTBEAT
[03:22:47.030975] [22] RADIO
[03:22:47.033885] [22] RADIO_STATUS
[03:22:47.123952] [190] VFR_HUD
[03:22:47.931134] [191] HEARTBEAT
[03:22:47.938126] [192] SYS_STATUS
[03:22:48.033118] [23] RADIO
[03:22:48.035070] [23] RADIO_STATUS
[03:22:48.073166] [193] BATTERY_STATUS
[03:22:48.104135] [194] EXTENDED_SYS_STATE
[03:22:48.112248] [195] ATTITUDE_TARGET
[03:22:48.117090] [196] VFR_HUD
[03:22:48.120113] [197] SYSTEM_TIME
[03:22:48.969277] [198] VFR_HUD
[03:22:48.971306] [199] HEARTBEAT
[03:22:49.182352] [24] RADIO
[03:22:49.185331] [24] RADIO_STATUS
[03:22:49.533354] [200] VFR_HUD
[03:22:50.001499] [201] HEARTBEAT
[03:22:50.009455] [202] ATTITUDE_TARGET
[03:22:50.019944] [25] RADIO
[03:22:50.022449] [25] RADIO_STATUS
[03:22:50.347540] [203] VFR_HUD
[03:22:50.907654] [204] HEARTBEAT
[03:22:51.021636] [26] RADIO
[03:22:51.024608] [26] RADIO_STATUS
[03:22:51.142662] [205] VFR_HUD
[03:22:51.964837] [206] HEARTBEAT
[03:22:51.971798] [207] SYS_STATUS
[03:22:52.010889] [208] BATTERY_STATUS
[03:22:52.020297] [209] ATTITUDE_TARGET
[03:22:52.023779] [210] VFR_HUD
[03:22:52.066878] [27] RADIO
[03:22:52.068816] [27] RADIO_STATUS
[03:22:52.986966] [211] VFR_HUD
[03:22:52.990083] [212] HEARTBEAT
[03:22:52.997988] [28] RADIO
[03:22:53.000961] [28] RADIO_STATUS
[03:22:53.561041] [213] VFR_HUD
[03:22:54.010175] [29] RADIO
[03:22:54.013126] [29] RADIO_STATUS
[03:22:54.140185] [214] HEARTBEAT
[03:22:54.148150] [215] ATTITUDE_TARGET
[03:22:54.361181] [216] VFR_HUD
[03:22:54.943538] [217] HEARTBEAT
[03:22:55.054363] [30] RADIO
[03:22:55.057328] [30] RADIO_STATUS
[03:22:55.170345] [218] VFR_HUD
[03:22:55.977537] [219] HEARTBEAT
[03:22:55.984496] [220] SYS_STATUS
[03:22:56.079533] [31] RADIO
[03:22:56.082466] [31] RADIO_STATUS
[03:22:56.119541] [221] BATTERY_STATUS
[03:22:56.146574] [222] ATTITUDE_TARGET
[03:22:56.151529] [223] VFR_HUD
[03:22:56.779688] [224] VFR_HUD
[03:22:57.003710] [32] RADIO
[03:22:57.006632] [32] RADIO_STATUS
[03:22:57.032822] [225] HEARTBEAT
[03:22:57.579937] [226] VFR_HUD
[03:22:57.943890] [227] HEARTBEAT
[03:22:57.951876] [228] ATTITUDE_TARGET
[03:22:58.038937] [33] RADIO
[03:22:58.040818] [33] RADIO_STATUS
[03:22:58.393954] [229] VFR_HUD
[03:22:58.953994] [230] HEARTBEAT
[03:22:59.068020] [34] RADIO
[03:22:59.070983] [34] RADIO_STATUS
[03:22:59.188065] [231] VFR_HUD
[03:23:00.011323] [232] HEARTBEAT
[03:23:00.018979] [233] SYS_STATUS
[03:23:00.057223] [234] BATTERY_STATUS
[03:23:00.065218] [235] ATTITUDE_TARGET
[03:23:00.070182] [236] VFR_HUD
[03:23:00.107213] [35] RADIO
[03:23:00.110220] [35] RADIO_STATUS
[03:23:00.926255] [237] VFR_HUD
[03:23:00.926589] [238] HEARTBEAT
[03:23:01.043354] [36] RADIO
[03:23:01.046340] [36] RADIO_STATUS
[03:23:01.612633] [239] VFR_HUD
[03:23:01.956586] [240] HEARTBEAT
[03:23:01.964506] [241] ATTITUDE_TARGET
[03:23:02.056562] [37] RADIO
[03:23:02.059604] [37] RADIO_STATUS
[03:23:02.407575] [242] VFR_HUD
[03:23:02.987742] [243] HEARTBEAT
[03:23:03.095761] [38] RADIO
[03:23:03.098696] [38] RADIO_STATUS
[03:23:03.216728] [244] VFR_HUD
[03:23:03.901951] [245] HEARTBEAT
[03:23:03.921967] [246] SYS_STATUS
[03:23:03.965921] [247] BATTERY_STATUS
[03:23:03.972934] [248] ATTITUDE_TARGET
[03:23:03.978009] [249] VFR_HUD
[03:23:04.125889] [39] RADIO
[03:23:04.128919] [39] RADIO_STATUS
[03:23:04.826019] [250] VFR_HUD
[03:23:04.932040] [251] HEARTBEAT
[03:23:05.044999] [40] RADIO
[03:23:05.047970] [40] RADIO_STATUS
[03:23:05.516104] [252] VFR_HUD
[03:23:05.985202] [253] HEARTBEAT
[03:23:05.993224] [254] ATTITUDE_TARGET
[03:23:06.195240] [41] RADIO
[03:23:06.198152] [41] RADIO_STATUS
[03:23:06.315224] [255] VFR_HUD
[03:23:07.000387] [0] HEARTBEAT
[03:23:07.114367] [42] RADIO
[03:23:07.117321] [42] RADIO_STATUS
[03:23:07.153468] [1] VFR_HUD
[03:23:07.932519] [2] HEARTBEAT
[03:23:07.939539] [3] SYS_STATUS
[03:23:08.060539] [4] BATTERY_STATUS
[03:23:08.060682] [5] EXTENDED_SYS_STATE
[03:23:08.177597] [6] ATTITUDE_TARGET
[03:23:08.182568] [7] VFR_HUD
[03:23:08.186503] [8] SYSTEM_TIME
[03:23:08.215581] [43] RADIO
[03:23:08.218538] [43] RADIO_STATUS
[03:23:08.739738] [9] VFR_HUD
[03:23:08.959639] [10] HEARTBEAT
[03:23:09.073652] [44] RADIO
[03:23:09.076644] [44] RADIO_STATUS
[03:23:09.533685] [11] VFR_HUD
[03:23:10.002903] [12] HEARTBEAT
[03:23:10.010875] [13] ATTITUDE_TARGET
[03:23:10.102910] [45] RADIO
[03:23:10.105901] [45] RADIO_STATUS
[03:23:10.343847] [14] VFR_HUD
[03:23:10.908992] [15] HEARTBEAT
[03:23:11.143019] [16] VFR_HUD
[03:23:11.169962] [46] RADIO
[03:23:11.172923] [46] RADIO_STATUS
[03:23:11.960243] [17] HEARTBEAT
[03:23:11.967078] [18] SYS_STATUS
[03:23:12.086179] [19] BATTERY_STATUS
[03:23:12.093119] [20] ATTITUDE_TARGET
[03:23:12.124127] [21] VFR_HUD
[03:23:12.180134] [47] RADIO
[03:23:12.183078] [47] RADIO_STATUS
[03:23:12.752254] [22] VFR_HUD
[03:23:12.978315] [23] HEARTBEAT
[03:23:13.091434] [48] RADIO
[03:23:13.094292] [48] RADIO_STATUS
[03:23:13.562433] [24] VFR_HUD
[03:23:14.031615] [25] HEARTBEAT
[03:23:14.039733] [26] ATTITUDE_TARGET
[03:23:14.159555] [49] RADIO
[03:23:14.162472] [49] RADIO_STATUS
[03:23:14.361549] [27] VFR_HUD
[03:23:14.942671] [28] HEARTBEAT
[03:23:15.160697] [50] RADIO
[03:23:15.163657] [50] RADIO_STATUS
[03:23:15.281733] [29] VFR_HUD
[03:23:15.978893] [30] HEARTBEAT
[03:23:15.985049] [31] SYS_STATUS
[03:23:16.099899] [32] BATTERY_STATUS
[03:23:16.216964] [33] ATTITUDE_TARGET
[03:23:16.221926] [34] VFR_HUD
[03:23:16.255992] [51] RADIO
[03:23:16.258886] [51] RADIO_STATUS
[03:23:16.785977] [35] VFR_HUD
[03:23:17.006049] [36] HEARTBEAT
[03:23:17.125027] [52] RADIO
[03:23:17.127992] [52] RADIO_STATUS
[03:23:17.580258] [37] VFR_HUD
[03:23:17.944231] [38] HEARTBEAT
[03:23:17.952229] [39] ATTITUDE_TARGET
[03:23:18.149248] [53] RADIO
[03:23:18.152204] [53] RADIO_STATUS
[03:23:18.395341] [40] VFR_HUD
[03:23:18.955438] [41] HEARTBEAT
[03:23:19.189535] [42] VFR_HUD
[03:23:19.221537] [54] RADIO
[03:23:19.224486] [54] RADIO_STATUS
[03:23:20.011588] [43] HEARTBEAT
[03:23:20.018924] [44] SYS_STATUS
[03:23:20.058666] [45] BATTERY_STATUS
[03:23:20.065646] [46] ATTITUDE_TARGET
[03:23:20.070617] [47] VFR_HUD
[03:23:20.113572] [55] RADIO
[03:23:20.116586] [55] RADIO_STATUS
[03:23:20.929728] [48] VFR_HUD
[03:23:20.932717] [49] HEARTBEAT
[03:23:21.137823] [56] RADIO
[03:23:21.142438] [56] RADIO_STATUS
[03:23:21.609014] [50] VFR_HUD
[03:23:21.957990] [51] HEARTBEAT
[03:23:21.966009] [52] ATTITUDE_TARGET
[03:23:22.182994] [57] RADIO
[03:23:22.185948] [57] RADIO_STATUS
[03:23:22.407973] [53] VFR_HUD
[03:23:22.988062] [54] HEARTBEAT
[03:23:23.207101] [58] RADIO
[03:23:23.210237] [58] RADIO_STATUS
[03:23:23.247099] [55] VFR_HUD
[03:23:23.903269] [56] HEARTBEAT
[03:23:23.923369] [57] SYS_STATUS
[03:23:23.966265] [58] BATTERY_STATUS
[03:23:23.974236] [59] ATTITUDE_TARGET
[03:23:23.979255] [60] VFR_HUD
[03:23:24.126234] [59] RADIO
[03:23:24.129252] [59] RADIO_STATUS
[03:23:24.827394] [61] VFR_HUD
[03:23:24.932368] [62] HEARTBEAT
[03:23:25.166398] [60] RADIO
[03:23:25.169381] [60] RADIO_STATUS
[03:23:25.522469] [63] VFR_HUD
[03:23:25.990558] [64] HEARTBEAT
[03:23:25.998512] [65] ATTITUDE_TARGET
[03:23:26.195711] [61] RADIO
[03:23:26.198508] [61] RADIO_STATUS
[03:23:26.316645] [66] VFR_HUD
[03:23:27.001741] [67] HEARTBEAT
[03:23:27.132836] [62] RADIO
[03:23:27.134728] [62] RADIO_STATUS
[03:23:27.168742] [68] VFR_HUD
[03:23:27.934045] [69] HEARTBEAT
[03:23:27.940914] [70] SYS_STATUS
[03:23:28.062878] [71] BATTERY_STATUS
[03:23:28.064822] [72] EXTENDED_SYS_STATE
[03:23:28.096885] [73] ATTITUDE_TARGET
[03:23:28.101866] [74] VFR_HUD
[03:23:28.104896] [75] SYSTEM_TIME
[03:23:28.154888] [63] RADIO
[03:23:28.157984] [63] RADIO_STATUS
[03:23:28.741984] [76] VFR_HUD
[03:23:28.961006] [77] HEARTBEAT
[03:23:29.185043] [64] RADIO
[03:23:29.188014] [64] RADIO_STATUS
[03:23:29.535240] [78] VFR_HUD
[03:23:30.004323] [79] HEARTBEAT
[03:23:30.012252] [80] ATTITUDE_TARGET
[03:23:30.224275] [65] RADIO
[03:23:30.227269] [65] RADIO_STATUS
[03:23:30.345305] [81] VFR_HUD
[03:23:30.910444] [82] HEARTBEAT
[03:23:31.144466] [83] VFR_HUD
[03:23:31.172452] [66] RADIO
[03:23:31.174425] [66] RADIO_STATUS
[03:23:31.961641] [84] HEARTBEAT
[03:23:31.968568] [85] SYS_STATUS
[03:23:32.087637] [86] BATTERY_STATUS
[03:23:32.095590] [87] ATTITUDE_TARGET
[03:23:32.125646] [88] VFR_HUD
[03:23:32.152637] [67] RADIO
[03:23:32.155588] [67] RADIO_STATUS
[03:23:32.754717] [89] VFR_HUD
[03:23:32.979858] [90] HEARTBEAT
[03:23:33.212822] [68] RADIO
[03:23:33.215792] [68] RADIO_STATUS
[03:23:33.563938] [91] VFR_HUD
[03:23:33.900053] [92] HEARTBEAT
[03:23:33.922003] [93] ATTITUDE_TARGET
[03:23:34.243001] [69] RADIO
[03:23:34.245933] [69] RADIO_STATUS
[03:23:34.364003] [94] VFR_HUD
[03:23:34.939123] [95] HEARTBEAT
[03:23:35.163115] [70] RADIO
[03:23:35.165069] [70] RADIO_STATUS
[03:23:35.201250] [96] VFR_HUD
[03:23:35.980282] [97] HEARTBEAT
[03:23:35.987313] [98] SYS_STATUS
[03:23:36.102266] [99] BATTERY_STATUS
[03:23:36.219323] [100] ATTITUDE_TARGET
[03:23:36.225023] [101] VFR_HUD
[03:23:36.230294] [71] RADIO
[03:23:36.233304] [71] RADIO_STATUS
[03:23:36.788398] [102] VFR_HUD
[03:23:37.008442] [103] HEARTBEAT
[03:23:37.232430] [72] RADIO
[03:23:37.234455] [72] RADIO_STATUS
[03:23:37.582511] [104] VFR_HUD
[03:23:37.946576] [105] HEARTBEAT
[03:23:37.954574] [106] ATTITUDE_TARGET
[03:23:38.271580] [73] RADIO
[03:23:38.275286] [73] RADIO_STATUS
[03:23:38.397650] [107] VFR_HUD
[03:23:38.957792] [108] HEARTBEAT
[03:23:39.191735] [109] VFR_HUD
[03:23:39.224826] [74] RADIO
[03:23:39.226714] [74] RADIO_STATUS
[03:23:40.008958] [110] HEARTBEAT
[03:23:40.015993] [111] SYS_STATUS
[03:23:40.134983] [112] BATTERY_STATUS
[03:23:40.143037] [113] ATTITUDE_TARGET
[03:23:40.172962] [114] VFR_HUD
[03:23:40.199893] [75] RADIO
[03:23:40.202953] [75] RADIO_STATUS
[03:23:40.802083] [115] VFR_HUD
[03:23:40.922220] [116] HEARTBEAT
[03:23:41.266158] [76] RADIO
[03:23:41.269106] [76] RADIO_STATUS
[03:23:41.611235] [117] VFR_HUD
[03:23:41.960301] [118] HEARTBEAT
[03:23:41.968386] [119] ATTITUDE_TARGET
[03:23:42.208435] [77] RADIO
[03:23:42.211227] [77] RADIO_STATUS
[03:23:42.411315] [120] VFR_HUD
[03:23:42.991427] [121] HEARTBEAT
[03:23:43.100389] [122] VFR_HUD
[03:23:43.210494] [78] RADIO
[03:23:43.212439] [78] RADIO_STATUS
[03:23:43.923557] [123] HEARTBEAT
[03:23:43.929509] [124] SYS_STATUS
[03:23:43.969605] [125] BATTERY_STATUS
[03:23:43.977576] [126] ATTITUDE_TARGET
[03:23:43.981563] [127] VFR_HUD
[03:23:44.254601] [79] RADIO
[03:23:44.257610] [79] RADIO_STATUS
[03:23:44.945750] [128] VFR_HUD
[03:23:44.948764] [129] HEARTBEAT
[03:23:45.278841] [80] RADIO
[03:23:45.281810] [80] RADIO_STATUS
[03:23:45.524891] [130] VFR_HUD
[03:23:45.994006] [131] HEARTBEAT
[03:23:46.001963] [132] ATTITUDE_TARGET
[03:23:46.320048] [133] VFR_HUD
[03:23:46.352105] [81] RADIO
[03:23:46.355048] [81] RADIO_STATUS
[03:23:47.005195] [134] HEARTBEAT
[03:23:47.134168] [135] VFR_HUD
[03:23:47.255200] [82] RADIO
[03:23:47.258200] [82] RADIO_STATUS
[03:23:47.936354] [136] HEARTBEAT
[03:23:47.943390] [137] SYS_STATUS
[03:23:48.066285] [138] BATTERY_STATUS
[03:23:48.068256] [139] EXTENDED_SYS_STATE
[03:23:48.100336] [140] ATTITUDE_TARGET
[03:23:48.105297] [141] VFR_HUD
[03:23:48.108308] [142] SYSTEM_TIME
[03:23:48.268363] [83] RADIO
[03:23:48.271334] [83] RADIO_STATUS
[03:23:48.738505] [143] VFR_HUD
[03:23:48.969460] [144] HEARTBEAT
[03:23:49.312521] [84] RADIO
[03:23:49.315468] [84] RADIO_STATUS
[03:23:49.538544] [145] VFR_HUD
[03:23:50.007597] [146] HEARTBEAT
[03:23:50.015593] [147] ATTITUDE_TARGET
[03:23:50.337828] [85] RADIO
[03:23:50.340582] [85] RADIO_STATUS
[03:23:50.457743] [148] VFR_HUD
[03:23:50.913718] [149] HEARTBEAT
[03:23:51.147797] [150] VFR_HUD
[03:23:51.256807] [86] RADIO
[03:23:51.259789] [86] RADIO_STATUS
[03:23:51.964942] [151] HEARTBEAT
[03:23:51.971946] [152] SYS_STATUS
[03:23:52.089953] [153] BATTERY_STATUS
[03:23:52.097910] [154] ATTITUDE_TARGET
[03:23:52.128003] [155] VFR_HUD
[03:23:52.295992] [87] RADIO
[03:23:52.298988] [87] RADIO_STATUS
[03:23:52.756999] [156] VFR_HUD
[03:23:52.982111] [157] HEARTBEAT
[03:23:53.327149] [88] RADIO
[03:23:53.329110] [88] RADIO_STATUS
[03:23:53.572238] [158] VFR_HUD
[03:23:53.902278] [159] HEARTBEAT
[03:23:53.924220] [160] ATTITUDE_TARGET
[03:23:54.250271] [89] RADIO
[03:23:54.253263] [89] RADIO_STATUS
[03:23:54.366303] [161] VFR_HUD
[03:23:54.941448] [162] HEARTBEAT
[03:23:55.181433] [163] VFR_HUD
[03:23:55.296418] [90] RADIO
[03:23:55.299418] [90] RADIO_STATUS
[03:23:55.983659] [164] HEARTBEAT
[03:23:55.989580] [165] SYS_STATUS
[03:23:56.104659] [166] BATTERY_STATUS
[03:23:56.222667] [167] ATTITUDE_TARGET
[03:23:56.226612] [168] VFR_HUD
[03:23:56.314610] [91] RADIO
[03:23:56.317571] [91] RADIO_STATUS
[03:23:56.790746] [169] VFR_HUD
[03:23:56.901878] [170] HEARTBEAT
[03:23:57.353863] [92] RADIO
[03:23:57.356824] [92] RADIO_STATUS
[03:23:57.584956] [171] VFR_HUD
[03:23:57.943954] [172] HEARTBEAT
[03:23:57.951960] [173] ATTITUDE_TARGET
[03:23:58.274016] [93] RADIO
[03:23:58.276964] [93] RADIO_STATUS
[03:23:58.394973] [174] VFR_HUD
[03:23:58.960091] [175] HEARTBEAT
[03:23:59.194141] [176] VFR_HUD
[03:23:59.303141] [94] RADIO
[03:23:59.306094] [94] RADIO_STATUS
[03:24:00.011326] [177] HEARTBEAT
[03:24:00.018428] [178] SYS_STATUS
[03:24:00.137438] [179] BATTERY_STATUS
[03:24:00.145301] [180] ATTITUDE_TARGET
[03:24:00.175808] [181] VFR_HUD
[03:24:00.343378] [95] RADIO
[03:24:00.346352] [95] RADIO_STATUS
[03:24:00.805853] [182] VFR_HUD
[03:24:00.924424] [183] HEARTBEAT
[03:24:01.373584] [96] RADIO
[03:24:01.375528] [96] RADIO_STATUS
[03:24:01.613609] [184] VFR_HUD
[03:24:01.962664] [185] HEARTBEAT
[03:24:01.970618] [186] ATTITUDE_TARGET
[03:24:02.292665] [97] RADIO
[03:24:02.295635] [97] RADIO_STATUS
[03:24:02.330671] [187] VFR_HUD
[03:24:02.988843] [188] HEARTBEAT
[03:24:03.108836] [189] VFR_HUD
[03:24:03.332874] [98] RADIO
[03:24:03.335831] [98] RADIO_STATUS
[03:24:03.925969] [190] HEARTBEAT
[03:24:03.932958] [191] SYS_STATUS
[03:24:03.972031] [192] BATTERY_STATUS
[03:24:03.979960] [193] ATTITUDE_TARGET
[03:24:03.984902] [194] VFR_HUD
[03:24:04.362039] [99] RADIO
[03:24:04.365018] [99] RADIO_STATUS
[03:24:04.712182] [195] VFR_HUD
[03:24:04.938256] [196] HEARTBEAT
[03:24:05.401257] [100] RADIO
[03:24:05.404226] [100] RADIO_STATUS
[03:24:05.527214] [197] VFR_HUD
[03:24:05.996317] [198] HEARTBEAT
[03:24:06.004362] [199] ATTITUDE_TARGET
[03:24:06.322490] [200] VFR_HUD
[03:24:06.354418] [101] RADIO
[03:24:06.357651] [101] RADIO_STATUS
[03:24:06.902590] [201] HEARTBEAT
[03:24:07.131571] [202] VFR_HUD
[03:24:07.350632] [102] RADIO
[03:24:07.353607] [102] RADIO_STATUS
[03:24:07.938763] [203] HEARTBEAT
[03:24:07.945814] [204] SYS_STATUS
[03:24:08.068713] [205] BATTERY_STATUS
[03:24:08.070682] [206] EXTENDED_SYS_STATE
[03:24:08.102720] [207] ATTITUDE_TARGET
[03:24:08.107731] [208] VFR_HUD
[03:24:08.110709] [209] SYSTEM_TIME
[03:24:08.395798] [103] RADIO
[03:24:08.398823] [103] RADIO_STATUS
[03:24:08.741308] [210] VFR_HUD
[03:24:08.972005] [211] HEARTBEAT
[03:24:09.419919] [104] RADIO
[03:24:09.422870] [104] RADIO_STATUS
[03:24:09.541022] [212] VFR_HUD
[03:24:10.010091] [213] HEARTBEAT
[03:24:10.017057] [214] ATTITUDE_TARGET
[03:24:10.339230] [105] RADIO
[03:24:10.342060] [105] RADIO_STATUS
[03:24:10.460149] [215] VFR_HUD
[03:24:10.915253] [216] HEARTBEAT
[03:24:11.149253] [217] VFR_HUD
[03:24:11.384330] [106] RADIO
[03:24:11.387295] [106] RADIO_STATUS
[03:24:11.972438] [218] HEARTBEAT
[03:24:11.978377] [219] SYS_STATUS
[03:24:12.019197] [220] BATTERY_STATUS
[03:24:12.026426] [221] ATTITUDE_TARGET
[03:24:12.031403] [222] VFR_HUD
[03:24:12.408480] [107] RADIO
[03:24:12.411463] [107] RADIO_STATUS
[03:24:12.994618] [223] VFR_HUD
[03:24:12.997556] [224] HEARTBEAT
[03:24:13.453664] [108] RADIO
[03:24:13.455606] [108] RADIO_STATUS
[03:24:13.577779] [225] VFR_HUD
[03:24:13.917735] [226] HEARTBEAT
[03:24:13.925768] [227] ATTITUDE_TARGET
[03:24:14.367883] [228] VFR_HUD
[03:24:14.400838] [109] RADIO
[03:24:14.403793] [109] RADIO_STATUS
[03:24:14.944059] [229] HEARTBEAT
[03:24:15.182958] [230] VFR_HUD
[03:24:15.396971] [110] RADIO
[03:24:15.399954] [110] RADIO_STATUS
[03:24:15.985130] [231] HEARTBEAT
[03:24:15.992212] [232] SYS_STATUS
[03:24:16.112185] [233] BATTERY_STATUS
[03:24:16.224164] [234] ATTITUDE_TARGET
[03:24:16.229123] [235] VFR_HUD
[03:24:16.442222] [111] RADIO
[03:24:16.445136] [111] RADIO_STATUS
[03:24:16.787274] [236] VFR_HUD
[03:24:16.898332] [237] HEARTBEAT
[03:24:17.466467] [112] RADIO
[03:24:17.469338] [112] RADIO_STATUS
[03:24:17.587390] [238] VFR_HUD
[03:24:17.945533] [239] HEARTBEAT
[03:24:17.953514] [240] ATTITUDE_TARGET
[03:24:18.385590] [113] RADIO
[03:24:18.388610] [113] RADIO_STATUS
[03:24:18.506629] [241] VFR_HUD
[03:24:18.961681] [242] HEARTBEAT
[03:24:19.196648] [243] VFR_HUD
[03:24:19.425677] [114] RADIO
[03:24:19.428756] [114] RADIO_STATUS
[03:24:20.012885] [244] HEARTBEAT
[03:24:20.019926] [245] SYS_STATUS
[03:24:20.138946] [246] BATTERY_STATUS
[03:24:20.145921] [247] ATTITUDE_TARGET
[03:24:20.176939] [248] VFR_HUD
[03:24:20.454994] [115] RADIO
[03:24:20.457921] [115] RADIO_STATUS
[03:24:20.700986] [249] VFR_HUD
[03:24:20.920988] [250] HEARTBEAT
[03:24:21.500168] [116] RADIO
[03:24:21.502091] [116] RADIO_STATUS
[03:24:21.615134] [251] VFR_HUD
[03:24:21.964210] [252] HEARTBEAT
[03:24:21.972182] [253] ATTITUDE_TARGET
[03:24:22.310268] [254] VFR_HUD
[03:24:22.425268] [117] RADIO
[03:24:22.428180] [117] RADIO_STATUS
[03:24:22.990402] [255] HEARTBEAT
[03:24:23.109333] [0] VFR_HUD
[03:24:23.443382] [118] RADIO
[03:24:23.446344] [118] RADIO_STATUS
[03:24:23.926488] [1] HEARTBEAT
[03:24:23.933485] [2] SYS_STATUS
[03:24:23.973491] [3] BATTERY_STATUS
[03:24:23.980474] [4] ATTITUDE_TARGET
[03:24:23.985452] [5] VFR_HUD
[03:24:24.482589] [119] RADIO
[03:24:24.485529] [119] RADIO_STATUS
[03:24:24.949633] [6] VFR_HUD
[03:24:24.951642] [7] HEARTBEAT
[03:24:25.512762] [120] RADIO
[03:24:25.515659] [120] RADIO_STATUS
[03:24:25.632745] [8] VFR_HUD
[03:24:25.991849] [9] HEARTBEAT
[03:24:25.999793] [10] ATTITUDE_TARGET
[03:24:26.322903] [11] VFR_HUD
[03:24:26.431912] [121] RADIO
[03:24:26.434851] [121] RADIO_STATUS
[03:24:26.902974] [12] HEARTBEAT
[03:24:27.242004] [13] VFR_HUD
[03:24:27.471056] [122] RADIO
[03:24:27.474117] [122] RADIO_STATUS
[03:24:27.939220] [14] HEARTBEAT
[03:24:27.946194] [15] SYS_STATUS
[03:24:28.064285] [16] BATTERY_STATUS
[03:24:28.066142] [17] EXTENDED_SYS_STATE
[03:24:28.185249] [18] ATTITUDE_TARGET
[03:24:28.191549] [19] VFR_HUD
[03:24:28.193219] [20] SYSTEM_TIME
[03:24:28.501269] [123] RADIO
[03:24:28.504213] [123] RADIO_STATUS
[03:24:28.741273] [21] VFR_HUD
[03:24:28.972342] [22] HEARTBEAT
[03:24:29.420436] [124] RADIO
[03:24:29.423486] [124] RADIO_STATUS
[03:24:29.541427] [23] VFR_HUD
[03:24:30.010535] [24] HEARTBEAT
[03:24:30.017539] [25] ATTITUDE_TARGET
[03:24:30.357689] [26] VFR_HUD
[03:24:30.471672] [125] RADIO
[03:24:30.474581] [125] RADIO_STATUS
[03:24:30.915700] [27] HEARTBEAT
[03:24:31.150646] [28] VFR_HUD
[03:24:31.489782] [126] RADIO
[03:24:31.492691] [126] RADIO_STATUS
[03:24:31.972854] [29] HEARTBEAT
[03:24:31.979822] [30] SYS_STATUS
[03:24:32.019116] [31] BATTERY_STATUS
[03:24:32.026816] [32] ATTITUDE_TARGET
[03:24:32.031808] [33] VFR_HUD
[03:24:32.528923] [127] RADIO
[03:24:32.531865] [127] RADIO_STATUS
[03:24:32.995002] [34] VFR_HUD
[03:24:32.997976] [35] HEARTBEAT
[03:24:33.454049] [128] RADIO
[03:24:33.457012] [128] RADIO_STATUS
[03:24:33.574042] [36] VFR_HUD
[03:24:33.918179] [37] HEARTBEAT
[03:24:33.926129] [38] ATTITUDE_TARGET
[03:24:34.369221] [39] VFR_HUD
[03:24:34.478239] [129] RADIO
[03:24:34.481190] [129] RADIO_STATUS
[03:24:34.949336] [40] HEARTBEAT
[03:24:35.178370] [41] VFR_HUD
[03:24:35.522490] [130] RADIO
[03:24:35.525409] [130] RADIO_STATUS
[03:24:35.985560] [42] HEARTBEAT
[03:24:35.992513] [43] SYS_STATUS
[03:24:36.112530] [44] BATTERY_STATUS
[03:24:36.224601] [45] ATTITUDE_TARGET
[03:24:36.229551] [46] VFR_HUD
[03:24:36.547590] [131] RADIO
[03:24:36.550546] [131] RADIO_STATUS
[03:24:36.787663] [47] VFR_HUD
[03:24:36.898737] [48] HEARTBEAT
[03:24:37.466747] [132] RADIO
[03:24:37.469720] [132] RADIO_STATUS
[03:24:37.587762] [49] VFR_HUD
[03:24:37.946920] [50] HEARTBEAT
[03:24:37.954925] [51] ATTITUDE_TARGET
[03:24:38.396932] [52] VFR_HUD
[03:24:38.511988] [133] RADIO
[03:24:38.514954] [133] RADIO_STATUS
[03:24:38.963143] [53] HEARTBEAT
[03:24:39.197086] [54] VFR_HUD
[03:24:39.536100] [134] RADIO
[03:24:39.539095] [134] RADIO_STATUS
[03:24:40.014246] [55] HEARTBEAT
[03:24:40.021266] [56] SYS_STATUS
[03:24:40.140252] [57] BATTERY_STATUS
[03:24:40.147223] [58] ATTITUDE_TARGET
[03:24:40.178244] [59] VFR_HUD
[03:24:40.581291] [135] RADIO
[03:24:40.584288] [135] RADIO_STATUS
[03:24:40.806371] [60] VFR_HUD
[03:24:40.926846] [61] HEARTBEAT
[03:24:41.501439] [62] VFR_HUD
[03:24:41.528432] [136] RADIO
[03:24:41.531429] [136] RADIO_STATUS
[03:24:41.965545] [63] HEARTBEAT
[03:24:41.973513] [64] ATTITUDE_TARGET
[03:24:42.311569] [65] VFR_HUD
[03:24:42.525601] [137] RADIO
[03:24:42.528599] [137] RADIO_STATUS
[03:24:42.991666] [66] HEARTBEAT
[03:24:43.105678] [67] VFR_HUD
[03:24:43.569791] [138] RADIO
[03:24:43.572726] [138] RADIO_STATUS
[03:24:43.922832] [68] HEARTBEAT
[03:24:43.929844] [69] SYS_STATUS
[03:24:44.048009] [70] BATTERY_STATUS
[03:24:44.059385] [71] ATTITUDE_TARGET
[03:24:44.085943] [72] VFR_HUD
[03:24:44.484886] [139] RADIO
[03:24:44.487880] [139] RADIO_STATUS
[03:24:44.715003] [73] VFR_HUD
[03:24:44.940104] [74] HEARTBEAT
[03:24:45.514130] [140] RADIO
[03:24:45.517048] [140] RADIO_STATUS
[03:24:45.634080] [75] VFR_HUD
[03:24:45.993239] [76] HEARTBEAT
[03:24:46.001188] [77] ATTITUDE_TARGET
[03:24:46.324258] [78] VFR_HUD
[03:24:46.553286] [141] RADIO
[03:24:46.556283] [141] RADIO_STATUS
[03:24:46.904301] [79] HEARTBEAT
[03:24:47.133324] [80] VFR_HUD
[03:24:47.582422] [142] RADIO
[03:24:47.585808] [142] RADIO_STATUS
[03:24:47.940493] [81] HEARTBEAT
[03:24:47.947481] [82] SYS_STATUS
[03:24:48.065857] [83] BATTERY_STATUS
[03:24:48.067698] [84] EXTENDED_SYS_STATE
[03:24:48.186681] [85] ATTITUDE_TARGET
[03:24:48.191503] [86] VFR_HUD
[03:24:48.194512] [87] SYSTEM_TIME
[03:24:48.622607] [143] RADIO
[03:24:48.625571] [143] RADIO_STATUS
[03:24:48.748619] [88] VFR_HUD
[03:24:48.968627] [89] HEARTBEAT
[03:24:49.542877] [90] VFR_HUD
[03:24:49.569709] [144] RADIO
[03:24:49.575193] [144] RADIO_STATUS
[03:24:50.011819] [91] HEARTBEAT
[03:24:50.019915] [92] ATTITUDE_TARGET
[03:24:50.357915] [93] VFR_HUD
[03:24:50.571930] [145] RADIO
[03:24:50.574927] [145] RADIO_STATUS
[03:24:50.918012] [94] HEARTBEAT
[03:24:51.151965] [95] VFR_HUD
[03:24:51.611021] [146] RADIO
[03:24:51.614021] [146] RADIO_STATUS
[03:24:51.975133] [96] HEARTBEAT
[03:24:51.981083] [97] SYS_STATUS
[03:24:52.021134] [98] BATTERY_STATUS
[03:24:52.029126] [99] ATTITUDE_TARGET
[03:24:52.033499] [100] VFR_HUD
[03:24:52.531285] [147] RADIO
[03:24:52.534160] [147] RADIO_STATUS
[03:24:52.997299] [101] VFR_HUD
[03:24:53.000244] [102] HEARTBEAT
[03:24:53.560397] [148] RADIO
[03:24:53.563390] [148] RADIO_STATUS
[03:24:53.681534] [103] VFR_HUD
[03:24:53.920531] [104] HEARTBEAT
[03:24:53.928467] [105] ATTITUDE_TARGET
[03:24:54.371542] [106] VFR_HUD
[03:24:54.600553] [149] RADIO
[03:24:54.603543] [149] RADIO_STATUS
[03:24:54.951698] [107] HEARTBEAT
[03:24:55.180692] [108] VFR_HUD
[03:24:55.629850] [150] RADIO
[03:24:55.632736] [150] RADIO_STATUS
[03:24:55.987850] [109] HEARTBEAT
[03:24:55.994824] [110] SYS_STATUS
[03:24:56.114940] [111] BATTERY_STATUS
[03:24:56.226948] [112] ATTITUDE_TARGET
[03:24:56.231911] [113] VFR_HUD
[03:24:56.548948] [151] RADIO
[03:24:56.551882] [151] RADIO_STATUS
[03:24:56.789942] [114] VFR_HUD
[03:24:56.895003] [115] HEARTBEAT
[03:24:57.589268] [116] VFR_HUD
[03:24:57.621035] [152] RADIO
[03:24:57.624022] [152] RADIO_STATUS
[03:24:57.953180] [117] HEARTBEAT
[03:24:57.961141] [118] ATTITUDE_TARGET
[03:24:58.399193] [119] VFR_HUD
[03:24:58.618215] [153] RADIO
[03:24:58.621183] [153] RADIO_STATUS
[03:24:58.964296] [120] HEARTBEAT
[03:24:59.198349] [121] VFR_HUD
[03:24:59.662429] [154] RADIO
[03:24:59.665376] [154] RADIO_STATUS
[03:25:00.020577] [122] HEARTBEAT
[03:25:00.027500] [123] SYS_STATUS
[03:25:00.067547] [124] BATTERY_STATUS
[03:25:00.075516] [125] ATTITUDE_TARGET
[03:25:00.079436] [126] VFR_HUD
[03:25:00.582590] [155] RADIO
[03:25:00.585743] [155] RADIO_STATUS
[03:25:00.933632] [127] VFR_HUD
[03:25:00.936771] [128] HEARTBEAT
[03:25:01.497676] [129] VFR_HUD
[03:25:01.606696] [156] RADIO
[03:25:01.609782] [156] RADIO_STATUS
[03:25:01.966785] [130] HEARTBEAT
[03:25:01.974813] [131] ATTITUDE_TARGET
[03:25:02.306837] [132] VFR_HUD
[03:25:02.651981] [157] RADIO
[03:25:02.654981] [157] RADIO_STATUS
[03:25:02.993042] [133] HEARTBEAT
[03:25:03.106963] [134] VFR_HUD
[03:25:03.571039] [158] RADIO
[03:25:03.574001] [158] RADIO_STATUS
[03:25:03.924109] [135] HEARTBEAT
[03:25:03.931141] [136] SYS_STATUS
[03:25:04.050143] [137] BATTERY_STATUS
[03:25:04.057166] [138] ATTITUDE_TARGET
[03:25:04.088135] [139] VFR_HUD
[03:25:04.596346] [159] RADIO
[03:25:04.599284] [159] RADIO_STATUS
[03:25:04.716266] [140] VFR_HUD
[03:25:04.942338] [141] HEARTBEAT
[03:25:05.526430] [142] VFR_HUD
[03:25:05.640401] [160] RADIO
[03:25:05.643404] [160] RADIO_STATUS
[03:25:05.995479] [143] HEARTBEAT
[03:25:06.003491] [144] ATTITUDE_TARGET
[03:25:06.325528] [145] VFR_HUD
[03:25:06.664621] [161] RADIO
[03:25:06.667584] [161] RADIO_STATUS
[03:25:06.900625] [146] HEARTBEAT
[03:25:07.140719] [147] VFR_HUD
[03:25:07.584787] [162] RADIO
[03:25:07.587855] [162] RADIO_STATUS
[03:25:07.942992] [148] HEARTBEAT
[03:25:07.949846] [149] SYS_STATUS
[03:25:08.066852] [150] BATTERY_STATUS
[03:25:08.068829] [151] EXTENDED_SYS_STATE
[03:25:08.188003] [152] ATTITUDE_TARGET
[03:25:08.192904] [153] VFR_HUD
[03:25:08.197007] [154] SYSTEM_TIME
[03:25:08.624065] [163] RADIO
[03:25:08.626959] [163] RADIO_STATUS
[03:25:08.749986] [155] VFR_HUD
[03:25:08.970035] [156] HEARTBEAT
[03:25:09.544128] [157] VFR_HUD
[03:25:09.654126] [164] RADIO
[03:25:09.656074] [164] RADIO_STATUS
[03:25:10.013211] [158] HEARTBEAT
[03:25:10.021174] [159] ATTITUDE_TARGET
[03:25:10.359228] [160] VFR_HUD
[03:25:10.693330] [165] RADIO
[03:25:10.696241] [165] RADIO_STATUS
[03:25:10.919408] [161] HEARTBEAT
[03:25:11.153429] [162] VFR_HUD
[03:25:11.612492] [166] RADIO
[03:25:11.615527] [166] RADIO_STATUS
[03:25:11.975625] [163] HEARTBEAT
[03:25:11.982505] [164] SYS_STATUS
[03:25:12.022522] [165] BATTERY_STATUS
[03:25:12.030509] [166] ATTITUDE_TARGET
[03:25:12.035597] [167] VFR_HUD
[03:25:12.642733] [167] RADIO
[03:25:12.645623] [167] RADIO_STATUS
[03:25:12.998678] [168] VFR_HUD
[03:25:13.001664] [169] HEARTBEAT
[03:25:13.572781] [170] VFR_HUD
[03:25:13.681808] [168] RADIO
[03:25:13.684772] [168] RADIO_STATUS
[03:25:13.921934] [171] HEARTBEAT
[03:25:13.929862] [172] ATTITUDE_TARGET
[03:25:14.371956] [173] VFR_HUD
[03:25:14.711011] [169] RADIO
[03:25:14.714024] [169] RADIO_STATUS
[03:25:14.952200] [174] HEARTBEAT
[03:25:15.182101] [175] VFR_HUD
[03:25:15.631187] [170] RADIO
[03:25:15.634105] [170] RADIO_STATUS
[03:25:15.989207] [176] HEARTBEAT
[03:25:15.996209] [177] SYS_STATUS
[03:25:16.110246] [178] BATTERY_STATUS
[03:25:16.228270] [179] ATTITUDE_TARGET
[03:25:16.233192] [180] VFR_HUD
[03:25:16.670284] [171] RADIO
[03:25:16.673315] [171] RADIO_STATUS
[03:25:16.791348] [181] VFR_HUD
[03:25:16.896335] [182] HEARTBEAT
[03:25:17.590428] [183] VFR_HUD
[03:25:17.700509] [172] RADIO
[03:25:17.703438] [172] RADIO_STATUS
[03:25:17.955595] [184] HEARTBEAT
[03:25:17.962508] [185] ATTITUDE_TARGET
[03:25:18.405606] [186] VFR_HUD
[03:25:18.739600] [173] RADIO
[03:25:18.742523] [173] RADIO_STATUS
[03:25:18.965662] [187] HEARTBEAT
[03:25:19.200670] [188] VFR_HUD
[03:25:19.661857] [174] RADIO
[03:25:19.662941] [174] RADIO_STATUS
[03:25:20.022896] [189] HEARTBEAT
[03:25:20.029802] [190] SYS_STATUS
[03:25:20.068830] [191] BATTERY_STATUS
[03:25:20.077700] [192] ATTITUDE_TARGET
[03:25:20.081795] [193] VFR_HUD
[03:25:20.689001] [175] RADIO
[03:25:20.691895] [175] RADIO_STATUS
[03:25:20.935033] [194] VFR_HUD
[03:25:20.937987] [195] HEARTBEAT
[03:25:21.499092] [196] VFR_HUD
[03:25:21.728079] [176] RADIO
[03:25:21.731067] [176] RADIO_STATUS
[03:25:21.968212] [197] HEARTBEAT
[03:25:21.976214] [198] ATTITUDE_TARGET
[03:25:22.309190] [199] VFR_HUD
[03:25:22.653326] [177] RADIO
[03:25:22.656294] [177] RADIO_STATUS
[03:25:22.999276] [200] HEARTBEAT
[03:25:23.108313] [201] VFR_HUD
[03:25:23.677503] [178] RADIO
[03:25:23.680393] [178] RADIO_STATUS
[03:25:23.926431] [202] HEARTBEAT
[03:25:23.932392] [203] SYS_STATUS
[03:25:24.051494] [204] BATTERY_STATUS
[03:25:24.059478] [205] ATTITUDE_TARGET
[03:25:24.089492] [206] VFR_HUD
[03:25:24.718591] [207] VFR_HUD
[03:25:24.750540] [179] RADIO
[03:25:24.753565] [179] RADIO_STATUS
[03:25:24.943683] [208] HEARTBEAT
[03:25:25.527729] [209] VFR_HUD
[03:25:25.746775] [180] RADIO
[03:25:25.749810] [180] RADIO_STATUS
[03:25:25.996812] [210] HEARTBEAT
[03:25:26.004778] [211] ATTITUDE_TARGET
[03:25:26.327817] [212] VFR_HUD
[03:25:26.666960] [181] RADIO
[03:25:26.669937] [181] RADIO_STATUS
[03:25:26.902931] [213] HEARTBEAT
[03:25:27.247018] [214] VFR_HUD
[03:25:27.711105] [182] RADIO
[03:25:27.714053] [182] RADIO_STATUS
[03:25:27.944124] [215] HEARTBEAT
[03:25:27.951099] [216] SYS_STATUS
[03:25:28.069131] [217] BATTERY_STATUS
