[20:01:15.579387] [21] RADIO
[20:01:15.582394] [21] RADIO_STATUS
[20:01:15.825376] [166] VFR_HUD
[20:01:16.045533] [167] HEARTBEAT
[20:01:16.624509] [168] VFR_HUD
[20:01:16.651445] [22] RADIO
[20:01:16.654464] [22] RADIO_STATUS
[20:01:17.088557] [169] HEARTBEAT
[20:01:17.096508] [170] ATTITUDE_TARGET
[20:01:17.434615] [171] VFR_HUD
[20:01:17.549609] [23] RADIO
[20:01:17.552564] [23] RADIO_STATUS
[20:01:18.114790] [172] HEARTBEAT
[20:01:18.228700] [173] VFR_HUD
[20:01:18.567793] [24] RADIO
[20:01:18.570756] [24] RADIO_STATUS
[20:01:19.045874] [174] HEARTBEAT
[20:01:19.052879] [175] SYS_STATUS
[20:01:19.170921] [176] BATTERY_STATUS
[20:01:19.178901] [177] ATTITUDE_TARGET
[20:01:19.208831] [178] VFR_HUD
[20:01:19.612923] [25] RADIO
[20:01:19.615929] [25] RADIO_STATUS
[20:01:19.838047] [179] VFR_HUD
[20:01:20.064143] [180] HEARTBEAT
[20:01:20.637113] [26] RADIO
[20:01:20.640063] [26] RADIO_STATUS
[20:01:20.758227] [181] VFR_HUD
[20:01:21.117157] [182] HEARTBEAT
[20:01:21.124181] [183] ATTITUDE_TARGET
[20:01:21.447248] [184] VFR_HUD
[20:01:21.682253] [27] RADIO
[20:01:21.685206] [27] RADIO_STATUS
[20:01:22.028352] [185] HEARTBEAT
[20:01:22.257407] [186] VFR_HUD
[20:01:22.596402] [28] RADIO
[20:01:22.601093] [28] RADIO_STATUS
[20:01:23.064493] [187] HEARTBEAT
[20:01:23.071516] [188] SYS_STATUS
[20:01:23.186487] [189] BATTERY_STATUS
[20:01:23.303538] [190] ATTITUDE_TARGET
[20:01:23.308511] [191] VFR_HUD
[20:01:23.626570] [29] RADIO
[20:01:23.628565] [29] RADIO_STATUS
[20:01:23.871692] [192] VFR_HUD
[20:01:24.091666] [193] HEARTBEAT
[20:01:24.693783] [30] RADIO
[20:01:24.696739] [30] RADIO_STATUS
[20:01:25.254892] [195] HEARTBEAT
[20:01:25.262805] [196] ATTITUDE_TARGET
[20:01:25.480827] [197] VFR_HUD
[20:01:25.694870] [31] RADIO
[20:01:25.697855] [31] RADIO_STATUS
[20:01:26.040954] [198] HEARTBEAT
[20:01:26.274976] [199] VFR_HUD
[20:01:26.613977] [32] RADIO
[20:01:26.617016] [32] RADIO_STATUS
[20:01:27.097177] [200] HEARTBEAT
[20:01:27.104223] [201] SYS_STATUS
[20:01:27.144106] [202] BATTERY_STATUS
[20:01:27.151220] [203] ATTITUDE_TARGET
[20:01:27.156123] [204] VFR_HUD
[20:01:27.654125] [33] RADIO
[20:01:27.657112] [33] RADIO_STATUS
[20:01:28.120207] [205] VFR_HUD
[20:01:28.123209] [206] HEARTBEAT
[20:01:28.683310] [34] RADIO
[20:01:28.686310] [34] RADIO_STATUS
[20:01:28.804302] [207] VFR_HUD
[20:01:29.505696] [210] VFR_HUD
[20:01:29.608452] [35] RADIO
[20:01:29.611419] [35] RADIO_STATUS
[20:01:30.074605] [211] HEARTBEAT
[20:01:30.115355] JAMMING_START
[20:01:30.303655] [212] VFR_HUD
[20:01:30.642623] [36] RADIO
[20:01:30.645684] [36] RADIO_STATUS
[20:01:31.110925] [213] HEARTBEAT
[20:01:31.117817] [214] SYS_STATUS
[20:01:31.240687] [215] BATTERY_STATUS
[20:01:31.241633] [216] EXTENDED_SYS_STATE
[20:01:31.274730] [217] ATTITUDE_TARGET
[20:01:31.278740] [218] VFR_HUD
[20:01:31.282708] [219] SYSTEM_TIME
[20:01:31.671812] [37] RADIO
[20:01:31.676702] [37] RADIO_STATUS
[20:01:31.912837] [220] VFR_HUD
[20:01:32.019124] [221] HEARTBEAT
[20:01:32.712900] [222] VFR_HUD
[20:01:32.739901] [38] RADIO
[20:01:32.742887] [38] RADIO_STATUS
[20:01:33.076964] [223] HEARTBEAT
[20:01:33.084938] [224] ATTITUDE_TARGET
[20:01:33.522032] [225] VFR_HUD
[20:01:33.637136] [39] RADIO
[20:01:33.640048] [39] RADIO_STATUS
[20:01:34.089684] [226] HEARTBEAT
[20:01:34.322113] [227] VFR_HUD
[20:01:34.660163] [40] RADIO
[20:01:34.663156] [40] RADIO_STATUS
[20:01:35.143262] [228] HEARTBEAT
[20:01:35.150289] [229] SYS_STATUS
[20:01:35.190236] [230] BATTERY_STATUS
[20:01:35.198251] [231] ATTITUDE_TARGET
[20:01:35.202265] [232] VFR_HUD
[20:01:35.700341] [41] RADIO
[20:01:35.703320] [41] RADIO_STATUS
[20:01:36.056374] [233] VFR_HUD
[20:01:36.059441] [234] HEARTBEAT
[20:01:36.625710] [235] VFR_HUD
[20:01:36.652468] [42] RADIO
[20:01:36.655390] [42] RADIO_STATUS
[20:01:37.213467] [236] HEARTBEAT
[20:01:37.221460] [237] ATTITUDE_TARGET
[20:01:37.429924] [238] VFR_HUD
[20:01:37.651579] [43] RADIO
[20:01:37.654571] [43] RADIO_STATUS
[20:01:38.114629] [239] HEARTBEAT
[20:01:38.240626] [240] VFR_HUD
[20:01:38.693739] [44] RADIO
[20:01:38.696665] [44] RADIO_STATUS
[20:01:39.046821] [241] HEARTBEAT
[20:01:39.053041] [242] SYS_STATUS
[20:01:39.171843] [243] BATTERY_STATUS
[20:01:39.179781] [244] ATTITUDE_TARGET
[20:01:39.209794] [245] VFR_HUD
[20:01:39.718072] [45] RADIO
[20:01:39.721550] [45] RADIO_STATUS
[20:01:39.839069] [246] VFR_HUD
[20:01:40.063978] [247] HEARTBEAT
[20:01:40.763171] [46] RADIO
[20:01:40.766325] [46] RADIO_STATUS
[20:01:41.117291] [249] HEARTBEAT
[20:01:41.125247] [250] ATTITUDE_TARGET
[20:01:41.448149] [251] VFR_HUD
[20:01:41.787191] [47] RADIO
[20:01:41.790133] [47] RADIO_STATUS
[20:01:42.023376] [252] HEARTBEAT
[20:01:42.263324] [253] VFR_HUD
[20:01:42.706323] [48] RADIO
[20:01:42.709286] [48] RADIO_STATUS
[20:01:43.064394] [254] HEARTBEAT
[20:01:43.071413] [255] SYS_STATUS
[20:01:43.186478] [0] BATTERY_STATUS
[20:01:43.303471] [1] ATTITUDE_TARGET
[20:01:43.308398] [2] VFR_HUD
[20:01:43.751566] [49] RADIO
[20:01:43.754849] [49] RADIO_STATUS
[20:01:43.872663] [3] VFR_HUD
[20:01:44.101788] [4] HEARTBEAT
[20:01:44.775711] [50] RADIO
[20:01:44.781741] [50] RADIO_STATUS
[20:01:45.481766] [8] VFR_HUD
[20:01:45.694895] [51] RADIO
[20:01:45.697735] [51] RADIO_STATUS
[20:01:46.040908] [9] HEARTBEAT
[20:01:46.739934] [52] RADIO
[20:01:46.742859] [52] RADIO_STATUS
[20:01:47.093023] [11] HEARTBEAT
[20:01:47.098960] [12] SYS_STATUS
[20:01:47.218016] [13] BATTERY_STATUS
[20:01:47.225996] [14] ATTITUDE_TARGET
[20:01:47.256080] [15] VFR_HUD
[20:01:47.764115] [53] RADIO
[20:01:47.767059] [53] RADIO_STATUS
[20:01:47.885424] [16] VFR_HUD
[20:01:48.120111] [17] HEARTBEAT
[20:01:48.694205] [18] VFR_HUD
[20:01:48.809217] [54] RADIO
[20:01:48.812355] [54] RADIO_STATUS
[20:01:49.043292] [19] HEARTBEAT
[20:01:49.051333] [20] ATTITUDE_TARGET
[20:01:49.494336] [21] VFR_HUD
[20:01:49.723429] [55] RADIO
[20:01:49.726441] [55] RADIO_STATUS
[20:01:50.074483] [22] HEARTBEAT
[20:01:50.304935] [23] VFR_HUD
[20:01:50.752555] [56] RADIO
[20:01:50.755468] [56] RADIO_STATUS
[20:01:51.235648] [26] BATTERY_STATUS
[20:01:51.236594] [27] EXTENDED_SYS_STATE
[20:01:51.792746] [57] RADIO
[20:01:51.795861] [57] RADIO_STATUS
[20:01:51.912691] [31] VFR_HUD
[20:01:52.018833] [32] HEARTBEAT
[20:01:52.712814] [33] VFR_HUD
[20:01:52.742797] [58] RADIO
[20:01:52.745732] [58] RADIO_STATUS
[20:01:53.076963] [34] HEARTBEAT
[20:01:53.084897] [35] ATTITUDE_TARGET
[20:01:53.527899] [36] VFR_HUD
[20:01:53.740977] [59] RADIO
[20:01:53.743839] [59] RADIO_STATUS
[20:01:54.088628] [37] HEARTBEAT
[20:01:54.322141] [38] VFR_HUD
[20:01:54.781141] [60] RADIO
[20:01:54.785210] [60] RADIO_STATUS
[20:01:55.144479] [39] HEARTBEAT
[20:01:55.154115] [40] SYS_STATUS
[20:01:55.193825] [41] BATTERY_STATUS
[20:01:55.198156] [42] ATTITUDE_TARGET
[20:01:55.203237] [43] VFR_HUD
[20:01:55.810309] [61] RADIO
[20:01:55.813153] [61] RADIO_STATUS
[20:01:56.062329] [44] VFR_HUD
[20:01:56.064331] [45] HEARTBEAT
[20:01:56.620314] [46] VFR_HUD
[20:01:56.850375] [62] RADIO
[20:01:56.852340] [62] RADIO_STATUS
[20:01:57.090434] [47] HEARTBEAT
[20:01:57.097392] [48] ATTITUDE_TARGET
[20:01:57.430429] [49] VFR_HUD
[20:01:57.769523] [63] RADIO
[20:01:57.772497] [63] RADIO_STATUS
[20:01:58.120546] [50] HEARTBEAT
[20:01:58.230532] [51] VFR_HUD
[20:01:58.799669] [64] RADIO
[20:01:58.802603] [64] RADIO_STATUS
[20:01:59.173069] [54] BATTERY_STATUS
[20:01:59.180753] [55] ATTITUDE_TARGET
[20:01:59.223043] [56] VFR_HUD
[20:01:59.839806] [57] VFR_HUD
[20:01:59.867002] [65] RADIO
[20:01:59.869732] [65] RADIO_STATUS
[20:02:00.064949] [58] HEARTBEAT
[20:02:00.656264] [59] VFR_HUD
[20:02:00.867995] [66] RADIO
[20:02:00.871014] [66] RADIO_STATUS
[20:02:01.118202] [60] HEARTBEAT
[20:02:01.126112] [61] ATTITUDE_TARGET
[20:02:01.449906] [62] VFR_HUD
[20:02:01.788257] [67] RADIO
[20:02:01.791127] [67] RADIO_STATUS
[20:02:02.024200] [63] HEARTBEAT
[20:02:02.264162] [64] VFR_HUD
[20:02:02.827343] [68] RADIO
[20:02:02.829968] [68] RADIO_STATUS
[20:02:03.186416] [67] BATTERY_STATUS
[20:02:03.309993] [68] ATTITUDE_TARGET
[20:02:03.310270] [69] VFR_HUD
[20:02:03.856422] [69] RADIO
[20:02:03.859326] [69] RADIO_STATUS
[20:02:03.894356] [70] VFR_HUD
[20:02:04.092641] [71] HEARTBEAT
[20:02:04.666788] [72] VFR_HUD
[20:02:04.895796] [70] RADIO
[20:02:04.898478] [70] RADIO_STATUS
[20:02:05.135578] [73] HEARTBEAT
[20:02:05.143611] [74] ATTITUDE_TARGET
[20:02:05.476639] [75] VFR_HUD
[20:02:05.820698] [71] RADIO
[20:02:05.823713] [71] RADIO_STATUS
[20:02:06.041746] [76] HEARTBEAT
[20:02:06.275984] [77] VFR_HUD
[20:02:06.844805] [72] RADIO
[20:02:06.847787] [72] RADIO_STATUS
[20:02:07.219025] [80] BATTERY_STATUS
[20:02:07.227301] [81] ATTITUDE_TARGET
[20:02:07.257219] [82] VFR_HUD
[20:02:07.886194] [83] VFR_HUD
[20:02:07.918264] [73] RADIO
[20:02:07.921089] [73] RADIO_STATUS
[20:02:08.111063] [84] HEARTBEAT
[20:02:08.695097] [85] VFR_HUD
[20:02:08.810274] [74] RADIO
[20:02:08.813051] [74] RADIO_STATUS
[20:02:09.045126] [86] HEARTBEAT
[20:02:09.052282] [87] ATTITUDE_TARGET
[20:02:09.834473] [75] RADIO
[20:02:09.837236] [75] RADIO_STATUS
[20:02:10.070388] [89] HEARTBEAT
[20:02:10.305327] [90] VFR_HUD
[20:02:10.879329] [76] RADIO
[20:02:10.882402] [76] RADIO_STATUS
[20:02:11.236700] [93] BATTERY_STATUS
[20:02:11.238430] [94] EXTENDED_SYS_STATE
[20:02:11.357505] [95] ATTITUDE_TARGET
[20:02:11.362452] [96] VFR_HUD
[20:02:11.369632] [97] SYSTEM_TIME
[20:02:11.903662] [77] RADIO
[20:02:11.906452] [77] RADIO_STATUS
[20:02:11.942531] [98] VFR_HUD
[20:02:12.019847] [99] HEARTBEAT
[20:02:12.713876] [100] VFR_HUD
[20:02:12.947643] [78] RADIO
[20:02:12.950823] [78] RADIO_STATUS
[20:02:13.077725] [101] HEARTBEAT
[20:02:13.086003] [102] ATTITUDE_TARGET
[20:02:13.528885] [103] VFR_HUD
[20:02:13.867883] [79] RADIO
[20:02:13.870897] [79] RADIO_STATUS
[20:02:14.097955] [104] HEARTBEAT
[20:02:14.335151] [105] VFR_HUD
[20:02:14.891913] [80] RADIO
[20:02:14.894873] [80] RADIO_STATUS
[20:02:15.937439] [81] RADIO
[20:02:15.940201] [81] RADIO_STATUS
[20:02:16.063149] [111] VFR_HUD
[20:02:16.066318] [112] HEARTBEAT
[20:02:16.629813] [113] VFR_HUD
[20:02:16.961243] [82] RADIO
[20:02:16.964344] [82] RADIO_STATUS
[20:02:17.091234] [114] HEARTBEAT
[20:02:17.099347] [115] ATTITUDE_TARGET
[20:02:17.432317] [116] VFR_HUD
[20:02:17.881397] [83] RADIO
[20:02:17.884723] [83] RADIO_STATUS
[20:02:18.122517] [117] HEARTBEAT
[20:02:18.231409] [118] VFR_HUD
[20:02:18.922034] [84] RADIO
[20:02:18.923595] [84] RADIO_STATUS
[20:02:19.053905] [119] HEARTBEAT
[20:02:19.060520] [120] SYS_STATUS
[20:02:19.100717] [121] BATTERY_STATUS
[20:02:19.107570] [122] ATTITUDE_TARGET
[20:02:19.112495] [123] VFR_HUD
[20:02:19.949885] [85] RADIO
[20:02:19.952859] [85] RADIO_STATUS
[20:02:20.200991] [124] VFR_HUD
[20:02:20.203891] [125] HEARTBEAT
[20:02:20.655795] [126] VFR_HUD
[20:02:20.989842] [86] RADIO
[20:02:20.992864] [86] RADIO_STATUS
[20:02:21.124913] [127] HEARTBEAT
[20:02:21.133067] [128] ATTITUDE_TARGET
[20:02:21.450291] [129] VFR_HUD
[20:02:22.019027] [87] RADIO
[20:02:22.021998] [87] RADIO_STATUS
[20:02:22.135269] [130] HEARTBEAT
[20:02:22.264953] [131] VFR_HUD
[20:02:22.938256] [88] RADIO
[20:02:22.941219] [88] RADIO_STATUS
[20:02:23.425223] [135] ATTITUDE_TARGET
[20:02:23.429120] [136] VFR_HUD
[20:02:23.869816] [137] VFR_HUD
[20:02:23.978213] [89] RADIO
[20:02:23.981226] [89] RADIO_STATUS
[20:02:24.094276] [138] HEARTBEAT
[20:02:24.668661] [139] VFR_HUD
[20:02:25.007745] [90] RADIO
[20:02:25.010426] [90] RADIO_STATUS
[20:02:25.137570] [140] HEARTBEAT
[20:02:25.145571] [141] ATTITUDE_TARGET
[20:02:25.478528] [142] VFR_HUD
[20:02:25.927517] [91] RADIO
[20:02:25.930552] [91] RADIO_STATUS
[20:02:26.043530] [143] HEARTBEAT
[20:02:26.277640] [144] VFR_HUD
[20:02:26.966813] [92] RADIO
[20:02:26.969952] [92] RADIO_STATUS
[20:02:27.096406] [145] HEARTBEAT
[20:02:27.101771] [146] SYS_STATUS
[20:02:27.257802] [149] VFR_HUD
[20:02:27.887062] [150] VFR_HUD
[20:02:27.913882] [93] RADIO
[20:02:27.916986] [93] RADIO_STATUS
[20:02:28.111917] [151] HEARTBEAT
[20:02:28.696888] [152] VFR_HUD
[20:02:28.921098] [94] RADIO
[20:02:28.923947] [94] RADIO_STATUS
[20:02:29.165049] [153] HEARTBEAT
[20:02:29.173047] [154] ATTITUDE_TARGET
[20:02:29.496017] [155] VFR_HUD
[20:02:30.065111] [95] RADIO
[20:02:30.068253] [95] RADIO_STATUS
[20:02:30.191212] [156] HEARTBEAT
[20:02:30.311274] [157] VFR_HUD
[20:02:30.985447] [96] RADIO
[20:02:30.987282] [96] RADIO_STATUS
[20:02:31.031357] [158] HEARTBEAT
[20:02:31.038295] [159] SYS_STATUS
[20:02:31.069451] [160] BATTERY_STATUS
[20:02:31.071257] [161] EXTENDED_SYS_STATE
[20:02:31.079290] [162] ATTITUDE_TARGET
[20:02:31.084360] [163] VFR_HUD
[20:02:31.087455] [164] SYSTEM_TIME
[20:02:31.919753] [165] VFR_HUD
[20:02:32.031470] [166] HEARTBEAT
[20:02:32.056446] [97] RADIO
[20:02:32.059376] [97] RADIO_STATUS
[20:02:32.714499] [167] VFR_HUD
[20:02:32.949494] [98] RADIO
[20:02:32.951628] [98] RADIO_STATUS
[20:02:33.073761] [168] HEARTBEAT
[20:02:33.080681] [169] ATTITUDE_TARGET
[20:02:33.528519] [170] VFR_HUD
[20:02:33.972647] [99] RADIO
[20:02:33.975799] [99] RADIO_STATUS
[20:02:34.088650] [171] HEARTBEAT
[20:02:34.323859] [172] VFR_HUD
[20:02:35.014031] [173] HEARTBEAT
[20:02:35.037783] [174] SYS_STATUS
[20:02:35.081774] [100] RADIO
[20:02:35.085941] [100] RADIO_STATUS
[20:02:36.041930] [101] RADIO
[20:02:36.044942] [101] RADIO_STATUS
[20:02:36.087067] [178] VFR_HUD
[20:02:36.088970] [179] HEARTBEAT
[20:02:36.743084] [180] VFR_HUD
[20:02:36.962146] [102] RADIO
[20:02:36.965020] [102] RADIO_STATUS
[20:02:37.092105] [181] HEARTBEAT
[20:02:37.101944] [182] ATTITUDE_TARGET
[20:02:37.438469] [183] VFR_HUD
[20:02:38.007157] [103] RADIO
[20:02:38.010118] [103] RADIO_STATUS
[20:02:38.123463] [184] HEARTBEAT
[20:02:38.232266] [185] VFR_HUD
[20:02:39.031343] [104] RADIO
[20:02:39.034317] [104] RADIO_STATUS
[20:02:39.090579] [186] HEARTBEAT
[20:02:39.097319] [187] SYS_STATUS
[20:02:39.105978] [188] BATTERY_STATUS
[20:02:39.117322] [189] ATTITUDE_TARGET
[20:02:39.122487] [190] VFR_HUD
[20:02:39.841451] [191] VFR_HUD
[20:02:40.066536] [192] HEARTBEAT
[20:02:40.098494] [105] RADIO
[20:02:40.101735] [105] RADIO_STATUS
[20:02:40.655812] [193] VFR_HUD
[20:02:40.994679] [106] RADIO
[20:02:40.998809] [106] RADIO_STATUS
[20:02:41.124897] [194] HEARTBEAT
[20:02:41.132628] [195] ATTITUDE_TARGET
[20:02:42.019822] [107] RADIO
[20:02:42.024882] [107] RADIO_STATUS
[20:02:42.054163] [197] HEARTBEAT
[20:02:42.259796] [198] VFR_HUD
[20:02:43.086971] [108] RADIO
[20:02:43.089896] [108] RADIO_STATUS
[20:02:43.194003] [201] BATTERY_STATUS
[20:02:43.426031] [202] ATTITUDE_TARGET
[20:02:43.430959] [203] VFR_HUD
[20:02:43.870069] [204] VFR_HUD
[20:02:44.089758] [109] RADIO
[20:02:44.092127] [109] RADIO_STATUS
[20:02:44.123236] [205] HEARTBEAT
[20:02:44.669239] [206] VFR_HUD
[20:02:45.008223] [110] RADIO
[20:02:45.011405] [110] RADIO_STATUS
[20:02:45.139056] [207] HEARTBEAT
[20:02:45.146536] [208] ATTITUDE_TARGET
[20:02:45.479313] [209] VFR_HUD
[20:02:46.053771] [210] HEARTBEAT
[20:02:46.075597] [111] RADIO
[20:02:46.078410] [111] RADIO_STATUS
[20:02:46.278375] [211] VFR_HUD
[20:02:47.077463] [112] RADIO
[20:02:47.085939] [112] RADIO_STATUS
[20:02:47.563618] [215] ATTITUDE_TARGET
[20:02:47.568780] [216] VFR_HUD
[20:02:47.887971] [217] VFR_HUD
[20:02:47.996633] [113] RADIO
[20:02:47.999681] [113] RADIO_STATUS
[20:02:48.113637] [218] HEARTBEAT
[20:02:48.702749] [219] VFR_HUD
[20:02:49.146821] [114] RADIO
[20:02:49.149856] [114] RADIO_STATUS
[20:02:49.193816] [220] HEARTBEAT
[20:02:49.202185] [221] ATTITUDE_TARGET
[20:02:50.066662] [115] RADIO
[20:02:50.069067] [115] RADIO_STATUS
[20:02:50.181993] [223] HEARTBEAT
[20:02:50.311962] [224] VFR_HUD
[20:02:51.114089] [225] HEARTBEAT
[20:02:51.120104] [226] SYS_STATUS
[20:02:51.215051] [116] RADIO
[20:02:51.218179] [116] RADIO_STATUS
[20:02:51.279346] [227] BATTERY_STATUS
[20:02:51.281177] [228] EXTENDED_SYS_STATE
[20:02:51.289086] [229] ATTITUDE_TARGET
[20:02:51.294425] [230] VFR_HUD
[20:02:51.297117] [231] SYSTEM_TIME
[20:02:51.921401] [232] VFR_HUD
[20:02:52.032231] [233] HEARTBEAT
[20:02:52.058192] [117] RADIO
[20:02:52.061201] [117] RADIO_STATUS
[20:02:52.715253] [234] VFR_HUD
[20:02:53.054631] [118] RADIO
[20:02:53.057288] [118] RADIO_STATUS
[20:02:53.309618] [235] HEARTBEAT
[20:02:53.316538] [236] ATTITUDE_TARGET
[20:02:53.524743] [237] VFR_HUD
[20:02:54.099619] [238] HEARTBEAT
[20:02:54.203802] [119] RADIO
[20:02:54.206739] [119] RADIO_STATUS
[20:02:54.335665] [239] VFR_HUD
[20:02:55.123670] [120] RADIO
[20:02:55.126613] [120] RADIO_STATUS
[20:02:55.153408] [240] HEARTBEAT
[20:02:55.187741] [241] SYS_STATUS
[20:02:55.194746] [242] BATTERY_STATUS
[20:02:55.218391] [243] ATTITUDE_TARGET
[20:02:55.218587] [244] VFR_HUD
[20:02:55.828716] [245] VFR_HUD
[20:02:56.049836] [246] HEARTBEAT
[20:02:56.162751] [121] RADIO
[20:02:56.165787] [121] RADIO_STATUS
[20:02:56.623843] [247] VFR_HUD
[20:02:57.092917] [248] HEARTBEAT
[20:02:57.099994] [249] ATTITUDE_TARGET
[20:02:57.191968] [122] RADIO
[20:02:57.194869] [122] RADIO_STATUS
[20:02:57.437997] [250] VFR_HUD
[20:02:58.112189] [123] RADIO
[20:02:58.115019] [123] RADIO_STATUS
[20:02:58.356197] [251] HEARTBEAT
[20:02:58.361158] [252] VFR_HUD
[20:02:59.057807] [253] HEARTBEAT
[20:02:59.061293] [254] SYS_STATUS
[20:02:59.101579] [255] BATTERY_STATUS
[20:02:59.109275] [0] ATTITUDE_TARGET
[20:02:59.114205] [1] VFR_HUD
[20:02:59.153193] [124] RADIO
[20:02:59.154308] [124] RADIO_STATUS
[20:03:00.180334] [125] RADIO
[20:03:00.183365] [125] RADIO_STATUS
[20:03:00.306530] [2] VFR_HUD
[20:03:00.309521] [3] HEARTBEAT
[20:03:00.651426] [4] VFR_HUD
[20:03:01.100608] [126] RADIO
[20:03:01.105955] [126] RADIO_STATUS
[20:03:01.149434] [5] HEARTBEAT
[20:03:01.156629] [6] ATTITUDE_TARGET
[20:03:01.450635] [7] VFR_HUD
[20:03:02.031681] [8] HEARTBEAT
[20:03:02.142439] [127] RADIO
[20:03:02.142742] [127] RADIO_STATUS
[20:03:02.260672] [9] VFR_HUD
[20:03:03.067825] [10] HEARTBEAT
[20:03:03.074987] [11] SYS_STATUS
[20:03:03.089970] [128] RADIO
[20:03:03.090850] [128] RADIO_STATUS
[20:03:03.194788] [12] BATTERY_STATUS
[20:03:03.869890] [15] VFR_HUD
[20:03:04.088903] [129] RADIO
[20:03:04.091926] [129] RADIO_STATUS
[20:03:04.123066] [16] HEARTBEAT
[20:03:04.681020] [17] VFR_HUD
[20:03:05.034320] [18] HEARTBEAT
[20:03:05.042038] [19] ATTITUDE_TARGET
[20:03:05.134079] [130] RADIO
[20:03:05.137848] [130] RADIO_STATUS
[20:03:05.479205] [20] VFR_HUD
[20:03:06.045216] [21] HEARTBEAT
[20:03:06.158255] [131] RADIO
[20:03:06.162059] [131] RADIO_STATUS
[20:03:06.279245] [22] VFR_HUD
[20:03:07.101791] [23] HEARTBEAT
[20:03:07.108770] [24] SYS_STATUS
[20:03:07.147588] [25] BATTERY_STATUS
[20:03:07.155605] [26] ATTITUDE_TARGET
[20:03:07.160375] [27] VFR_HUD
[20:03:07.203650] [132] RADIO
[20:03:07.206407] [132] RADIO_STATUS
[20:03:08.124726] [28] VFR_HUD
[20:03:08.127709] [29] HEARTBEAT
[20:03:08.227552] [133] RADIO
[20:03:08.230532] [133] RADIO_STATUS
[20:03:08.703821] [30] VFR_HUD
[20:03:09.146688] [134] RADIO
[20:03:09.149676] [134] RADIO_STATUS
[20:03:09.194734] [31] HEARTBEAT
[20:03:09.202790] [32] ATTITUDE_TARGET
[20:03:09.497704] [33] VFR_HUD
[20:03:10.072828] [34] HEARTBEAT
[20:03:10.296806] [135] RADIO
[20:03:10.299846] [135] RADIO_STATUS
[20:03:10.346894] [35] VFR_HUD
[20:03:11.114047] [36] HEARTBEAT
[20:03:11.120957] [37] SYS_STATUS
[20:03:11.134221] [136] RADIO
[20:03:11.137072] [136] RADIO_STATUS
[20:03:11.243938] [38] BATTERY_STATUS
[20:03:11.245904] [39] EXTENDED_SYS_STATE
[20:03:11.277954] [40] ATTITUDE_TARGET
[20:03:11.284581] [41] VFR_HUD
[20:03:11.285963] [42] SYSTEM_TIME
[20:03:11.916158] [43] VFR_HUD
[20:03:12.022002] [44] HEARTBEAT
[20:03:12.136142] [137] RADIO
[20:03:12.139212] [137] RADIO_STATUS
[20:03:12.716535] [45] VFR_HUD
[20:03:13.075518] [46] HEARTBEAT
[20:03:13.083193] [47] ATTITUDE_TARGET
[20:03:13.203332] [138] RADIO
[20:03:13.206356] [138] RADIO_STATUS
[20:03:13.526250] [48] VFR_HUD
[20:03:14.091425] [49] HEARTBEAT
[20:03:14.204503] [139] RADIO
[20:03:14.209943] [139] RADIO_STATUS
[20:03:14.243346] [50] VFR_HUD
[20:03:15.013787] [51] HEARTBEAT
[20:03:15.030460] [52] SYS_STATUS
[20:03:15.143445] [53] BATTERY_STATUS
[20:03:15.261519] [54] ATTITUDE_TARGET
[20:03:15.266540] [55] VFR_HUD
[20:03:15.300594] [140] RADIO
[20:03:15.305992] [140] RADIO_STATUS
[20:03:15.829544] [56] VFR_HUD
[20:03:16.059694] [57] HEARTBEAT
[20:03:16.163571] [141] RADIO
[20:03:16.166579] [141] RADIO_STATUS
[20:03:16.624709] [58] VFR_HUD
[20:03:17.192670] [142] RADIO
[20:03:17.195633] [142] RADIO_STATUS
[20:03:17.322808] [59] HEARTBEAT
[20:03:17.330705] [60] ATTITUDE_TARGET
[20:03:17.438775] [61] VFR_HUD
[20:03:18.121500] [62] HEARTBEAT
[20:03:18.345930] [143] RADIO
[20:03:18.346121] [143] RADIO_STATUS
[20:03:19.050038] [64] HEARTBEAT
[20:03:19.057195] [65] SYS_STATUS
[20:03:19.176158] [66] BATTERY_STATUS
[20:03:19.184180] [67] ATTITUDE_TARGET
[20:03:19.213977] [68] VFR_HUD
[20:03:19.236127] [144] RADIO
[20:03:19.239138] [144] RADIO_STATUS
[20:03:19.842483] [69] VFR_HUD
[20:03:20.069979] [70] HEARTBEAT
[20:03:20.181123] [145] RADIO
[20:03:20.184261] [145] RADIO_STATUS
[20:03:21.121586] [72] HEARTBEAT
[20:03:21.128285] [73] ATTITUDE_TARGET
[20:03:21.331304] [146] RADIO
[20:03:21.337518] [146] RADIO_STATUS
[20:03:21.453980] [74] VFR_HUD
[20:03:22.032506] [75] HEARTBEAT
[20:03:22.250593] [147] RADIO
[20:03:22.253485] [147] RADIO_STATUS
[20:03:22.371593] [76] VFR_HUD
[20:03:23.068752] [77] HEARTBEAT
[20:03:23.075698] [78] SYS_STATUS
[20:03:23.190837] [79] BATTERY_STATUS
[20:03:23.307658] [80] ATTITUDE_TARGET
[20:03:23.312585] [81] VFR_HUD
[20:03:23.318884] [148] RADIO
[20:03:23.320685] [148] RADIO_STATUS
[20:03:23.870807] [82] VFR_HUD
[20:03:24.102035] [83] HEARTBEAT
[20:03:24.209734] [149] RADIO
[20:03:24.212691] [149] RADIO_STATUS
[20:03:24.671140] [84] VFR_HUD
[20:03:25.035098] [85] HEARTBEAT
[20:03:25.043023] [86] ATTITUDE_TARGET
[20:03:25.239935] [150] RADIO
[20:03:25.242867] [150] RADIO_STATUS
[20:03:25.484983] [87] VFR_HUD
[20:03:26.046013] [88] HEARTBEAT
[20:03:26.291287] [89] VFR_HUD
[20:03:26.388045] [151] RADIO
[20:03:26.391065] [151] RADIO_STATUS
[20:03:27.102058] [90] HEARTBEAT
[20:03:27.108170] [91] SYS_STATUS
[20:03:27.148238] [92] BATTERY_STATUS
[20:03:27.156276] [93] ATTITUDE_TARGET
[20:03:27.160160] [94] VFR_HUD
[20:03:27.203300] [152] RADIO
[20:03:27.206254] [152] RADIO_STATUS
[20:03:28.014196] [95] VFR_HUD
[20:03:28.125333] [96] HEARTBEAT
[20:03:28.227211] [153] RADIO
[20:03:28.230199] [153] RADIO_STATUS
[20:03:28.703348] [97] VFR_HUD
[20:03:29.047339] [98] HEARTBEAT
[20:03:29.055354] [99] ATTITUDE_TARGET
[20:03:29.270030] [154] RADIO
[20:03:29.272218] [154] RADIO_STATUS
[20:03:29.498448] [100] VFR_HUD
[20:03:30.078498] [101] HEARTBEAT
[20:03:30.297604] [155] RADIO
[20:03:30.299568] [155] RADIO_STATUS
[20:03:31.216717] [156] RADIO
[20:03:31.219720] [156] RADIO_STATUS
[20:03:31.280734] [105] BATTERY_STATUS
[20:03:31.282645] [106] EXTENDED_SYS_STATE
[20:03:31.290720] [107] ATTITUDE_TARGET
[20:03:31.296152] [108] VFR_HUD
[20:03:31.298638] [109] SYSTEM_TIME
[20:03:31.916741] [110] VFR_HUD
[20:03:32.022835] [111] HEARTBEAT
[20:03:32.260790] [157] RADIO
[20:03:32.263900] [157] RADIO_STATUS
[20:03:32.716985] [112] VFR_HUD
[20:03:33.075964] [113] HEARTBEAT
[20:03:33.083902] [114] ATTITUDE_TARGET
[20:03:33.285988] [158] RADIO
[20:03:33.288987] [158] RADIO_STATUS
[20:03:33.526150] [115] VFR_HUD
[20:03:34.092061] [116] HEARTBEAT
[20:03:34.221089] [117] VFR_HUD
[20:03:34.342230] [159] RADIO
[20:03:34.345213] [159] RADIO_STATUS
[20:03:35.145222] [120] BATTERY_STATUS
[20:03:35.262246] [121] ATTITUDE_TARGET
[20:03:35.268050] [122] VFR_HUD
[20:03:35.302331] [160] RADIO
[20:03:35.304335] [160] RADIO_STATUS
[20:03:35.831254] [123] VFR_HUD
[20:03:36.051852] [124] HEARTBEAT
[20:03:36.274349] [161] RADIO
[20:03:36.277266] [161] RADIO_STATUS
[20:03:36.625336] [125] VFR_HUD
[20:03:37.218993] [126] HEARTBEAT
[20:03:37.226412] [127] ATTITUDE_TARGET
[20:03:37.424637] [162] RADIO
[20:03:37.427396] [162] RADIO_STATUS
[20:03:37.544476] [128] VFR_HUD
[20:03:38.119867] [129] HEARTBEAT
[20:03:38.234999] [130] VFR_HUD
[20:03:38.266762] [163] RADIO
[20:03:38.269938] [163] RADIO_STATUS
[20:03:39.051869] [131] HEARTBEAT
[20:03:39.058780] [132] SYS_STATUS
[20:03:39.176747] [133] BATTERY_STATUS
[20:03:39.185036] [134] ATTITUDE_TARGET
[20:03:39.214736] [135] VFR_HUD
[20:03:39.388941] [164] RADIO
[20:03:39.391715] [164] RADIO_STATUS
[20:03:39.843798] [136] VFR_HUD
[20:03:40.069890] [137] HEARTBEAT
[20:03:40.308838] [165] RADIO
[20:03:40.310858] [165] RADIO_STATUS
[20:03:40.654089] [138] VFR_HUD
[20:03:41.123076] [139] HEARTBEAT
[20:03:41.130981] [140] ATTITUDE_TARGET
[20:03:41.333225] [166] RADIO
[20:03:41.336254] [166] RADIO_STATUS
[20:03:41.453261] [141] VFR_HUD
[20:03:42.028248] [142] HEARTBEAT
[20:03:42.263155] [143] VFR_HUD
[20:03:42.381795] [167] RADIO
[20:03:42.381934] [167] RADIO_STATUS
[20:03:43.191351] [146] BATTERY_STATUS
[20:03:43.309343] [147] ATTITUDE_TARGET
[20:03:43.314254] [148] VFR_HUD
[20:03:43.320565] [168] RADIO
[20:03:43.322286] [168] RADIO_STATUS
[20:03:43.877363] [149] VFR_HUD
[20:03:44.097586] [150] HEARTBEAT
[20:03:44.321600] [169] RADIO
[20:03:44.324420] [169] RADIO_STATUS
[20:03:44.672518] [151] VFR_HUD
[20:03:45.036492] [152] HEARTBEAT
[20:03:45.045964] [153] ATTITUDE_TARGET
[20:03:45.361675] [170] RADIO
[20:03:45.364559] [170] RADIO_STATUS
[20:03:45.486793] [154] VFR_HUD
[20:03:46.047777] [155] HEARTBEAT
[20:03:46.281814] [156] VFR_HUD
[20:03:46.391099] [171] RADIO
[20:03:46.393750] [171] RADIO_STATUS
[20:03:47.103817] [157] HEARTBEAT
[20:03:47.113831] [158] SYS_STATUS
[20:03:47.149856] [159] BATTERY_STATUS
[20:03:47.157987] [160] ATTITUDE_TARGET
[20:03:47.162806] [161] VFR_HUD
[20:03:47.435956] [172] RADIO
[20:03:47.438872] [172] RADIO_STATUS
[20:03:48.022096] [162] VFR_HUD
[20:03:48.025274] [163] HEARTBEAT
[20:03:48.350054] [173] RADIO
[20:03:48.354144] [173] RADIO_STATUS
[20:03:48.701155] [164] VFR_HUD
[20:03:49.050234] [165] HEARTBEAT
[20:03:49.058123] [166] ATTITUDE_TARGET
[20:03:49.380225] [174] RADIO
[20:03:49.382172] [174] RADIO_STATUS
[20:03:49.500239] [167] VFR_HUD
[20:03:50.081425] [168] HEARTBEAT
[20:03:50.310211] [169] VFR_HUD
[20:03:50.419444] [175] RADIO
[20:03:50.422431] [175] RADIO_STATUS
[20:03:51.245850] [172] BATTERY_STATUS
[20:03:51.245983] [173] EXTENDED_SYS_STATE
[20:03:51.362420] [174] ATTITUDE_TARGET
[20:03:51.367437] [175] VFR_HUD
[20:03:51.371371] [176] SYSTEM_TIME
[20:03:51.401063] [176] RADIO
[20:03:51.405740] [176] RADIO_STATUS
[20:03:51.922533] [177] VFR_HUD
[20:03:52.024658] [178] HEARTBEAT
[20:03:52.368549] [177] RADIO
[20:03:52.371595] [177] RADIO_STATUS
[20:03:52.614518] [179] VFR_HUD
[20:03:53.082681] [180] HEARTBEAT
[20:03:53.090622] [181] ATTITUDE_TARGET
[20:03:53.407628] [178] RADIO
[20:03:53.410609] [178] RADIO_STATUS
[20:03:53.528661] [182] VFR_HUD
[20:03:54.093762] [183] HEARTBEAT
[20:03:54.226111] [184] VFR_HUD
[20:03:54.441741] [179] RADIO
[20:03:54.441893] [179] RADIO_STATUS
[20:03:55.476961] [180] RADIO
[20:03:55.479875] [180] RADIO_STATUS
[20:03:55.827955] [190] VFR_HUD
[20:03:56.054414] [191] HEARTBEAT
[20:03:56.507027] [181] RADIO
[20:03:56.509071] [181] RADIO_STATUS
[20:03:56.627066] [192] VFR_HUD
[20:03:57.096167] [193] HEARTBEAT
[20:03:57.104322] [194] ATTITUDE_TARGET
[20:03:57.426303] [182] RADIO
[20:03:57.429143] [182] RADIO_STATUS
[20:03:57.547169] [195] VFR_HUD
[20:03:58.122609] [196] HEARTBEAT
[20:03:58.236468] [197] VFR_HUD
[20:03:58.465289] [183] RADIO
[20:03:58.468395] [183] RADIO_STATUS
[20:03:59.053434] [198] HEARTBEAT
[20:03:59.060387] [199] SYS_STATUS
[20:03:59.179379] [200] BATTERY_STATUS
[20:03:59.186497] [201] ATTITUDE_TARGET
[20:03:59.217413] [202] VFR_HUD
[20:03:59.495466] [184] RADIO
[20:03:59.498397] [184] RADIO_STATUS
[20:04:00.080501] [204] HEARTBEAT
[20:04:00.414608] [185] RADIO
[20:04:00.417559] [185] RADIO_STATUS
[20:04:00.655768] [205] VFR_HUD
[20:04:01.124618] [206] HEARTBEAT
[20:04:01.131633] [207] ATTITUDE_TARGET
[20:04:01.466985] [208] VFR_HUD
[20:04:01.563622] [186] RADIO
[20:04:01.566760] [186] RADIO_STATUS
[20:04:02.028841] [209] HEARTBEAT
[20:04:02.269967] [210] VFR_HUD
[20:04:02.482875] [187] RADIO
[20:04:02.489937] [187] RADIO_STATUS
[20:04:03.191988] [213] BATTERY_STATUS
[20:04:03.309986] [214] ATTITUDE_TARGET
[20:04:03.315027] [215] VFR_HUD
[20:04:03.408026] [188] RADIO
[20:04:03.410996] [188] RADIO_STATUS
[20:04:03.878031] [216] VFR_HUD
[20:04:04.098076] [217] HEARTBEAT
[20:04:04.447135] [189] RADIO
[20:04:04.453920] [189] RADIO_STATUS
[20:04:04.673433] [218] VFR_HUD
[20:04:05.018614] [219] HEARTBEAT
[20:04:05.040433] [220] ATTITUDE_TARGET
[20:04:05.472025] [190] RADIO
[20:04:05.474472] [190] RADIO_STATUS
[20:04:06.047384] [222] HEARTBEAT
[20:04:06.282413] [223] VFR_HUD
[20:04:06.516449] [191] RADIO
[20:04:06.519471] [191] RADIO_STATUS
[20:04:07.098491] [224] HEARTBEAT
[20:04:07.105774] [225] SYS_STATUS
[20:04:07.262522] [228] VFR_HUD
[20:04:07.435620] [192] RADIO
[20:04:07.438763] [192] RADIO_STATUS
[20:04:07.891711] [229] VFR_HUD
[20:04:08.011635] [230] HEARTBEAT
[20:04:08.460745] [193] RADIO
[20:04:08.463674] [193] RADIO_STATUS
[20:04:08.700786] [231] VFR_HUD
[20:04:09.049985] [232] HEARTBEAT
[20:04:09.057899] [233] ATTITUDE_TARGET
[20:04:09.500908] [234] VFR_HUD
[20:04:09.533044] [194] RADIO
[20:04:09.536026] [194] RADIO_STATUS
[20:04:10.081969] [235] HEARTBEAT
[20:04:10.310949] [236] VFR_HUD
[20:04:10.530156] [195] RADIO
[20:04:10.533133] [195] RADIO_STATUS
[20:04:11.450270] [196] RADIO
[20:04:11.452336] [196] RADIO_STATUS
[20:04:11.920355] [244] VFR_HUD
[20:04:12.025275] [245] HEARTBEAT
[20:04:12.494632] [197] RADIO
[20:04:12.497212] [197] RADIO_STATUS
[20:04:12.615275] [246] VFR_HUD
[20:04:13.086080] [247] HEARTBEAT
[20:04:13.091370] [248] ATTITUDE_TARGET
[20:04:13.518479] [198] RADIO
[20:04:13.521843] [198] RADIO_STATUS
[20:04:13.557453] [249] VFR_HUD
[20:04:14.094556] [250] HEARTBEAT
[20:04:14.218697] [251] VFR_HUD
[20:04:14.563561] [199] RADIO
[20:04:14.567151] [199] RADIO_STATUS
[20:04:15.014664] [252] HEARTBEAT
[20:04:15.034801] [253] SYS_STATUS
[20:04:15.082795] [254] BATTERY_STATUS
[20:04:15.090713] [255] ATTITUDE_TARGET
[20:04:15.095641] [0] VFR_HUD
[20:04:15.479719] [200] RADIO
[20:04:15.482779] [200] RADIO_STATUS
[20:04:16.070983] [1] VFR_HUD
[20:04:16.074387] [2] HEARTBEAT
[20:04:16.509177] [201] RADIO
[20:04:16.511849] [201] RADIO_STATUS
[20:04:16.629878] [3] VFR_HUD
[20:04:17.224175] [4] HEARTBEAT
[20:04:17.230976] [5] ATTITUDE_TARGET
[20:04:17.440829] [6] VFR_HUD
[20:04:17.549179] [202] RADIO
[20:04:17.552126] [202] RADIO_STATUS
[20:04:18.130235] [7] HEARTBEAT
[20:04:18.239661] [8] VFR_HUD
[20:04:18.581851] [203] RADIO
[20:04:18.582044] [203] RADIO_STATUS
[20:04:19.056443] [9] HEARTBEAT
[20:04:19.063243] [10] SYS_STATUS
[20:04:19.498300] [204] RADIO
[20:04:19.501523] [204] RADIO_STATUS
[20:04:19.848538] [14] VFR_HUD
[20:04:20.074547] [15] HEARTBEAT
[20:04:20.647526] [205] RADIO
[20:04:20.650527] [205] RADIO_STATUS
[20:04:20.686515] [16] VFR_HUD
[20:04:21.127589] [17] HEARTBEAT
[20:04:21.135839] [18] ATTITUDE_TARGET
[20:04:21.459387] [19] VFR_HUD
[20:04:21.569791] [206] RADIO
[20:04:21.570535] [206] RADIO_STATUS
[20:04:22.032853] [20] HEARTBEAT
[20:04:22.272876] [21] VFR_HUD
[20:04:22.607046] [207] RADIO
[20:04:22.609760] [207] RADIO_STATUS
[20:04:23.074930] [22] HEARTBEAT
[20:04:23.081877] [23] SYS_STATUS
[20:04:23.202035] [24] BATTERY_STATUS
[20:04:23.313915] [25] ATTITUDE_TARGET
[20:04:23.318909] [26] VFR_HUD
[20:04:23.526925] [208] RADIO
[20:04:23.529902] [208] RADIO_STATUS
[20:04:23.987098] [27] VFR_HUD
[20:04:24.103379] [28] HEARTBEAT
[20:04:24.556404] [209] RADIO
[20:04:24.559170] [209] RADIO_STATUS
[20:04:24.677266] [29] VFR_HUD
[20:04:25.036256] [30] HEARTBEAT
[20:04:25.044388] [31] ATTITUDE_TARGET
[20:04:25.490196] [32] VFR_HUD
[20:04:25.596227] [210] RADIO
[20:04:25.598422] [210] RADIO_STATUS
[20:04:26.052393] [33] HEARTBEAT
[20:04:26.625288] [211] RADIO
[20:04:26.628266] [211] RADIO_STATUS
[20:04:27.103524] [35] HEARTBEAT
[20:04:27.109408] [36] SYS_STATUS
[20:04:27.544494] [212] RADIO
[20:04:27.547479] [212] RADIO_STATUS
[20:04:27.906640] [40] VFR_HUD
[20:04:28.010761] [41] HEARTBEAT
[20:04:28.589648] [213] RADIO
[20:04:28.592775] [213] RADIO_STATUS
[20:04:28.704604] [42] VFR_HUD
[20:04:29.054804] [43] HEARTBEAT
[20:04:29.061677] [44] ATTITUDE_TARGET
[20:04:29.504882] [45] VFR_HUD
[20:04:29.613725] [214] RADIO
[20:04:29.616826] [214] RADIO_STATUS
[20:04:30.079851] [46] HEARTBEAT
[20:04:30.314842] [47] VFR_HUD
[20:04:30.654174] [215] RADIO
[20:04:30.656948] [215] RADIO_STATUS
[20:04:31.122261] [48] HEARTBEAT
[20:04:31.128997] [49] SYS_STATUS
[20:04:31.246019] [50] BATTERY_STATUS
[20:04:31.247981] [51] EXTENDED_SYS_STATE
[20:04:31.578118] [216] RADIO
[20:04:31.581001] [216] RADIO_STATUS
[20:04:32.050312] [56] HEARTBEAT
[20:04:32.603392] [217] RADIO
[20:04:32.606254] [217] RADIO_STATUS
[20:04:32.723305] [57] VFR_HUD
[20:04:33.413364] [60] VFR_HUD
[20:04:33.647369] [218] RADIO
[20:04:33.650522] [218] RADIO_STATUS
[20:04:34.098474] [61] HEARTBEAT
[20:04:34.222565] [62] VFR_HUD
[20:04:34.567653] [219] RADIO
[20:04:34.570607] [219] RADIO_STATUS
[20:04:35.018743] [63] HEARTBEAT
[20:04:35.038751] [64] SYS_STATUS
[20:04:35.086708] [65] BATTERY_STATUS
[20:04:35.094568] [66] ATTITUDE_TARGET
[20:04:35.099667] [67] VFR_HUD
[20:04:35.593602] [220] RADIO
[20:04:35.596545] [220] RADIO_STATUS
[20:04:35.837766] [68] VFR_HUD
[20:04:36.064683] [69] HEARTBEAT
[20:04:36.633981] [70] VFR_HUD
[20:04:36.742700] [221] RADIO
[20:04:36.745792] [221] RADIO_STATUS
[20:04:37.222023] [71] HEARTBEAT
[20:04:37.229786] [72] ATTITUDE_TARGET
[20:04:37.442898] [73] VFR_HUD
[20:04:37.661831] [222] RADIO
[20:04:37.664799] [222] RADIO_STATUS
[20:04:38.018300] [74] HEARTBEAT
[20:04:38.254140] [75] VFR_HUD
[20:04:38.587185] [223] RADIO
[20:04:38.590057] [223] RADIO_STATUS
[20:04:39.065837] [76] HEARTBEAT
[20:04:39.072297] [77] SYS_STATUS
[20:04:39.111139] [78] BATTERY_STATUS
[20:04:39.119268] [79] ATTITUDE_TARGET
[20:04:39.124040] [80] VFR_HUD
[20:04:39.623232] [224] RADIO
[20:04:39.626066] [224] RADIO_STATUS
[20:04:40.089256] [81] VFR_HUD
[20:04:40.092170] [82] HEARTBEAT
[20:04:40.652361] [225] RADIO
[20:04:40.655473] [225] RADIO_STATUS
[20:04:40.691253] [83] VFR_HUD
[20:04:41.159481] [84] HEARTBEAT
[20:04:41.167478] [85] ATTITUDE_TARGET
[20:04:41.463361] [86] VFR_HUD
[20:04:41.801936] [226] RADIO
[20:04:41.804465] [226] RADIO_STATUS
[20:04:42.038543] [87] HEARTBEAT
[20:04:42.382485] [88] VFR_HUD
[20:04:42.610523] [227] RADIO
[20:04:42.613571] [227] RADIO_STATUS
[20:04:43.078669] [89] HEARTBEAT
[20:04:43.085955] [90] SYS_STATUS
[20:04:43.205699] [91] BATTERY_STATUS
[20:04:43.640633] [228] RADIO
[20:04:43.643698] [228] RADIO_STATUS
[20:04:43.880994] [94] VFR_HUD
[20:04:44.111763] [95] HEARTBEAT
[20:04:44.707766] [229] RADIO
[20:04:44.710706] [229] RADIO_STATUS
[20:04:45.039925] [97] HEARTBEAT
[20:04:45.047772] [98] ATTITUDE_TARGET
[20:04:45.490857] [99] VFR_HUD
[20:04:45.709866] [230] RADIO
[20:04:45.712797] [230] RADIO_STATUS
[20:04:46.055997] [100] HEARTBEAT
[20:04:46.302151] [101] VFR_HUD
[20:04:46.628986] [231] RADIO
[20:04:46.632018] [231] RADIO_STATUS
[20:04:47.107097] [102] HEARTBEAT
[20:04:47.114144] [103] SYS_STATUS
[20:04:47.237880] [104] BATTERY_STATUS
[20:04:47.240136] [105] ATTITUDE_TARGET
[20:04:47.271326] [106] VFR_HUD
[20:04:47.669388] [232] RADIO
[20:04:47.672618] [232] RADIO_STATUS
[20:04:47.899223] [107] VFR_HUD
[20:04:48.015224] [108] HEARTBEAT
[20:04:48.698196] [233] RADIO
[20:04:48.701403] [233] RADIO_STATUS
[20:04:48.737321] [109] VFR_HUD
[20:04:49.738518] [234] RADIO
[20:04:49.741428] [234] RADIO_STATUS
[20:04:50.083563] [113] HEARTBEAT
[20:04:50.428487] [114] VFR_HUD
[20:04:50.657484] [235] RADIO
[20:04:50.660449] [235] RADIO_STATUS
[20:04:51.125615] [115] HEARTBEAT
[20:04:51.132581] [116] SYS_STATUS
[20:04:51.249658] [117] BATTERY_STATUS
[20:04:51.254000] [118] EXTENDED_SYS_STATE
[20:04:51.686932] [236] RADIO
[20:04:51.689916] [236] RADIO_STATUS
[20:04:51.932768] [122] VFR_HUD
[20:04:52.044725] [123] HEARTBEAT
[20:04:52.727761] [124] VFR_HUD
[20:04:52.757821] [237] RADIO
[20:04:52.760706] [237] RADIO_STATUS
[20:04:53.087026] [125] HEARTBEAT
[20:04:53.093915] [126] ATTITUDE_TARGET
[20:04:53.417171] [127] VFR_HUD
[20:04:53.756018] [238] RADIO
[20:04:53.758930] [238] RADIO_STATUS
[20:04:54.102262] [128] HEARTBEAT
[20:04:54.226348] [129] VFR_HUD
[20:04:54.675154] [239] RADIO
[20:04:54.678108] [239] RADIO_STATUS
[20:04:55.155583] [132] BATTERY_STATUS
[20:04:55.715248] [240] RADIO
[20:04:55.718378] [240] RADIO_STATUS
[20:04:55.835437] [135] VFR_HUD
[20:04:56.066451] [136] HEARTBEAT
[20:04:56.636028] [137] VFR_HUD
[20:04:56.744400] [241] RADIO
[20:04:56.747365] [241] RADIO_STATUS
[20:04:57.223532] [138] HEARTBEAT
[20:04:57.231454] [139] ATTITUDE_TARGET
[20:04:57.450746] [140] VFR_HUD
[20:04:57.783659] [242] RADIO
[20:04:57.786637] [242] RADIO_STATUS
[20:04:58.010690] [141] HEARTBEAT
[20:04:58.244560] [142] VFR_HUD
[20:04:58.708672] [243] RADIO
[20:04:58.711636] [243] RADIO_STATUS
[20:04:59.066823] [143] HEARTBEAT
[20:04:59.074120] [144] SYS_STATUS
[20:04:59.112723] [145] BATTERY_STATUS
[20:04:59.120678] [146] ATTITUDE_TARGET
[20:04:59.125717] [147] VFR_HUD
[20:04:59.733009] [244] RADIO
[20:04:59.738011] [244] RADIO_STATUS
[20:05:00.207916] [148] VFR_HUD
[20:05:00.210849] [149] HEARTBEAT
[20:05:00.789205] [245] RADIO
[20:05:00.792052] [245] RADIO_STATUS
[20:05:01.136975] [151] HEARTBEAT
[20:05:01.146071] [152] ATTITUDE_TARGET
[20:05:01.463006] [153] VFR_HUD
[20:05:01.801385] [246] RADIO
[20:05:01.804229] [246] RADIO_STATUS
[20:05:02.043253] [154] HEARTBEAT
[20:05:02.272483] [155] VFR_HUD
[20:05:02.721177] [247] RADIO
[20:05:02.726054] [247] RADIO_STATUS
[20:05:03.079269] [156] HEARTBEAT
[20:05:03.086388] [157] SYS_STATUS
[20:05:03.206341] [158] BATTERY_STATUS
[20:05:03.318470] [159] ATTITUDE_TARGET
[20:05:03.323459] [160] VFR_HUD
[20:05:03.766465] [248] RADIO
[20:05:03.769464] [248] RADIO_STATUS
[20:05:03.881436] [161] VFR_HUD
[20:05:04.112409] [162] HEARTBEAT
[20:05:04.681540] [163] VFR_HUD
[20:05:04.708559] [249] RADIO
[20:05:04.711515] [249] RADIO_STATUS
[20:05:05.040549] [164] HEARTBEAT
[20:05:05.047468] [165] ATTITUDE_TARGET
[20:05:05.490540] [166] VFR_HUD
[20:05:05.715666] [250] RADIO
[20:05:05.717664] [250] RADIO_STATUS
[20:05:06.055750] [167] HEARTBEAT
[20:05:06.749829] [251] RADIO
[20:05:06.753679] [251] RADIO_STATUS
[20:05:07.107829] [169] HEARTBEAT
[20:05:07.113762] [170] SYS_STATUS
[20:05:07.234025] [171] BATTERY_STATUS
[20:05:07.240822] [172] ATTITUDE_TARGET
[20:05:07.270898] [173] VFR_HUD
[20:05:07.781918] [252] RADIO
[20:05:07.785855] [252] RADIO_STATUS
[20:05:07.823132] [174] VFR_HUD
[20:05:08.014882] [175] HEARTBEAT
[20:05:08.714964] [176] VFR_HUD
[20:05:08.830028] [253] RADIO
[20:05:08.833152] [253] RADIO_STATUS
[20:05:09.058271] [177] HEARTBEAT
[20:05:09.066222] [178] ATTITUDE_TARGET
[20:05:09.509236] [179] VFR_HUD
[20:05:09.848197] [254] RADIO
[20:05:09.854232] [254] RADIO_STATUS
[20:05:10.084367] [180] HEARTBEAT
[20:05:10.323298] [181] VFR_HUD
[20:05:10.769869] [255] RADIO
[20:05:10.770293] [255] RADIO_STATUS
[20:05:11.003563] [182] HEARTBEAT
[20:05:11.806491] [0] RADIO
[20:05:11.809401] [0] RADIO_STATUS
[20:05:11.932539] [189] VFR_HUD
[20:05:12.054246] [190] HEARTBEAT
[20:05:12.617808] [191] VFR_HUD
[20:05:12.836612] [1] RADIO
[20:05:12.839551] [1] RADIO_STATUS
[20:05:13.086905] [192] HEARTBEAT
[20:05:13.093613] [193] ATTITUDE_TARGET
[20:05:13.416740] [194] VFR_HUD
[20:05:13.755797] [2] RADIO
[20:05:13.758596] [2] RADIO_STATUS
[20:05:14.102087] [195] HEARTBEAT
[20:05:14.226823] [196] VFR_HUD
[20:05:14.795852] [3] RADIO
[20:05:14.798842] [3] RADIO_STATUS
[20:05:15.155073] [199] BATTERY_STATUS
[20:05:15.273132] [200] ATTITUDE_TARGET
[20:05:15.277913] [201] VFR_HUD
[20:05:15.824964] [4] RADIO
[20:05:15.827938] [4] RADIO_STATUS
[20:05:15.864006] [202] VFR_HUD
[20:05:16.061133] [203] HEARTBEAT
[20:05:16.864168] [5] RADIO
[20:05:16.867228] [5] RADIO_STATUS
[20:05:17.104496] [205] HEARTBEAT
[20:05:17.112176] [206] ATTITUDE_TARGET
[20:05:17.450366] [207] VFR_HUD
[20:05:17.894288] [6] RADIO
[20:05:17.897253] [6] RADIO_STATUS
[20:05:18.130352] [208] HEARTBEAT
[20:05:18.245441] [209] VFR_HUD
[20:05:18.813418] [7] RADIO
[20:05:18.816638] [7] RADIO_STATUS
[20:05:19.858634] [8] RADIO
[20:05:19.861551] [8] RADIO_STATUS
[20:05:20.209680] [215] VFR_HUD
[20:05:20.212592] [216] HEARTBEAT
[20:05:20.662792] [217] VFR_HUD
[20:05:20.881719] [9] RADIO
[20:05:20.884855] [9] RADIO_STATUS
[20:05:21.131779] [218] HEARTBEAT
[20:05:21.139895] [219] ATTITUDE_TARGET
[20:05:21.462837] [220] VFR_HUD
[20:05:21.802143] [10] RADIO
[20:05:21.805051] [10] RADIO_STATUS
[20:05:22.043098] [221] HEARTBEAT
[20:05:22.272171] [222] VFR_HUD
[20:05:22.845990] [11] RADIO
[20:05:22.849013] [11] RADIO_STATUS
[20:05:23.079036] [223] HEARTBEAT
[20:05:23.086303] [224] SYS_STATUS
[20:05:23.200132] [225] BATTERY_STATUS
[20:05:23.318425] [226] ATTITUDE_TARGET
[20:05:23.323242] [227] VFR_HUD
[20:05:23.870406] [12] RADIO
[20:05:23.873219] [12] RADIO_STATUS
[20:05:23.991184] [228] VFR_HUD
[20:05:24.111301] [229] HEARTBEAT
[20:05:25.020627] [13] RADIO
[20:05:25.023538] [13] RADIO_STATUS
[20:05:25.070274] [231] HEARTBEAT
[20:05:25.075323] [232] ATTITUDE_TARGET
[20:05:25.490482] [233] VFR_HUD
[20:05:25.939500] [14] RADIO
[20:05:25.942395] [14] RADIO_STATUS
[20:05:26.056163] [234] HEARTBEAT
[20:05:26.289537] [235] VFR_HUD
[20:05:26.859557] [15] RADIO
[20:05:26.862506] [15] RADIO_STATUS
[20:05:27.112623] [236] HEARTBEAT
[20:05:27.118866] [237] SYS_STATUS
[20:05:27.158615] [238] BATTERY_STATUS
[20:05:27.166702] [239] ATTITUDE_TARGET
[20:05:27.171909] [240] VFR_HUD
[20:05:27.903708] [16] RADIO
[20:05:27.906663] [16] RADIO_STATUS
[20:05:28.024770] [241] VFR_HUD
[20:05:28.027913] [242] HEARTBEAT
[20:05:28.713794] [243] VFR_HUD
[20:05:28.835116] [17] RADIO
[20:05:28.838069] [17] RADIO_STATUS
[20:05:29.057904] [244] HEARTBEAT
[20:05:29.065878] [245] ATTITUDE_TARGET
[20:05:29.520107] [246] VFR_HUD
[20:05:29.847967] [18] RADIO
[20:05:29.851161] [18] RADIO_STATUS
[20:05:30.086279] [247] HEARTBEAT
[20:05:30.324254] [248] VFR_HUD
[20:05:30.893929] [19] RADIO
[20:05:30.895230] [19] RADIO_STATUS
[20:05:31.005964] [249] HEARTBEAT
[20:05:31.024349] [250] SYS_STATUS
[20:05:31.062504] [251] BATTERY_STATUS
[20:05:31.064171] [252] EXTENDED_SYS_STATE
[20:05:31.071323] [253] ATTITUDE_TARGET
[20:05:31.076202] [254] VFR_HUD
[20:05:31.080283] [255] SYSTEM_TIME
[20:05:31.917921] [20] RADIO
[20:05:31.920442] [20] RADIO_STATUS
[20:05:31.958464] [0] VFR_HUD
[20:05:32.033500] [1] HEARTBEAT
[20:05:32.617451] [2] VFR_HUD
[20:05:32.962422] [21] RADIO
[20:05:32.965395] [21] RADIO_STATUS
[20:05:33.086562] [3] HEARTBEAT
[20:05:33.094459] [4] ATTITUDE_TARGET
[20:05:33.417787] [5] VFR_HUD
[20:05:33.876525] [22] RADIO
[20:05:33.879568] [22] RADIO_STATUS
[20:05:34.103012] [6] HEARTBEAT
[20:05:34.232617] [7] VFR_HUD
[20:05:34.906764] [23] RADIO
[20:05:34.909713] [23] RADIO_STATUS
[20:05:35.503066] [11] ATTITUDE_TARGET
[20:05:35.507918] [12] VFR_HUD
[20:05:35.842630] [13] VFR_HUD
[20:05:35.958040] [24] RADIO
[20:05:35.960949] [24] RADIO_STATUS
[20:05:36.072801] [14] HEARTBEAT
[20:05:36.636169] [15] VFR_HUD
[20:05:36.975094] [25] RADIO
[20:05:36.978193] [25] RADIO_STATUS
[20:05:37.105277] [16] HEARTBEAT
[20:05:37.113105] [17] ATTITUDE_TARGET
[20:05:37.451364] [18] VFR_HUD
[20:05:37.895601] [26] RADIO
[20:05:37.898231] [26] RADIO_STATUS
[20:05:38.011255] [19] HEARTBEAT
[20:05:38.245207] [20] VFR_HUD
[20:05:38.934637] [27] RADIO
[20:05:38.937406] [27] RADIO_STATUS
[20:05:39.063369] [21] HEARTBEAT
[20:05:39.069427] [22] SYS_STATUS
[20:05:39.188519] [23] BATTERY_STATUS
[20:05:39.196856] [24] ATTITUDE_TARGET
[20:05:39.226353] [25] VFR_HUD
[20:05:39.855460] [26] VFR_HUD
[20:05:39.964448] [28] RADIO
[20:05:39.967757] [28] RADIO_STATUS
[20:05:40.080471] [27] HEARTBEAT
[20:05:40.664557] [28] VFR_HUD
[20:05:41.000610] [29] HEARTBEAT
[20:05:41.113643] [29] RADIO
[20:05:41.116627] [29] RADIO_STATUS
[20:05:41.154656] [30] ATTITUDE_TARGET
[20:05:41.924038] [30] RADIO
[20:05:41.929888] [30] RADIO_STATUS
[20:05:42.054877] [32] HEARTBEAT
[20:05:42.277944] [33] VFR_HUD
[20:05:42.952858] [31] RADIO
[20:05:42.956167] [31] RADIO_STATUS
[20:05:43.321259] [37] ATTITUDE_TARGET
[20:05:43.325042] [38] VFR_HUD
[20:05:43.883060] [39] VFR_HUD
[20:05:43.993008] [32] RADIO
[20:05:43.996041] [32] RADIO_STATUS
[20:05:44.114236] [40] HEARTBEAT
[20:05:44.684243] [41] VFR_HUD
[20:05:45.022261] [33] RADIO
[20:05:45.025197] [33] RADIO_STATUS
[20:05:45.070491] [42] HEARTBEAT
[20:05:45.078249] [43] ATTITUDE_TARGET
[20:05:45.603284] [44] VFR_HUD
[20:05:45.942736] [34] RADIO
[20:05:45.945317] [34] RADIO_STATUS
[20:05:46.058387] [45] HEARTBEAT
[20:05:46.292411] [46] VFR_HUD
[20:05:46.981502] [35] RADIO
[20:05:46.986235] [35] RADIO_STATUS
[20:05:47.115476] [47] HEARTBEAT
[20:05:47.125846] [48] SYS_STATUS
[20:05:47.161903] [49] BATTERY_STATUS
[20:05:47.169569] [50] ATTITUDE_TARGET
[20:05:47.174573] [51] VFR_HUD
[20:05:48.011657] [36] RADIO
[20:05:48.015059] [36] RADIO_STATUS
[20:05:48.055707] [52] VFR_HUD
[20:05:48.064583] [53] HEARTBEAT
[20:05:48.717001] [54] VFR_HUD
[20:05:49.059883] [55] HEARTBEAT
[20:05:49.067985] [56] ATTITUDE_TARGET
[20:05:49.160252] [37] RADIO
[20:05:49.162800] [37] RADIO_STATUS
[20:05:49.510866] [57] VFR_HUD
[20:05:49.975178] [38] RADIO
[20:05:49.977998] [38] RADIO_STATUS
[20:05:50.091210] [58] HEARTBEAT
[20:05:50.320549] [59] VFR_HUD
[20:05:50.999379] [39] RADIO
[20:05:51.002303] [39] RADIO_STATUS
[20:05:51.809335] [67] VFR_HUD
[20:05:52.035518] [68] HEARTBEAT
[20:05:52.066285] [40] RADIO
[20:05:52.069379] [40] RADIO_STATUS
[20:05:52.624309] [69] VFR_HUD
[20:05:53.068490] [41] RADIO
[20:05:53.070493] [41] RADIO_STATUS
[20:05:53.115452] [70] HEARTBEAT
[20:05:53.123662] [71] ATTITUDE_TARGET
[20:05:53.987639] [42] RADIO
[20:05:53.990720] [42] RADIO_STATUS
[20:05:54.105260] [73] HEARTBEAT
[20:05:54.237026] [74] VFR_HUD
[20:05:55.035711] [75] HEARTBEAT
[20:05:55.041871] [76] SYS_STATUS
[20:05:55.055210] [43] RADIO
[20:05:55.057720] [43] RADIO_STATUS
[20:05:55.165866] [77] BATTERY_STATUS
[20:05:55.273951] [78] ATTITUDE_TARGET
[20:05:55.278772] [79] VFR_HUD
[20:05:55.843189] [80] VFR_HUD
[20:05:56.058109] [44] RADIO
[20:05:56.058907] [44] RADIO_STATUS
[20:05:56.172901] [81] HEARTBEAT
[20:05:56.637048] [82] VFR_HUD
[20:05:57.123989] [45] RADIO
[20:05:57.126058] [45] RADIO_STATUS
[20:05:57.230200] [83] HEARTBEAT
[20:05:57.238096] [84] ATTITUDE_TARGET
[20:05:57.446023] [85] VFR_HUD
[20:05:58.021291] [86] HEARTBEAT
[20:05:58.043297] [46] RADIO
[20:05:58.046238] [46] RADIO_STATUS
[20:05:58.246256] [87] VFR_HUD
[20:05:59.045268] [47] RADIO
[20:05:59.048468] [47] RADIO_STATUS
[20:05:59.301351] [90] BATTERY_STATUS
[20:05:59.412372] [91] ATTITUDE_TARGET
[20:05:59.418170] [92] VFR_HUD
[20:05:59.855464] [93] VFR_HUD
[20:06:00.080497] [94] HEARTBEAT
[20:06:00.112530] [48] RADIO
[20:06:00.115472] [48] RADIO_STATUS
[20:06:00.665695] [95] VFR_HUD
[20:06:01.114830] [49] RADIO
[20:06:01.117673] [49] RADIO_STATUS
[20:06:01.244822] [96] HEARTBEAT
[20:06:01.251690] [97] ATTITUDE_TARGET
[20:06:02.033811] [50] RADIO
[20:06:02.036805] [50] RADIO_STATUS
[20:06:02.150742] [99] HEARTBEAT
[20:06:02.274917] [100] VFR_HUD
[20:06:03.183083] [51] RADIO
[20:06:03.185980] [51] RADIO_STATUS
[20:06:03.224168] [103] BATTERY_STATUS
[20:06:03.251225] [104] ATTITUDE_TARGET
[20:06:03.255970] [105] VFR_HUD
[20:06:03.889113] [106] VFR_HUD
[20:06:04.103319] [52] RADIO
[20:06:04.109987] [52] RADIO_STATUS
[20:06:04.137199] [107] HEARTBEAT
[20:06:04.683276] [108] VFR_HUD
[20:06:05.142382] [53] RADIO
[20:06:05.145303] [53] RADIO_STATUS
[20:06:05.498827] [111] VFR_HUD
[20:06:06.067497] [112] HEARTBEAT
[20:06:06.171433] [54] RADIO
[20:06:06.174427] [54] RADIO_STATUS
[20:06:06.305979] [113] VFR_HUD
[20:06:07.091580] [55] RADIO
[20:06:07.094594] [55] RADIO_STATUS
[20:06:07.151464] [114] HEARTBEAT
[20:06:07.157634] [115] SYS_STATUS
[20:06:07.165618] [116] BATTERY_STATUS
[20:06:07.177629] [117] ATTITUDE_TARGET
[20:06:07.182568] [118] VFR_HUD
[20:06:07.901895] [119] VFR_HUD
[20:06:08.022823] [120] HEARTBEAT
[20:06:08.130802] [56] RADIO
[20:06:08.134161] [56] RADIO_STATUS
[20:06:08.712064] [121] VFR_HUD
[20:06:09.061025] [122] HEARTBEAT
[20:06:09.069342] [123] ATTITUDE_TARGET
[20:06:09.161032] [57] RADIO
[20:06:09.164033] [57] RADIO_STATUS
[20:06:09.525306] [124] VFR_HUD
[20:06:10.079215] [58] RADIO
[20:06:10.082208] [58] RADIO_STATUS
[20:06:10.114226] [125] HEARTBEAT
[20:06:10.320235] [126] VFR_HUD
[20:06:11.011723] [127] HEARTBEAT
[20:06:11.143426] [128] SYS_STATUS
[20:06:11.150452] [129] BATTERY_STATUS
[20:06:11.152298] [130] EXTENDED_SYS_STATE
[20:06:11.176462] [131] ATTITUDE_TARGET
[20:06:11.181429] [132] VFR_HUD
[20:06:11.184344] [133] SYSTEM_TIME
[20:06:11.229376] [59] RADIO
[20:06:11.232364] [59] RADIO_STATUS
[20:06:11.821419] [134] VFR_HUD
[20:06:12.035459] [135] HEARTBEAT
[20:06:12.148460] [60] RADIO
[20:06:12.151395] [60] RADIO_STATUS
[20:06:12.624517] [136] VFR_HUD
[20:06:13.093921] [137] HEARTBEAT
[20:06:13.101570] [138] ATTITUDE_TARGET
[20:06:13.188550] [61] RADIO
[20:06:13.191536] [61] RADIO_STATUS
[20:06:13.419565] [139] VFR_HUD
[20:06:14.104664] [140] HEARTBEAT
[20:06:14.218711] [62] RADIO
[20:06:14.220584] [62] RADIO_STATUS
[20:06:14.256654] [141] VFR_HUD
[20:06:15.035744] [142] HEARTBEAT
[20:06:15.042920] [143] SYS_STATUS
[20:06:15.137759] [63] RADIO
[20:06:15.140697] [63] RADIO_STATUS
[20:06:15.207796] [144] BATTERY_STATUS
[20:06:15.214727] [145] ATTITUDE_TARGET
[20:06:15.219734] [146] VFR_HUD
[20:06:16.073914] [147] VFR_HUD
[20:06:16.076825] [148] HEARTBEAT
[20:06:16.193867] [64] RADIO
[20:06:16.196921] [64] RADIO_STATUS
[20:06:16.640093] [149] VFR_HUD
[20:06:17.125010] [65] RADIO
[20:06:17.128123] [65] RADIO_STATUS
[20:06:17.231121] [150] HEARTBEAT
[20:06:17.239568] [151] ATTITUDE_TARGET
[20:06:17.448543] [152] VFR_HUD
[20:06:18.013244] [153] HEARTBEAT
[20:06:18.126233] [66] RADIO
[20:06:18.129161] [66] RADIO_STATUS
[20:06:18.258357] [154] VFR_HUD
[20:06:19.064583] [155] HEARTBEAT
[20:06:19.071361] [156] SYS_STATUS
[20:06:19.190466] [157] BATTERY_STATUS
[20:06:19.197610] [158] ATTITUDE_TARGET
[20:06:19.227417] [159] VFR_HUD
[20:06:19.255382] [67] RADIO
[20:06:19.258501] [67] RADIO_STATUS
[20:06:19.856440] [160] VFR_HUD
[20:06:20.082586] [161] HEARTBEAT
[20:06:20.195463] [68] RADIO
[20:06:20.198463] [68] RADIO_STATUS
[20:06:20.666890] [162] VFR_HUD
[20:06:21.235887] [69] RADIO
[20:06:21.238602] [69] RADIO_STATUS
[20:06:21.465716] [165] VFR_HUD
[20:06:22.041903] [166] HEARTBEAT
[20:06:22.159800] [70] RADIO
[20:06:22.162875] [70] RADIO_STATUS
[20:06:22.385879] [167] VFR_HUD
[20:06:23.083043] [168] HEARTBEAT
[20:06:23.089979] [169] SYS_STATUS
[20:06:23.185168] [71] RADIO
[20:06:23.187040] [71] RADIO_STATUS
[20:06:23.225039] [170] BATTERY_STATUS
[20:06:23.252132] [171] ATTITUDE_TARGET
[20:06:23.256938] [172] VFR_HUD
[20:06:23.890111] [173] VFR_HUD
[20:06:24.002113] [174] HEARTBEAT
[20:06:24.229188] [72] RADIO
[20:06:24.232120] [72] RADIO_STATUS
[20:06:25.043289] [176] HEARTBEAT
[20:06:25.051308] [177] ATTITUDE_TARGET
[20:06:25.171376] [73] RADIO
[20:06:25.174271] [73] RADIO_STATUS
[20:06:25.499494] [178] VFR_HUD
[20:06:26.058333] [179] HEARTBEAT
[20:06:26.172335] [74] RADIO
[20:06:26.175299] [74] RADIO_STATUS
[20:06:26.293383] [180] VFR_HUD
[20:06:27.110696] [181] HEARTBEAT
[20:06:27.116485] [182] SYS_STATUS
[20:06:27.235568] [183] BATTERY_STATUS
[20:06:27.243565] [184] ATTITUDE_TARGET
[20:06:27.273518] [185] VFR_HUD
[20:06:27.300508] [75] RADIO
[20:06:27.303561] [75] RADIO_STATUS
[20:06:28.022721] [187] HEARTBEAT
[20:06:28.241699] [76] RADIO
[20:06:28.244749] [76] RADIO_STATUS
[20:06:28.713756] [188] VFR_HUD
[20:06:29.390859] [77] RADIO
[20:06:29.394301] [77] RADIO_STATUS
[20:06:29.430119] [191] VFR_HUD
[20:06:30.092060] [192] HEARTBEAT
[20:06:30.200915] [78] RADIO
[20:06:30.202903] [78] RADIO_STATUS
[20:06:30.321051] [193] VFR_HUD
[20:06:31.012126] [194] HEARTBEAT
[20:06:31.144541] [195] SYS_STATUS
[20:06:31.151040] [196] BATTERY_STATUS
[20:06:31.152976] [197] EXTENDED_SYS_STATE
[20:06:31.177215] [198] ATTITUDE_TARGET
[20:06:31.182030] [199] VFR_HUD
[20:06:31.185023] [200] SYSTEM_TIME
[20:06:31.230058] [79] RADIO
[20:06:31.233041] [79] RADIO_STATUS
[20:06:31.810145] [201] VFR_HUD
[20:06:32.035257] [202] HEARTBEAT
[20:06:32.274245] [80] RADIO
[20:06:32.277268] [80] RADIO_STATUS
[20:06:32.625254] [203] VFR_HUD
[20:06:33.094309] [204] HEARTBEAT
[20:06:33.102452] [205] ATTITUDE_TARGET
[20:06:33.299313] [81] RADIO
[20:06:33.301329] [81] RADIO_STATUS
[20:06:33.419360] [206] VFR_HUD
[20:06:34.000476] [207] HEARTBEAT
[20:06:34.218470] [82] RADIO
[20:06:34.221469] [82] RADIO_STATUS
[20:06:34.339476] [208] VFR_HUD
[20:06:35.162625] [211] BATTERY_STATUS
[20:06:35.274616] [212] ATTITUDE_TARGET
[20:06:35.279659] [213] VFR_HUD
[20:06:35.285642] [83] RADIO
[20:06:35.288814] [83] RADIO_STATUS
[20:06:35.837703] [214] VFR_HUD
[20:06:36.068708] [215] HEARTBEAT
[20:06:36.287041] [84] RADIO
[20:06:36.289774] [84] RADIO_STATUS
[20:06:37.231065] [217] HEARTBEAT
[20:06:37.238901] [218] ATTITUDE_TARGET
[20:06:37.326909] [85] RADIO
[20:06:37.328920] [85] RADIO_STATUS
[20:06:37.446974] [219] VFR_HUD
[20:06:38.013035] [220] HEARTBEAT
[20:06:38.258062] [221] VFR_HUD
[20:06:38.355096] [86] RADIO
[20:06:38.358092] [86] RADIO_STATUS
[20:06:39.063261] [222] HEARTBEAT
[20:06:39.070318] [223] SYS_STATUS
[20:06:39.188205] [224] BATTERY_STATUS
[20:06:39.196196] [225] ATTITUDE_TARGET
[20:06:39.226558] [226] VFR_HUD
[20:06:39.249213] [87] RADIO
[20:06:39.252184] [87] RADIO_STATUS
[20:06:39.855334] [227] VFR_HUD
[20:06:40.090444] [228] HEARTBEAT
[20:06:40.314323] [88] RADIO
[20:06:40.317910] [88] RADIO_STATUS
[20:06:40.774409] [229] VFR_HUD
[20:06:41.005427] [230] HEARTBEAT
[20:06:41.028471] [231] ATTITUDE_TARGET
[20:06:41.343480] [89] RADIO
[20:06:41.346484] [89] RADIO_STATUS
[20:06:41.464551] [232] VFR_HUD
[20:06:42.039612] [233] HEARTBEAT
[20:06:42.263561] [90] RADIO
[20:06:42.266600] [90] RADIO_STATUS
[20:06:42.302597] [234] VFR_HUD
[20:06:43.081782] [235] HEARTBEAT
[20:06:43.088897] [236] SYS_STATUS
[20:06:43.208756] [237] BATTERY_STATUS
[20:06:43.320779] [238] ATTITUDE_TARGET
[20:06:43.325813] [239] VFR_HUD
[20:06:43.330790] [91] RADIO
[20:06:43.333816] [91] RADIO_STATUS
[20:06:43.888863] [240] VFR_HUD
[20:06:44.332986] [92] RADIO
[20:06:44.335921] [92] RADIO_STATUS
[20:06:45.042075] [243] HEARTBEAT
[20:06:45.050088] [244] ATTITUDE_TARGET
[20:06:45.372438] [93] RADIO
[20:06:45.375094] [93] RADIO_STATUS
[20:06:45.493302] [245] VFR_HUD
[20:06:46.058291] [246] HEARTBEAT
[20:06:46.292198] [247] VFR_HUD
[20:06:46.319217] [94] RADIO
[20:06:46.322168] [94] RADIO_STATUS
[20:06:47.109371] [248] HEARTBEAT
[20:06:47.116345] [249] SYS_STATUS
[20:06:47.235370] [250] BATTERY_STATUS
[20:06:47.243381] [251] ATTITUDE_TARGET
[20:06:47.273374] [252] VFR_HUD
[20:06:47.300366] [95] RADIO
[20:06:47.303339] [95] RADIO_STATUS
[20:06:47.901464] [253] VFR_HUD
[20:06:48.017529] [254] HEARTBEAT
[20:06:48.366560] [96] RADIO
[20:06:48.369543] [96] RADIO_STATUS
[20:06:48.722659] [255] VFR_HUD
[20:06:49.179715] [0] HEARTBEAT
[20:06:49.187682] [1] ATTITUDE_TARGET
[20:06:49.390723] [97] RADIO
[20:06:49.393667] [97] RADIO_STATUS
[20:06:49.428753] [2] VFR_HUD
[20:06:50.086864] [3] HEARTBEAT
[20:06:50.309786] [98] RADIO
[20:06:50.312740] [98] RADIO_STATUS
[20:06:50.348871] [4] VFR_HUD
[20:06:51.076799] [10] VFR_HUD
[20:06:51.079863] [11] SYSTEM_TIME
[20:06:51.354975] [99] RADIO
[20:06:51.357931] [99] RADIO_STATUS
[20:06:51.816039] [12] VFR_HUD
[20:06:52.036037] [13] HEARTBEAT
[20:06:52.379102] [100] RADIO
[20:06:52.382002] [100] RADIO_STATUS
[20:06:52.620125] [14] VFR_HUD
[20:06:53.094312] [15] HEARTBEAT
[20:06:53.102266] [16] ATTITUDE_TARGET
[20:06:53.420229] [17] VFR_HUD
[20:06:53.452252] [101] RADIO
[20:06:53.455185] [101] RADIO_STATUS
[20:06:54.000333] [18] HEARTBEAT
[20:06:54.229347] [19] VFR_HUD
[20:06:54.344324] [102] RADIO
[20:06:54.347302] [102] RADIO_STATUS
[20:06:55.158461] [22] BATTERY_STATUS
[20:06:55.275471] [23] ATTITUDE_TARGET
[20:06:55.280417] [24] VFR_HUD
[20:06:55.368478] [103] RADIO
[20:06:55.371412] [103] RADIO_STATUS
[20:06:55.838521] [25] VFR_HUD
[20:06:56.069585] [26] HEARTBEAT
[20:06:56.412747] [104] RADIO
[20:06:56.415659] [104] RADIO_STATUS
[20:06:56.638643] [27] VFR_HUD
[20:06:57.107745] [28] HEARTBEAT
[20:06:57.114721] [29] ATTITUDE_TARGET
[20:06:57.326705] [105] RADIO
[20:06:57.329741] [105] RADIO_STATUS
[20:06:57.447711] [30] VFR_HUD
[20:06:58.012863] [31] HEARTBEAT
[20:06:58.247852] [32] VFR_HUD
[20:06:58.356894] [106] RADIO
[20:06:58.359846] [106] RADIO_STATUS
[20:06:59.402052] [107] RADIO
[20:06:59.404995] [107] RADIO_STATUS
[20:07:00.426219] [108] RADIO
[20:07:00.429077] [108] RADIO_STATUS
[20:07:00.672435] [40] VFR_HUD
[20:07:01.008238] [41] HEARTBEAT
[20:07:01.030322] [42] ATTITUDE_TARGET
[20:07:01.346249] [109] RADIO
[20:07:01.349297] [109] RADIO_STATUS
[20:07:01.466349] [43] VFR_HUD
[20:07:02.041546] [44] HEARTBEAT
[20:07:02.281409] [45] VFR_HUD
[20:07:02.494433] [110] RADIO
[20:07:02.497371] [110] RADIO_STATUS
[20:07:03.209572] [48] BATTERY_STATUS
[20:07:03.321870] [49] ATTITUDE_TARGET
[20:07:03.326555] [50] VFR_HUD
[20:07:03.413527] [111] RADIO
[20:07:03.416482] [111] RADIO_STATUS
[20:07:03.884617] [51] VFR_HUD
[20:07:04.114671] [52] HEARTBEAT
[20:07:04.453844] [112] RADIO
[20:07:04.456667] [112] RADIO_STATUS
[20:07:04.684810] [53] VFR_HUD
[20:07:05.042880] [54] HEARTBEAT
[20:07:05.050895] [55] ATTITUDE_TARGET
[20:07:05.372838] [113] RADIO
[20:07:05.375784] [113] RADIO_STATUS
[20:07:05.493932] [56] VFR_HUD
[20:07:06.068952] [57] HEARTBEAT
[20:07:06.304983] [58] VFR_HUD
[20:07:06.402987] [114] RADIO
[20:07:06.405991] [114] RADIO_STATUS
[20:07:07.236158] [61] BATTERY_STATUS
[20:07:07.244062] [62] ATTITUDE_TARGET
[20:07:07.274119] [63] VFR_HUD
[20:07:07.442092] [115] RADIO
[20:07:07.445256] [115] RADIO_STATUS
[20:07:07.902241] [64] VFR_HUD
[20:07:08.018294] [65] HEARTBEAT
[20:07:08.471229] [116] RADIO
[20:07:08.474335] [116] RADIO_STATUS
[20:07:08.717327] [66] VFR_HUD
[20:07:09.061371] [67] HEARTBEAT
[20:07:09.069369] [68] ATTITUDE_TARGET
[20:07:09.391360] [117] RADIO
[20:07:09.394354] [117] RADIO_STATUS
[20:07:09.429400] [69] VFR_HUD
[20:07:10.087497] [70] HEARTBEAT
[20:07:10.206468] [71] VFR_HUD
[20:07:10.430519] [118] RADIO
[20:07:10.433556] [118] RADIO_STATUS
[20:07:11.006658] [72] HEARTBEAT
[20:07:11.026595] [73] SYS_STATUS
[20:07:11.064674] [74] BATTERY_STATUS
[20:07:11.066563] [75] EXTENDED_SYS_STATE
[20:07:11.076305] [76] ATTITUDE_TARGET
[20:07:11.079527] [77] VFR_HUD
[20:07:11.082547] [78] SYSTEM_TIME
[20:07:11.460667] [119] RADIO
[20:07:11.463641] [119] RADIO_STATUS
[20:07:11.815691] [79] VFR_HUD
[20:07:12.035799] [80] HEARTBEAT
[20:07:12.498777] [120] RADIO
[20:07:12.501774] [120] RADIO_STATUS
[20:07:12.619849] [81] VFR_HUD
[20:07:13.088942] [82] HEARTBEAT
[20:07:13.096880] [83] ATTITUDE_TARGET
[20:07:13.430990] [84] VFR_HUD
[20:07:13.446945] [121] RADIO
[20:07:13.449972] [121] RADIO_STATUS
[20:07:14.105195] [85] HEARTBEAT
[20:07:14.229083] [86] VFR_HUD
[20:07:14.448142] [122] RADIO
[20:07:14.451089] [122] RADIO_STATUS
[20:07:15.487252] [123] RADIO
[20:07:15.490261] [123] RADIO_STATUS
[20:07:15.838332] [92] VFR_HUD
[20:07:16.069344] [93] HEARTBEAT
[20:07:16.518716] [124] RADIO
[20:07:16.520385] [124] RADIO_STATUS
[20:07:16.649413] [94] VFR_HUD
[20:07:17.106515] [95] HEARTBEAT
[20:07:17.114441] [96] ATTITUDE_TARGET
[20:07:17.436516] [125] RADIO
[20:07:17.439495] [125] RADIO_STATUS
[20:07:17.475587] [97] VFR_HUD
[20:07:18.012612] [98] HEARTBEAT
[20:07:18.246659] [99] VFR_HUD
[20:07:18.481656] [126] RADIO
[20:07:18.484620] [126] RADIO_STATUS
[20:07:19.068850] [100] HEARTBEAT
[20:07:19.081777] [101] SYS_STATUS
[20:07:19.115727] [102] BATTERY_STATUS
[20:07:19.123760] [103] ATTITUDE_TARGET
[20:07:19.127717] [104] VFR_HUD
[20:07:19.505822] [127] RADIO
[20:07:19.508769] [127] RADIO_STATUS
[20:07:19.857804] [105] VFR_HUD
[20:07:20.082897] [106] HEARTBEAT
[20:07:20.551974] [128] RADIO
[20:07:20.554939] [128] RADIO_STATUS
[20:07:20.672969] [107] VFR_HUD
[20:07:21.479099] [110] VFR_HUD
