[20:25:17.835352] [174] RADIO
[20:25:17.840680] [174] RADIO_STATUS
[20:25:17.951370] [132] HEARTBEAT
[20:25:18.180365] [133] VFR_HUD
[20:25:18.749491] [175] RADIO
[20:25:18.752472] [175] RADIO_STATUS
[20:25:18.988560] [134] HEARTBEAT
[20:25:18.994547] [135] SYS_STATUS
[20:25:19.114562] [136] BATTERY_STATUS
[20:25:19.226671] [137] ATTITUDE_TARGET
[20:25:19.231636] [138] VFR_HUD
[20:25:19.779632] [176] RADIO
[20:25:19.782636] [176] RADIO_STATUS
[20:25:19.899785] [139] VFR_HUD
[20:25:20.023507] [140] HEARTBEAT
[20:25:20.589747] [141] VFR_HUD
[20:25:20.822337] [177] RADIO
[20:25:20.822489] [177] RADIO_STATUS
[20:25:21.058809] [142] HEARTBEAT
[20:25:21.066914] [143] ATTITUDE_TARGET
[20:25:21.399873] [144] VFR_HUD
[20:25:21.849448] [178] RADIO
[20:25:21.851981] [178] RADIO_STATUS
[20:25:21.964956] [145] HEARTBEAT
[20:25:22.199040] [146] VFR_HUD
[20:25:22.769625] [179] RADIO
[20:25:22.772757] [179] RADIO_STATUS
[20:25:23.016167] [147] HEARTBEAT
[20:25:23.023161] [148] SYS_STATUS
[20:25:23.141193] [149] BATTERY_STATUS
[20:25:23.149188] [150] ATTITUDE_TARGET
[20:25:23.179156] [151] VFR_HUD
[20:25:23.808222] [152] VFR_HUD
[20:25:23.835324] [180] RADIO
[20:25:23.838235] [180] RADIO_STATUS
[20:25:24.033335] [153] HEARTBEAT
[20:25:24.623391] [154] VFR_HUD
[20:25:24.837412] [181] RADIO
[20:25:24.840344] [181] RADIO_STATUS
[20:25:24.953409] [155] HEARTBEAT
[20:25:24.975420] [156] ATTITUDE_TARGET
[20:25:25.417547] [157] VFR_HUD
[20:25:25.761644] [182] RADIO
[20:25:25.764605] [182] RADIO_STATUS
[20:25:25.992688] [158] HEARTBEAT
[20:25:26.232648] [159] VFR_HUD
[20:25:26.795760] [183] RADIO
[20:25:26.798701] [183] RADIO_STATUS
[20:25:27.033773] [160] HEARTBEAT
[20:25:27.040784] [161] SYS_STATUS
[20:25:27.160800] [162] BATTERY_STATUS
[20:25:27.272994] [163] ATTITUDE_TARGET
[20:25:27.278151] [164] VFR_HUD
[20:25:27.826038] [184] RADIO
[20:25:27.828972] [184] RADIO_STATUS
[20:25:27.863941] [165] VFR_HUD
[20:25:28.061918] [166] HEARTBEAT
[20:25:28.635939] [167] VFR_HUD
[20:25:28.865001] [185] RADIO
[20:25:28.867939] [185] RADIO_STATUS
[20:25:28.995030] [168] HEARTBEAT
[20:25:29.003102] [169] ATTITUDE_TARGET
[20:25:29.446259] [170] VFR_HUD
[20:25:29.790165] [186] RADIO
[20:25:29.793105] [186] RADIO_STATUS
[20:25:30.011205] [171] HEARTBEAT
[20:25:30.245233] [172] VFR_HUD
[20:25:30.814314] [187] RADIO
[20:25:30.817333] [187] RADIO_STATUS
[20:25:31.062396] [173] HEARTBEAT
[20:25:31.069438] [174] SYS_STATUS
[20:25:31.190451] [175] BATTERY_STATUS
[20:25:31.192701] [176] EXTENDED_SYS_STATE
[20:25:31.200403] [177] ATTITUDE_TARGET
[20:25:31.205439] [178] VFR_HUD
[20:25:31.209317] [179] SYSTEM_TIME
[20:25:31.854555] [180] VFR_HUD
[20:25:31.886492] [188] RADIO
[20:25:31.889447] [188] RADIO_STATUS
[20:25:31.979540] [181] HEARTBEAT
[20:25:32.664696] [182] VFR_HUD
[20:25:32.883651] [189] RADIO
[20:25:32.889954] [189] RADIO_STATUS
[20:25:33.013697] [183] HEARTBEAT
[20:25:33.021713] [184] ATTITUDE_TARGET
[20:25:33.359711] [185] VFR_HUD
[20:25:33.802873] [190] RADIO
[20:25:33.805819] [190] RADIO_STATUS
[20:25:34.039251] [186] HEARTBEAT
[20:25:34.284869] [187] VFR_HUD
[20:25:34.847978] [191] RADIO
[20:25:34.850905] [191] RADIO_STATUS
[20:25:35.872089] [192] RADIO
[20:25:35.876449] [192] RADIO_STATUS
[20:25:35.964124] [194] HEARTBEAT
[20:25:36.917190] [193] RADIO
[20:25:36.920181] [193] RADIO_STATUS
[20:25:37.372275] [198] VFR_HUD
[20:25:37.836460] [194] RADIO
[20:25:37.839427] [194] RADIO_STATUS
[20:25:37.952466] [199] HEARTBEAT
[20:25:38.291491] [200] VFR_HUD
[20:25:38.860528] [195] RADIO
[20:25:38.863471] [195] RADIO_STATUS
[20:25:39.111219] [203] BATTERY_STATUS
[20:25:39.227739] [204] ATTITUDE_TARGET
[20:25:39.232684] [205] VFR_HUD
[20:25:39.790686] [206] VFR_HUD
[20:25:39.905746] [196] RADIO
[20:25:39.910154] [196] RADIO_STATUS
[20:25:40.021980] [207] HEARTBEAT
[20:25:40.590778] [208] VFR_HUD
[20:25:40.929794] [197] RADIO
[20:25:40.932770] [197] RADIO_STATUS
[20:25:40.977974] [209] HEARTBEAT
[20:25:40.985915] [210] ATTITUDE_TARGET
[20:25:41.400889] [211] VFR_HUD
[20:25:41.849947] [198] RADIO
[20:25:41.852970] [198] RADIO_STATUS
[20:25:41.966015] [212] HEARTBEAT
[20:25:42.200037] [213] VFR_HUD
[20:25:42.889075] [199] RADIO
[20:25:42.892054] [199] RADIO_STATUS
[20:25:43.022162] [214] HEARTBEAT
[20:25:43.029118] [215] SYS_STATUS
[20:25:43.069165] [216] BATTERY_STATUS
[20:25:43.077398] [217] ATTITUDE_TARGET
[20:25:43.081169] [218] VFR_HUD
[20:25:43.918318] [200] RADIO
[20:25:43.921248] [200] RADIO_STATUS
[20:25:44.045269] [219] VFR_HUD
[20:25:44.048277] [220] HEARTBEAT
[20:25:44.624439] [221] VFR_HUD
[20:25:44.954497] [222] HEARTBEAT
[20:25:44.977499] [223] ATTITUDE_TARGET
[20:25:45.007551] [201] RADIO
[20:25:45.010425] [201] RADIO_STATUS
[20:25:45.418523] [224] VFR_HUD
[20:25:45.877550] [202] RADIO
[20:25:45.880484] [202] RADIO_STATUS
[20:25:45.993679] [225] HEARTBEAT
[20:25:46.233723] [226] VFR_HUD
[20:25:46.907663] [203] RADIO
[20:25:46.909609] [203] RADIO_STATUS
[20:25:47.035714] [227] HEARTBEAT
[20:25:47.042696] [228] SYS_STATUS
[20:25:47.161741] [229] BATTERY_STATUS
[20:25:47.274732] [230] ATTITUDE_TARGET
[20:25:47.279730] [231] VFR_HUD
[20:25:47.837789] [232] VFR_HUD
[20:25:47.946809] [204] RADIO
[20:25:47.949724] [204] RADIO_STATUS
[20:25:48.062810] [233] HEARTBEAT
[20:25:48.636908] [234] VFR_HUD
[20:25:48.976090] [205] RADIO
[20:25:48.978925] [205] RADIO_STATUS
[20:25:49.105982] [235] HEARTBEAT
[20:25:49.113987] [236] ATTITUDE_TARGET
[20:25:49.447026] [237] VFR_HUD
[20:25:49.896071] [206] RADIO
[20:25:49.899049] [206] RADIO_STATUS
[20:25:50.012140] [238] HEARTBEAT
[20:25:50.246268] [239] VFR_HUD
[20:25:50.935302] [207] RADIO
[20:25:50.938333] [207] RADIO_STATUS
[20:25:51.064237] [240] HEARTBEAT
[20:25:51.070215] [241] SYS_STATUS
[20:25:51.192412] [242] BATTERY_STATUS
[20:25:51.194184] [243] EXTENDED_SYS_STATE
[20:25:51.201277] [244] ATTITUDE_TARGET
[20:25:51.206249] [245] VFR_HUD
[20:25:51.210212] [246] SYSTEM_TIME
[20:25:51.856308] [247] VFR_HUD
[20:25:51.888541] [208] RADIO
[20:25:51.891335] [208] RADIO_STATUS
[20:25:51.971384] [248] HEARTBEAT
[20:25:52.665549] [249] VFR_HUD
[20:25:52.885559] [209] RADIO
[20:25:52.888453] [209] RADIO_STATUS
[20:25:53.014598] [250] HEARTBEAT
[20:25:53.022637] [251] ATTITUDE_TARGET
[20:25:53.360664] [252] VFR_HUD
[20:25:53.929714] [210] RADIO
[20:25:53.932661] [210] RADIO_STATUS
[20:25:54.040706] [253] HEARTBEAT
[20:25:54.279714] [254] VFR_HUD
[20:25:54.953850] [211] RADIO
[20:25:54.956806] [211] RADIO_STATUS
[20:25:55.081937] [255] HEARTBEAT
[20:25:55.088910] [0] SYS_STATUS
[20:25:55.203910] [1] BATTERY_STATUS
[20:25:55.320926] [2] ATTITUDE_TARGET
[20:25:55.325885] [3] VFR_HUD
[20:25:55.764095] [4] VFR_HUD
[20:25:55.990030] [5] HEARTBEAT
[20:25:56.103045] [212] RADIO
[20:25:56.106044] [212] RADIO_STATUS
[20:25:56.574107] [6] VFR_HUD
[20:25:56.918200] [213] RADIO
[20:25:56.921120] [213] RADIO_STATUS
[20:25:57.043178] [7] HEARTBEAT
[20:25:57.050248] [8] ATTITUDE_TARGET
[20:25:57.373192] [9] VFR_HUD
[20:25:57.942438] [214] RADIO
[20:25:57.945273] [214] RADIO_STATUS
[20:25:57.976367] [10] HEARTBEAT
[20:25:58.182434] [11] VFR_HUD
[20:25:58.989550] [12] HEARTBEAT
[20:25:58.996576] [13] SYS_STATUS
[20:25:59.009548] [215] RADIO
[20:25:59.012580] [215] RADIO_STATUS
[20:25:59.111589] [14] BATTERY_STATUS
[20:25:59.228622] [15] ATTITUDE_TARGET
[20:25:59.233576] [16] VFR_HUD
[20:25:59.792659] [17] VFR_HUD
[20:26:00.011784] [216] RADIO
[20:26:00.014617] [216] RADIO_STATUS
[20:26:00.045705] [18] HEARTBEAT
[20:26:00.591758] [19] VFR_HUD
[20:26:00.930823] [217] RADIO
[20:26:00.933874] [217] RADIO_STATUS
[20:26:00.978877] [20] HEARTBEAT
[20:26:00.987784] [21] ATTITUDE_TARGET
[20:26:01.406930] [22] VFR_HUD
[20:26:01.967027] [23] HEARTBEAT
[20:26:01.998953] [218] RADIO
[20:26:02.002003] [218] RADIO_STATUS
[20:26:02.201047] [24] VFR_HUD
[20:26:03.000144] [219] RADIO
[20:26:03.003117] [219] RADIO_STATUS
[20:26:03.060193] [25] HEARTBEAT
[20:26:03.067189] [26] SYS_STATUS
[20:26:03.074164] [27] BATTERY_STATUS
[20:26:03.086195] [28] ATTITUDE_TARGET
[20:26:03.091249] [29] VFR_HUD
[20:26:03.811277] [30] VFR_HUD
[20:26:04.036385] [31] HEARTBEAT
[20:26:04.067278] [220] RADIO
[20:26:04.070305] [220] RADIO_STATUS
[20:26:04.625378] [32] VFR_HUD
[20:26:04.955493] [33] HEARTBEAT
[20:26:04.978481] [34] ATTITUDE_TARGET
[20:26:05.008479] [221] RADIO
[20:26:05.011434] [221] RADIO_STATUS
[20:26:05.420707] [35] VFR_HUD
[20:26:05.988651] [222] RADIO
[20:26:05.991637] [222] RADIO_STATUS
[20:26:06.022696] [36] HEARTBEAT
[20:26:06.229678] [37] VFR_HUD
[20:26:07.036809] [38] HEARTBEAT
[20:26:07.043800] [39] SYS_STATUS
[20:26:07.056811] [223] RADIO
[20:26:07.058754] [223] RADIO_STATUS
[20:26:07.163795] [40] BATTERY_STATUS
[20:26:07.275947] [41] ATTITUDE_TARGET
[20:26:07.280779] [42] VFR_HUD
[20:26:07.838912] [43] VFR_HUD
[20:26:08.057902] [224] RADIO
[20:26:08.060887] [224] RADIO_STATUS
[20:26:08.091924] [44] HEARTBEAT
[20:26:08.638978] [45] VFR_HUD
[20:26:08.977993] [225] RADIO
[20:26:08.980978] [225] RADIO_STATUS
[20:26:09.108032] [46] HEARTBEAT
[20:26:09.115013] [47] ATTITUDE_TARGET
[20:26:09.448091] [48] VFR_HUD
[20:26:10.013173] [49] HEARTBEAT
[20:26:10.127168] [226] RADIO
[20:26:10.130114] [226] RADIO_STATUS
[20:26:10.166271] [50] VFR_HUD
[20:26:11.047338] [227] RADIO
[20:26:11.050254] [227] RADIO_STATUS
[20:26:11.110336] [51] HEARTBEAT
[20:26:11.117351] [52] SYS_STATUS
[20:26:11.125324] [53] BATTERY_STATUS
[20:26:11.126285] [54] EXTENDED_SYS_STATE
[20:26:11.143347] [55] ATTITUDE_TARGET
[20:26:11.148338] [56] VFR_HUD
[20:26:11.151277] [57] SYSTEM_TIME
[20:26:11.857461] [58] VFR_HUD
[20:26:11.973576] [59] HEARTBEAT
[20:26:12.090241] [228] RADIO
[20:26:12.090385] [228] RADIO_STATUS
[20:26:12.672561] [60] VFR_HUD
[20:26:13.016655] [61] HEARTBEAT
[20:26:13.024674] [62] ATTITUDE_TARGET
[20:26:13.116676] [229] RADIO
[20:26:13.119633] [229] RADIO_STATUS
[20:26:13.356694] [63] VFR_HUD
[20:26:14.035768] [230] RADIO
[20:26:14.038741] [230] RADIO_STATUS
[20:26:14.161316] [64] HEARTBEAT
[20:26:14.164914] [65] VFR_HUD
[20:26:14.973985] [66] HEARTBEAT
[20:26:14.980926] [67] SYS_STATUS
[20:26:15.098979] [68] BATTERY_STATUS
[20:26:15.106940] [69] ATTITUDE_TARGET
[20:26:15.137737] [70] VFR_HUD
[20:26:15.158964] [231] RADIO
[20:26:15.161971] [231] RADIO_STATUS
[20:26:15.766167] [71] VFR_HUD
[20:26:15.991119] [72] HEARTBEAT
[20:26:16.105139] [232] RADIO
[20:26:16.108045] [232] RADIO_STATUS
[20:26:16.575377] [73] VFR_HUD
[20:26:17.024227] [233] RADIO
[20:26:17.027213] [233] RADIO_STATUS
[20:26:17.154304] [74] HEARTBEAT
[20:26:17.162242] [75] ATTITUDE_TARGET
[20:26:17.375348] [76] VFR_HUD
[20:26:17.950386] [77] HEARTBEAT
[20:26:18.064337] [234] RADIO
[20:26:18.067312] [234] RADIO_STATUS
[20:26:18.184360] [78] VFR_HUD
[20:26:18.991556] [79] HEARTBEAT
[20:26:18.998529] [80] SYS_STATUS
[20:26:19.011491] [235] RADIO
[20:26:19.014477] [235] RADIO_STATUS
[20:26:19.113503] [81] BATTERY_STATUS
[20:26:19.230608] [82] ATTITUDE_TARGET
[20:26:19.235514] [83] VFR_HUD
[20:26:19.799730] [84] VFR_HUD
[20:26:20.014587] [236] RADIO
[20:26:20.015644] [236] RADIO_STATUS
[20:26:20.129710] [85] HEARTBEAT
[20:26:20.593832] [86] VFR_HUD
[20:26:21.062936] [87] HEARTBEAT
[20:26:21.070789] [88] ATTITUDE_TARGET
[20:26:21.080829] [237] RADIO
[20:26:21.083741] [237] RADIO_STATUS
[20:26:21.408844] [89] VFR_HUD
[20:26:21.968962] [90] HEARTBEAT
[20:26:22.082903] [238] RADIO
[20:26:22.084888] [238] RADIO_STATUS
[20:26:22.202904] [91] VFR_HUD
[20:26:23.026067] [92] HEARTBEAT
[20:26:23.032002] [93] SYS_STATUS
[20:26:23.072065] [94] BATTERY_STATUS
[20:26:23.080021] [95] ATTITUDE_TARGET
[20:26:23.083972] [96] VFR_HUD
[20:26:23.131065] [239] RADIO
[20:26:23.133025] [239] RADIO_STATUS
[20:26:24.048195] [97] VFR_HUD
[20:26:24.051175] [98] HEARTBEAT
[20:26:24.152178] [240] RADIO
[20:26:24.154175] [240] RADIO_STATUS
[20:26:24.622335] [99] VFR_HUD
[20:26:24.957299] [100] HEARTBEAT
[20:26:24.980340] [101] ATTITUDE_TARGET
[20:26:25.071317] [241] RADIO
[20:26:25.074444] [241] RADIO_STATUS
[20:26:25.422348] [102] VFR_HUD
[20:26:26.002598] [103] HEARTBEAT
[20:26:26.115466] [242] RADIO
[20:26:26.118444] [242] RADIO_STATUS
[20:26:26.231544] [104] VFR_HUD
[20:26:27.038656] [105] HEARTBEAT
[20:26:27.045653] [106] SYS_STATUS
[20:26:27.057716] [243] RADIO
[20:26:27.060630] [243] RADIO_STATUS
[20:26:27.159690] [107] BATTERY_STATUS
[20:26:27.277669] [108] ATTITUDE_TARGET
[20:26:27.282645] [109] VFR_HUD
[20:26:27.840780] [110] VFR_HUD
[20:26:27.945800] [111] HEARTBEAT
[20:26:28.059788] [244] RADIO
[20:26:28.062715] [244] RADIO_STATUS
[20:26:28.640988] [112] VFR_HUD
[20:26:29.004954] [113] HEARTBEAT
[20:26:29.012959] [114] ATTITUDE_TARGET
[20:26:29.104946] [245] RADIO
[20:26:29.107967] [245] RADIO_STATUS
[20:26:29.449944] [115] VFR_HUD
[20:26:30.016085] [116] HEARTBEAT
[20:26:30.129106] [246] RADIO
[20:26:30.132021] [246] RADIO_STATUS
[20:26:30.168082] [117] VFR_HUD
[20:26:31.072233] [118] HEARTBEAT
[20:26:31.079206] [119] SYS_STATUS
[20:26:31.113362] [120] BATTERY_STATUS
[20:26:31.115149] [121] EXTENDED_SYS_STATE
[20:26:31.123305] [122] ATTITUDE_TARGET
[20:26:31.128238] [123] VFR_HUD
[20:26:31.131175] [124] SYSTEM_TIME
[20:26:31.174293] [247] RADIO
[20:26:31.177200] [247] RADIO_STATUS
[20:26:31.859378] [125] VFR_HUD
[20:26:31.974376] [126] HEARTBEAT
[20:26:32.088379] [248] RADIO
[20:26:32.091452] [248] RADIO_STATUS
[20:26:32.674393] [127] VFR_HUD
[20:26:33.018782] [128] HEARTBEAT
[20:26:33.025510] [129] ATTITUDE_TARGET
[20:26:33.117436] [249] RADIO
[20:26:33.120421] [249] RADIO_STATUS
[20:26:33.358534] [130] VFR_HUD
[20:26:34.043703] [131] HEARTBEAT
[20:26:34.158654] [132] VFR_HUD
[20:26:34.190734] [250] RADIO
[20:26:34.193610] [250] RADIO_STATUS
[20:26:34.976733] [133] HEARTBEAT
[20:26:34.981834] [134] SYS_STATUS
[20:26:35.100785] [135] BATTERY_STATUS
[20:26:35.108784] [136] ATTITUDE_TARGET
[20:26:35.138761] [137] VFR_HUD
[20:26:35.160757] [251] RADIO
[20:26:35.163708] [251] RADIO_STATUS
[20:26:35.767872] [138] VFR_HUD
[20:26:35.993171] [139] HEARTBEAT
[20:26:36.106912] [252] RADIO
[20:26:36.109889] [252] RADIO_STATUS
[20:26:36.577020] [140] VFR_HUD
[20:26:37.046122] [141] HEARTBEAT
[20:26:37.053052] [142] ATTITUDE_TARGET
[20:26:37.256140] [253] RADIO
[20:26:37.259109] [253] RADIO_STATUS
[20:26:37.376119] [143] VFR_HUD
[20:26:37.951262] [144] HEARTBEAT
[20:26:38.178365] [254] RADIO
[20:26:38.181290] [254] RADIO_STATUS
[20:26:38.219351] [145] VFR_HUD
[20:26:38.993429] [146] HEARTBEAT
[20:26:39.000423] [147] SYS_STATUS
[20:26:39.115492] [148] BATTERY_STATUS
[20:26:39.232459] [149] ATTITUDE_TARGET
[20:26:39.237417] [150] VFR_HUD
[20:26:39.243380] [255] RADIO
[20:26:39.246460] [255] RADIO_STATUS
[20:26:39.800590] [151] VFR_HUD
[20:26:40.020664] [152] HEARTBEAT
[20:26:40.134681] [0] RADIO
[20:26:40.137686] [0] RADIO_STATUS
[20:26:40.595838] [153] VFR_HUD
[20:26:41.064733] [154] HEARTBEAT
[20:26:41.071770] [155] ATTITUDE_TARGET
[20:26:41.163770] [1] RADIO
[20:26:41.166714] [1] RADIO_STATUS
[20:26:41.409838] [156] VFR_HUD
[20:26:41.969863] [157] HEARTBEAT
[20:26:42.204880] [158] VFR_HUD
[20:26:42.231862] [2] RADIO
[20:26:42.234843] [2] RADIO_STATUS
[20:26:43.021985] [159] HEARTBEAT
[20:26:43.027976] [160] SYS_STATUS
[20:26:43.146999] [161] BATTERY_STATUS
[20:26:43.155012] [162] ATTITUDE_TARGET
[20:26:43.184980] [163] VFR_HUD
[20:26:43.206985] [3] RADIO
[20:26:43.210095] [3] RADIO_STATUS
[20:26:43.814266] [164] VFR_HUD
[20:26:44.039168] [165] HEARTBEAT
[20:26:44.152152] [4] RADIO
[20:26:44.155087] [4] RADIO_STATUS
[20:26:44.623183] [166] VFR_HUD
[20:26:44.972266] [167] HEARTBEAT
[20:26:44.980284] [168] ATTITUDE_TARGET
[20:26:45.192421] [5] RADIO
[20:26:45.195299] [5] RADIO_STATUS
[20:26:45.422345] [169] VFR_HUD
[20:26:46.003427] [170] HEARTBEAT
[20:26:46.221398] [6] RADIO
[20:26:46.224394] [6] RADIO_STATUS
[20:26:46.342441] [171] VFR_HUD
[20:26:47.039576] [172] HEARTBEAT
[20:26:47.046562] [173] SYS_STATUS
[20:26:47.161583] [174] BATTERY_STATUS
[20:26:47.278559] [175] ATTITUDE_TARGET
[20:26:47.283538] [176] VFR_HUD
[20:26:47.289668] [7] RADIO
[20:26:47.292557] [7] RADIO_STATUS
[20:26:47.841694] [177] VFR_HUD
[20:26:47.947662] [178] HEARTBEAT
[20:26:48.180806] [8] RADIO
[20:26:48.183665] [8] RADIO_STATUS
[20:26:48.641766] [179] VFR_HUD
[20:26:49.005949] [180] HEARTBEAT
[20:26:49.013826] [181] ATTITUDE_TARGET
[20:26:49.210929] [9] RADIO
[20:26:49.213827] [9] RADIO_STATUS
[20:26:49.456855] [182] VFR_HUD
[20:26:50.016991] [183] HEARTBEAT
[20:26:50.250994] [184] VFR_HUD
[20:26:50.277975] [10] RADIO
[20:26:50.280966] [10] RADIO_STATUS
[20:26:51.073172] [185] HEARTBEAT
[20:26:51.080143] [186] SYS_STATUS
[20:26:51.114190] [187] BATTERY_STATUS
[20:26:51.116098] [188] EXTENDED_SYS_STATE
[20:26:51.124235] [189] ATTITUDE_TARGET
[20:26:51.129189] [190] VFR_HUD
[20:26:51.132106] [191] SYSTEM_TIME
[20:26:51.175155] [11] RADIO
[20:26:51.178100] [11] RADIO_STATUS
[20:26:51.860258] [192] VFR_HUD
[20:26:51.981311] [193] HEARTBEAT
[20:26:52.199322] [12] RADIO
[20:26:52.202265] [12] RADIO_STATUS
[20:26:52.675360] [194] VFR_HUD
[20:26:53.019452] [195] HEARTBEAT
[20:26:53.027448] [196] ATTITUDE_TARGET
[20:26:53.266479] [13] RADIO
[20:26:53.269447] [13] RADIO_STATUS
[20:26:53.359502] [197] VFR_HUD
[20:26:54.049793] [198] HEARTBEAT
[20:26:54.159698] [199] VFR_HUD
[20:26:54.191668] [14] RADIO
[20:26:54.194632] [14] RADIO_STATUS
[20:26:54.976886] [200] HEARTBEAT
[20:26:54.983805] [201] SYS_STATUS
[20:26:55.101832] [202] BATTERY_STATUS
[20:26:55.109824] [203] ATTITUDE_TARGET
[20:26:55.139808] [204] VFR_HUD
[20:26:55.188930] [15] RADIO
[20:26:55.190750] [15] RADIO_STATUS
[20:26:55.772049] [205] VFR_HUD
[20:26:55.993918] [206] HEARTBEAT
[20:26:56.232983] [16] RADIO
[20:26:56.235945] [16] RADIO_STATUS
[20:26:56.584155] [207] VFR_HUD
[20:26:57.047125] [208] HEARTBEAT
[20:26:57.055060] [209] ATTITUDE_TARGET
[20:26:57.257235] [17] RADIO
[20:26:57.260035] [17] RADIO_STATUS
[20:26:57.378143] [210] VFR_HUD
[20:26:57.953228] [211] HEARTBEAT
[20:26:58.193252] [212] VFR_HUD
[20:26:58.313211] [18] RADIO
[20:26:58.316213] [18] RADIO_STATUS
[20:26:58.995399] [213] HEARTBEAT
[20:26:59.002364] [214] SYS_STATUS
[20:26:59.121379] [215] BATTERY_STATUS
[20:26:59.234446] [216] ATTITUDE_TARGET
[20:26:59.238345] [217] VFR_HUD
[20:26:59.273387] [19] RADIO
[20:26:59.275549] [19] RADIO_STATUS
[20:26:59.802455] [218] VFR_HUD
[20:27:00.022490] [219] HEARTBEAT
[20:27:00.246492] [20] RADIO
[20:27:00.249442] [20] RADIO_STATUS
[20:27:00.596538] [220] VFR_HUD
[20:27:01.065680] [221] HEARTBEAT
[20:27:01.073688] [222] ATTITUDE_TARGET
[20:27:01.290688] [21] RADIO
[20:27:01.293668] [21] RADIO_STATUS
[20:27:01.406721] [223] VFR_HUD
[20:27:01.971823] [224] HEARTBEAT
[20:27:02.205857] [225] VFR_HUD
[20:27:02.232991] [22] RADIO
[20:27:02.235852] [22] RADIO_STATUS
[20:27:03.022980] [226] HEARTBEAT
[20:27:03.030061] [227] SYS_STATUS
[20:27:03.148980] [228] BATTERY_STATUS
[20:27:03.156946] [229] ATTITUDE_TARGET
[20:27:03.186967] [230] VFR_HUD
[20:27:03.235309] [23] RADIO
[20:27:03.237971] [23] RADIO_STATUS
[20:27:03.816065] [231] VFR_HUD
[20:27:04.041094] [232] HEARTBEAT
[20:27:04.274102] [24] RADIO
[20:27:04.277035] [24] RADIO_STATUS
[20:27:04.625166] [233] VFR_HUD
[20:27:04.974286] [234] HEARTBEAT
[20:27:04.982232] [235] ATTITUDE_TARGET
[20:27:05.304275] [25] RADIO
[20:27:05.307213] [25] RADIO_STATUS
[20:27:05.425282] [236] VFR_HUD
[20:27:06.000467] [237] HEARTBEAT
[20:27:06.234384] [238] VFR_HUD
[20:27:06.344358] [26] RADIO
[20:27:06.347335] [26] RADIO_STATUS
[20:27:07.041566] [239] HEARTBEAT
[20:27:07.048527] [240] SYS_STATUS
[20:27:07.163536] [241] BATTERY_STATUS
[20:27:07.280513] [242] ATTITUDE_TARGET
[20:27:07.285545] [243] VFR_HUD
[20:27:07.291462] [27] RADIO
[20:27:07.294475] [27] RADIO_STATUS
[20:27:07.848686] [244] VFR_HUD
[20:27:07.960727] [245] HEARTBEAT
[20:27:08.292719] [28] RADIO
[20:27:08.295655] [28] RADIO_STATUS
[20:27:08.643733] [246] VFR_HUD
[20:27:09.007883] [247] HEARTBEAT
[20:27:09.015772] [248] ATTITUDE_TARGET
[20:27:09.332840] [29] RADIO
[20:27:09.335810] [29] RADIO_STATUS
[20:27:09.458835] [249] VFR_HUD
[20:27:10.019068] [250] HEARTBEAT
[20:27:10.252916] [251] VFR_HUD
[20:27:10.279928] [30] RADIO
[20:27:10.282949] [30] RADIO_STATUS
[20:27:11.075141] [252] HEARTBEAT
[20:27:11.082080] [253] SYS_STATUS
[20:27:11.116065] [254] BATTERY_STATUS
[20:27:11.118044] [255] EXTENDED_SYS_STATE
[20:27:11.126058] [0] ATTITUDE_TARGET
[20:27:11.131013] [1] VFR_HUD
[20:27:11.133993] [2] SYSTEM_TIME
[20:27:11.282034] [31] RADIO
[20:27:11.285039] [31] RADIO_STATUS
[20:27:11.862185] [3] VFR_HUD
[20:27:11.983184] [4] HEARTBEAT
[20:27:12.321264] [32] RADIO
[20:27:12.324214] [32] RADIO_STATUS
[20:27:12.557272] [5] VFR_HUD
[20:27:13.021380] [6] HEARTBEAT
[20:27:13.028330] [7] ATTITUDE_TARGET
[20:27:13.350397] [33] RADIO
[20:27:13.353368] [33] RADIO_STATUS
[20:27:13.471397] [8] VFR_HUD
[20:27:14.051576] [9] HEARTBEAT
[20:27:14.161651] [10] VFR_HUD
[20:27:14.270591] [34] RADIO
[20:27:14.273548] [34] RADIO_STATUS
[20:27:14.983702] [11] HEARTBEAT
[20:27:14.990691] [12] SYS_STATUS
[20:27:15.029824] [13] BATTERY_STATUS
[20:27:15.037707] [14] ATTITUDE_TARGET
[20:27:15.042677] [15] VFR_HUD
[20:27:15.314729] [35] RADIO
[20:27:15.317725] [35] RADIO_STATUS
[20:27:16.005820] [16] VFR_HUD
[20:27:16.008853] [17] HEARTBEAT
[20:27:16.338921] [36] RADIO
[20:27:16.341901] [36] RADIO_STATUS
[20:27:16.584998] [18] VFR_HUD
[20:27:17.054135] [19] HEARTBEAT
[20:27:17.062042] [20] ATTITUDE_TARGET
[20:27:17.379098] [21] VFR_HUD
[20:27:17.407028] [37] RADIO
[20:27:17.409054] [37] RADIO_STATUS
[20:27:17.955158] [22] HEARTBEAT
[20:27:18.194158] [23] VFR_HUD
[20:27:18.315176] [38] RADIO
[20:27:18.318107] [38] RADIO_STATUS
[20:27:18.996319] [24] HEARTBEAT
[20:27:19.003296] [25] SYS_STATUS
[20:27:19.123378] [26] BATTERY_STATUS
[20:27:19.235345] [27] ATTITUDE_TARGET
[20:27:19.240295] [28] VFR_HUD
[20:27:19.328341] [39] RADIO
[20:27:19.331301] [39] RADIO_STATUS
[20:27:19.798384] [29] VFR_HUD
[20:27:20.024506] [30] HEARTBEAT
[20:27:20.372563] [40] RADIO
[20:27:20.375517] [40] RADIO_STATUS
[20:27:20.598624] [31] VFR_HUD
[20:27:20.943735] [32] HEARTBEAT
[20:27:20.966670] [33] ATTITUDE_TARGET
[20:27:21.397708] [41] RADIO
[20:27:21.399633] [41] RADIO_STATUS
[20:27:21.517709] [34] VFR_HUD
[20:27:21.972764] [35] HEARTBEAT
[20:27:22.207783] [36] VFR_HUD
[20:27:22.316822] [42] RADIO
[20:27:22.319839] [42] RADIO_STATUS
[20:27:23.024904] [37] HEARTBEAT
[20:27:23.030970] [38] SYS_STATUS
[20:27:23.149993] [39] BATTERY_STATUS
[20:27:23.157883] [40] ATTITUDE_TARGET
[20:27:23.187899] [41] VFR_HUD
[20:27:23.360925] [43] RADIO
[20:27:23.363888] [43] RADIO_STATUS
[20:27:23.817025] [42] VFR_HUD
[20:27:24.042048] [43] HEARTBEAT
[20:27:24.386106] [44] RADIO
[20:27:24.389128] [44] RADIO_STATUS
[20:27:24.626112] [44] VFR_HUD
[20:27:24.975159] [45] HEARTBEAT
[20:27:24.983138] [46] ATTITUDE_TARGET
[20:27:25.426209] [47] VFR_HUD
[20:27:25.458205] [45] RADIO
[20:27:25.461196] [45] RADIO_STATUS
[20:27:26.001262] [48] HEARTBEAT
[20:27:26.241332] [49] VFR_HUD
[20:27:26.361373] [46] RADIO
[20:27:26.364395] [46] RADIO_STATUS
[20:27:27.043416] [50] HEARTBEAT
[20:27:27.049426] [51] SYS_STATUS
[20:27:27.164453] [52] BATTERY_STATUS
[20:27:27.282522] [53] ATTITUDE_TARGET
[20:27:27.286456] [54] VFR_HUD
[20:27:27.374453] [47] RADIO
[20:27:27.377541] [47] RADIO_STATUS
[20:27:27.850545] [55] VFR_HUD
[20:27:27.962602] [56] HEARTBEAT
[20:27:28.419580] [48] RADIO
[20:27:28.422575] [48] RADIO_STATUS
[20:27:28.644693] [57] VFR_HUD
[20:27:29.003834] [58] HEARTBEAT
[20:27:29.011696] [59] ATTITUDE_TARGET
[20:27:29.333728] [49] RADIO
[20:27:29.336753] [49] RADIO_STATUS
[20:27:29.459738] [60] VFR_HUD
[20:27:30.019903] [61] HEARTBEAT
[20:27:30.253829] [62] VFR_HUD
[20:27:30.363959] [50] RADIO
[20:27:30.365805] [50] RADIO_STATUS
[20:27:30.944964] [63] HEARTBEAT
[20:27:30.964951] [64] SYS_STATUS
[20:27:31.003060] [65] BATTERY_STATUS
[20:27:31.003916] [66] EXTENDED_SYS_STATE
[20:27:31.011966] [67] ATTITUDE_TARGET
[20:27:31.016909] [68] VFR_HUD
[20:27:31.020965] [69] SYSTEM_TIME
[20:27:31.402969] [51] RADIO
[20:27:31.406042] [51] RADIO_STATUS
[20:27:31.754044] [70] VFR_HUD
[20:27:31.984173] [71] HEARTBEAT
[20:27:32.433139] [52] RADIO
[20:27:32.436200] [52] RADIO_STATUS
[20:27:32.559120] [72] VFR_HUD
[20:27:33.022299] [73] HEARTBEAT
[20:27:33.030262] [74] ATTITUDE_TARGET
[20:27:33.352570] [53] RADIO
[20:27:33.355287] [53] RADIO_STATUS
[20:27:33.391299] [75] VFR_HUD
[20:27:34.053424] [76] HEARTBEAT
[20:27:34.163433] [77] VFR_HUD
[20:27:34.392439] [54] RADIO
[20:27:34.395493] [54] RADIO_STATUS
[20:27:34.985597] [78] HEARTBEAT
[20:27:34.991664] [79] SYS_STATUS
[20:27:35.031537] [80] BATTERY_STATUS
[20:27:35.039597] [81] ATTITUDE_TARGET
[20:27:35.044574] [82] VFR_HUD
[20:27:35.421779] [55] RADIO
[20:27:35.424732] [55] RADIO_STATUS
[20:27:35.772723] [83] VFR_HUD
[20:27:35.997742] [84] HEARTBEAT
[20:27:36.461789] [56] RADIO
[20:27:36.463767] [56] RADIO_STATUS
[20:27:36.586817] [85] VFR_HUD
[20:27:37.055941] [86] HEARTBEAT
[20:27:37.063934] [87] ATTITUDE_TARGET
[20:27:37.381943] [88] VFR_HUD
[20:27:37.408982] [57] RADIO
[20:27:37.411913] [57] RADIO_STATUS
[20:27:37.962132] [89] HEARTBEAT
[20:27:38.301064] [90] VFR_HUD
[20:27:38.410100] [58] RADIO
[20:27:38.413061] [58] RADIO_STATUS
[20:27:38.998189] [91] HEARTBEAT
[20:27:39.005134] [92] SYS_STATUS
[20:27:39.125183] [93] BATTERY_STATUS
[20:27:39.237229] [94] ATTITUDE_TARGET
[20:27:39.242174] [95] VFR_HUD
[20:27:39.450177] [59] RADIO
[20:27:39.453331] [59] RADIO_STATUS
[20:27:39.800385] [96] VFR_HUD
[20:27:40.031347] [97] HEARTBEAT
[20:27:40.375331] [60] RADIO
[20:27:40.377330] [60] RADIO_STATUS
[20:27:40.600349] [98] VFR_HUD
[20:27:40.945463] [99] HEARTBEAT
[20:27:40.968444] [100] ATTITUDE_TARGET
[20:27:41.399486] [61] RADIO
[20:27:41.402476] [61] RADIO_STATUS
[20:27:41.520522] [101] VFR_HUD
[20:27:41.976681] [102] HEARTBEAT
[20:27:42.209617] [103] VFR_HUD
[20:27:42.438692] [62] RADIO
[20:27:42.441634] [62] RADIO_STATUS
[20:27:43.026756] [104] HEARTBEAT
[20:27:43.033729] [105] SYS_STATUS
[20:27:43.151757] [106] BATTERY_STATUS
[20:27:43.159763] [107] ATTITUDE_TARGET
[20:27:43.189867] [108] VFR_HUD
[20:27:43.467870] [63] RADIO
[20:27:43.471668] [63] RADIO_STATUS
[20:27:43.818848] [109] VFR_HUD
[20:27:44.043970] [110] HEARTBEAT
[20:27:44.507930] [64] RADIO
[20:27:44.510923] [64] RADIO_STATUS
[20:27:44.633986] [111] VFR_HUD
[20:27:44.977192] [112] HEARTBEAT
[20:27:44.985037] [113] ATTITUDE_TARGET
[20:27:45.428159] [114] VFR_HUD
[20:27:45.460124] [65] RADIO
[20:27:45.463088] [65] RADIO_STATUS
[20:27:46.006165] [115] HEARTBEAT
[20:27:46.243271] [116] VFR_HUD
[20:27:46.457275] [66] RADIO
[20:27:46.460228] [66] RADIO_STATUS
[20:27:47.045357] [117] HEARTBEAT
[20:27:47.051372] [118] SYS_STATUS
[20:27:47.171381] [119] BATTERY_STATUS
[20:27:47.283401] [120] ATTITUDE_TARGET
[20:27:47.288359] [121] VFR_HUD
[20:27:47.501463] [67] RADIO
[20:27:47.505584] [67] RADIO_STATUS
[20:27:47.852500] [122] VFR_HUD
[20:27:47.963528] [123] HEARTBEAT
[20:27:48.421589] [68] RADIO
[20:27:48.424496] [68] RADIO_STATUS
[20:27:48.646555] [124] VFR_HUD
[20:27:49.005703] [125] HEARTBEAT
[20:27:49.013661] [126] ATTITUDE_TARGET
[20:27:49.445725] [69] RADIO
[20:27:49.448674] [69] RADIO_STATUS
[20:27:49.566748] [127] VFR_HUD
[20:27:50.021906] [128] HEARTBEAT
[20:27:50.255883] [129] VFR_HUD
[20:27:50.490309] [70] RADIO
[20:27:50.492974] [70] RADIO_STATUS
[20:27:50.942883] [130] HEARTBEAT
[20:27:50.961082] [131] SYS_STATUS
[20:27:51.007780] [132] BATTERY_STATUS
[20:27:51.007959] [133] EXTENDED_SYS_STATE
[20:27:51.014123] [134] ATTITUDE_TARGET
[20:27:51.019959] [135] VFR_HUD
[20:27:51.022797] [136] SYSTEM_TIME
[20:27:51.514014] [71] RADIO
[20:27:51.516942] [71] RADIO_STATUS
[20:27:51.760022] [137] VFR_HUD
[20:27:51.980306] [138] HEARTBEAT
[20:27:52.434191] [72] RADIO
[20:27:52.437109] [72] RADIO_STATUS
[20:27:52.554185] [139] VFR_HUD
[20:27:53.023393] [140] HEARTBEAT
[20:27:53.031240] [141] ATTITUDE_TARGET
[20:27:53.369292] [142] VFR_HUD
[20:27:53.490321] [73] RADIO
[20:27:53.493264] [73] RADIO_STATUS
[20:27:54.049465] [143] HEARTBEAT
[20:27:54.164391] [144] VFR_HUD
[20:27:54.505848] [74] RADIO
[20:27:54.507908] [74] RADIO_STATUS
[20:27:54.986823] [145] HEARTBEAT
[20:27:54.992535] [146] SYS_STATUS
[20:27:55.032601] [147] BATTERY_STATUS
[20:27:55.040557] [148] ATTITUDE_TARGET
[20:27:55.045538] [149] VFR_HUD
[20:27:55.427584] [75] RADIO
[20:27:55.430633] [75] RADIO_STATUS
[20:27:55.773803] [150] VFR_HUD
[20:27:55.998747] [151] HEARTBEAT
[20:27:56.462801] [76] RADIO
[20:27:56.465756] [76] RADIO_STATUS
[20:27:56.582769] [152] VFR_HUD
[20:27:57.057833] [153] HEARTBEAT
[20:27:57.064834] [154] ATTITUDE_TARGET
[20:27:57.382867] [155] VFR_HUD
[20:27:57.491854] [77] RADIO
[20:27:57.494857] [77] RADIO_STATUS
[20:27:57.962980] [156] HEARTBEAT
[20:27:58.192184] [157] VFR_HUD
[20:27:58.532078] [78] RADIO
[20:27:58.534039] [78] RADIO_STATUS
[20:27:59.000185] [158] HEARTBEAT
[20:27:59.006155] [159] SYS_STATUS
[20:27:59.121182] [160] BATTERY_STATUS
[20:27:59.239182] [161] ATTITUDE_TARGET
[20:27:59.243113] [162] VFR_HUD
[20:27:59.561215] [79] RADIO
[20:27:59.564114] [79] RADIO_STATUS
[20:27:59.802264] [163] VFR_HUD
[20:28:00.032308] [164] HEARTBEAT
[20:28:00.481319] [80] RADIO
[20:28:00.483243] [80] RADIO_STATUS
[20:28:00.601381] [165] VFR_HUD
[20:28:00.952447] [166] HEARTBEAT
[20:28:01.069411] [167] ATTITUDE_TARGET
[20:28:01.411445] [168] VFR_HUD
[20:28:01.520446] [81] RADIO
[20:28:01.523399] [81] RADIO_STATUS
[20:28:01.976660] [169] HEARTBEAT
[20:28:02.210740] [170] VFR_HUD
[20:28:02.549643] [82] RADIO
[20:28:02.554818] [82] RADIO_STATUS
[20:28:03.032728] [171] HEARTBEAT
[20:28:03.039751] [172] SYS_STATUS
[20:28:03.079695] [173] BATTERY_STATUS
[20:28:03.087978] [174] ATTITUDE_TARGET
[20:28:03.092709] [175] VFR_HUD
[20:28:03.471380] [83] RADIO
[20:28:03.473871] [83] RADIO_STATUS
[20:28:03.820777] [176] VFR_HUD
[20:28:04.045819] [177] HEARTBEAT
[20:28:04.508896] [84] RADIO
[20:28:04.511829] [84] RADIO_STATUS
[20:28:04.634917] [178] VFR_HUD
[20:28:04.978994] [179] HEARTBEAT
[20:28:04.987028] [180] ATTITUDE_TARGET
[20:28:05.430015] [181] VFR_HUD
[20:28:05.539069] [85] RADIO
[20:28:05.542021] [85] RADIO_STATUS
[20:28:06.005107] [182] HEARTBEAT
[20:28:06.245157] [183] VFR_HUD
[20:28:06.578172] [86] RADIO
[20:28:06.581122] [86] RADIO_STATUS
[20:28:07.046315] [184] HEARTBEAT
[20:28:07.053345] [185] SYS_STATUS
[20:28:07.173293] [186] BATTERY_STATUS
[20:28:07.285338] [187] ATTITUDE_TARGET
[20:28:07.290301] [188] VFR_HUD
[20:28:07.498346] [87] RADIO
[20:28:07.501273] [87] RADIO_STATUS
[20:28:07.848397] [189] VFR_HUD
[20:28:07.954467] [190] HEARTBEAT
[20:28:08.527482] [88] RADIO
[20:28:08.530426] [88] RADIO_STATUS
[20:28:08.648543] [191] VFR_HUD
[20:28:09.007637] [192] HEARTBEAT
[20:28:09.015595] [193] ATTITUDE_TARGET
[20:28:09.457620] [194] VFR_HUD
[20:28:09.566672] [89] RADIO
[20:28:09.569664] [89] RADIO_STATUS
[20:28:10.023730] [195] HEARTBEAT
[20:28:10.152666] [196] VFR_HUD
[20:28:10.596920] [90] RADIO
[20:28:10.599791] [90] RADIO_STATUS
[20:28:10.947880] [197] HEARTBEAT
[20:28:10.967866] [198] SYS_STATUS
[20:28:11.006112] [199] BATTERY_STATUS
[20:28:11.007829] [200] EXTENDED_SYS_STATE
[20:28:11.015905] [201] ATTITUDE_TARGET
[20:28:11.020941] [202] VFR_HUD
[20:28:11.023906] [203] SYSTEM_TIME
[20:28:11.516003] [91] RADIO
[20:28:11.518910] [91] RADIO_STATUS
[20:28:11.762129] [204] VFR_HUD
[20:28:11.982054] [205] HEARTBEAT
[20:28:12.557139] [206] VFR_HUD
[20:28:12.589094] [92] RADIO
[20:28:12.593341] [92] RADIO_STATUS
[20:28:13.026246] [207] HEARTBEAT
[20:28:13.034198] [208] ATTITUDE_TARGET
[20:28:13.372293] [209] VFR_HUD
[20:28:13.588702] [93] RADIO
[20:28:13.588908] [93] RADIO_STATUS
[20:28:14.051458] [210] HEARTBEAT
[20:28:14.166384] [211] VFR_HUD
[20:28:14.630510] [94] RADIO
[20:28:14.633635] [94] RADIO_STATUS
[20:28:14.983523] [212] HEARTBEAT
[20:28:14.990444] [213] SYS_STATUS
[20:28:15.108581] [214] BATTERY_STATUS
[20:28:15.116470] [215] ATTITUDE_TARGET
[20:28:15.146470] [216] VFR_HUD
[20:28:15.550582] [95] RADIO
[20:28:15.553794] [95] RADIO_STATUS
[20:28:15.775592] [217] VFR_HUD
[20:28:16.000701] [218] HEARTBEAT
[20:28:16.577333] [96] RADIO
[20:28:16.577703] [96] RADIO_STATUS
[20:28:16.694741] [219] VFR_HUD
[20:28:17.053856] [220] HEARTBEAT
[20:28:17.061813] [221] ATTITUDE_TARGET
[20:28:17.384962] [222] VFR_HUD
[20:28:17.618902] [97] RADIO
[20:28:17.621916] [97] RADIO_STATUS
[20:28:17.965925] [223] HEARTBEAT
[20:28:18.194976] [224] VFR_HUD
[20:28:18.644047] [98] RADIO
[20:28:18.646024] [98] RADIO_STATUS
[20:28:19.002144] [225] HEARTBEAT
[20:28:19.008106] [226] SYS_STATUS
[20:28:19.123158] [227] BATTERY_STATUS
[20:28:19.241132] [228] ATTITUDE_TARGET
[20:28:19.245074] [229] VFR_HUD
[20:28:19.563150] [99] RADIO
[20:28:19.566130] [99] RADIO_STATUS
[20:28:19.804201] [230] VFR_HUD
[20:28:20.034369] [231] HEARTBEAT
[20:28:20.603277] [232] VFR_HUD
[20:28:20.635312] [100] RADIO
[20:28:20.638331] [100] RADIO_STATUS
[20:28:20.967376] [233] HEARTBEAT
[20:28:20.975573] [234] ATTITUDE_TARGET
[20:28:21.418446] [235] VFR_HUD
[20:28:21.632593] [101] RADIO
[20:28:21.635476] [101] RADIO_STATUS
[20:28:21.978584] [236] HEARTBEAT
[20:28:22.212600] [237] VFR_HUD
[20:28:22.676545] [102] RADIO
[20:28:22.679505] [102] RADIO_STATUS
[20:28:23.034631] [238] HEARTBEAT
[20:28:23.041559] [239] SYS_STATUS
[20:28:23.081629] [240] BATTERY_STATUS
[20:28:23.089299] [241] ATTITUDE_TARGET
[20:28:23.093572] [242] VFR_HUD
[20:28:23.590717] [103] RADIO
[20:28:23.593741] [103] RADIO_STATUS
[20:28:23.952830] [243] VFR_HUD
[20:28:23.955997] [244] HEARTBEAT
[20:28:24.620847] [104] RADIO
[20:28:24.623747] [104] RADIO_STATUS
[20:28:24.658797] [245] VFR_HUD
[20:28:24.980846] [246] HEARTBEAT
[20:28:24.987894] [247] ATTITUDE_TARGET
[20:28:25.430944] [248] VFR_HUD
[20:28:25.665100] [105] RADIO
[20:28:25.667975] [105] RADIO_STATUS
[20:28:26.011082] [249] HEARTBEAT
[20:28:26.241104] [250] VFR_HUD
[20:28:26.690150] [106] RADIO
[20:28:26.693163] [106] RADIO_STATUS
[20:28:27.048217] [251] HEARTBEAT
[20:28:27.054198] [252] SYS_STATUS
[20:28:27.174233] [253] BATTERY_STATUS
[20:28:27.287231] [254] ATTITUDE_TARGET
[20:28:27.291459] [255] VFR_HUD
[20:28:27.609372] [107] RADIO
[20:28:27.612187] [107] RADIO_STATUS
[20:28:27.850270] [0] VFR_HUD
[20:28:27.955397] [1] HEARTBEAT
[20:28:28.649439] [2] VFR_HUD
[20:28:28.676412] [108] RADIO
[20:28:28.679339] [108] RADIO_STATUS
[20:28:29.008482] [3] HEARTBEAT
[20:28:29.016484] [4] ATTITUDE_TARGET
[20:28:29.459523] [5] VFR_HUD
[20:28:29.678623] [109] RADIO
[20:28:29.681648] [109] RADIO_STATUS
[20:28:30.024742] [6] HEARTBEAT
[20:28:30.153727] [7] VFR_HUD
[20:28:30.717717] [110] RADIO
[20:28:30.723780] [110] RADIO_STATUS
[20:28:30.949799] [8] HEARTBEAT
[20:28:30.972469] [9] SYS_STATUS
[20:28:31.007811] [10] BATTERY_STATUS
[20:28:31.008703] [11] EXTENDED_SYS_STATE
[20:28:31.016721] [12] ATTITUDE_TARGET
[20:28:31.021732] [13] VFR_HUD
[20:28:31.025747] [14] SYSTEM_TIME
[20:28:31.637880] [111] RADIO
[20:28:31.640773] [111] RADIO_STATUS
[20:28:31.763906] [15] VFR_HUD
[20:28:31.983992] [16] HEARTBEAT
[20:28:32.558054] [17] VFR_HUD
[20:28:32.667089] [112] RADIO
[20:28:32.669987] [112] RADIO_STATUS
[20:28:33.027163] [18] HEARTBEAT
[20:28:33.035195] [19] ATTITUDE_TARGET
[20:28:33.368196] [20] VFR_HUD
[20:28:33.707208] [113] RADIO
[20:28:33.710155] [113] RADIO_STATUS
[20:28:33.939922] [21] HEARTBEAT
[20:28:34.167368] [22] VFR_HUD
[20:28:34.736344] [114] RADIO
[20:28:34.739476] [114] RADIO_STATUS
[20:28:34.984423] [23] HEARTBEAT
[20:28:34.991348] [24] SYS_STATUS
[20:28:35.109429] [25] BATTERY_STATUS
[20:28:35.117391] [26] ATTITUDE_TARGET
[20:28:35.147429] [27] VFR_HUD
[20:28:35.656448] [115] RADIO
[20:28:35.659400] [115] RADIO_STATUS
[20:28:35.776587] [28] VFR_HUD
[20:28:36.002583] [29] HEARTBEAT
[20:28:36.587967] [30] VFR_HUD
[20:28:36.695681] [116] RADIO
[20:28:36.698730] [116] RADIO_STATUS
[20:28:37.055716] [31] HEARTBEAT
[20:28:37.062687] [32] ATTITUDE_TARGET
[20:28:37.385754] [33] VFR_HUD
[20:28:37.724783] [117] RADIO
[20:28:37.727760] [117] RADIO_STATUS
[20:28:37.960887] [34] HEARTBEAT
[20:28:38.305909] [35] VFR_HUD
[20:28:38.764983] [118] RADIO
[20:28:38.766942] [118] RADIO_STATUS
[20:28:39.003064] [36] HEARTBEAT
[20:28:39.009995] [37] SYS_STATUS
[20:28:39.124021] [38] BATTERY_STATUS
[20:28:39.242073] [39] ATTITUDE_TARGET
[20:28:39.247043] [40] VFR_HUD
[20:28:39.684110] [119] RADIO
[20:28:39.687103] [119] RADIO_STATUS
[20:28:39.810154] [41] VFR_HUD
[20:28:40.030195] [42] HEARTBEAT
[20:28:40.604358] [43] VFR_HUD
[20:28:40.714372] [120] RADIO
[20:28:40.716217] [120] RADIO_STATUS
[20:28:40.968287] [44] HEARTBEAT
[20:28:40.976348] [45] ATTITUDE_TARGET
[20:28:41.419434] [46] VFR_HUD
[20:28:41.753433] [121] RADIO
[20:28:41.756387] [121] RADIO_STATUS
[20:28:41.979526] [47] HEARTBEAT
[20:28:42.214784] [48] VFR_HUD
[20:28:42.782788] [122] RADIO
[20:28:42.786000] [122] RADIO_STATUS
[20:28:43.036669] [49] HEARTBEAT
[20:28:43.042569] [50] SYS_STATUS
[20:28:43.082661] [51] BATTERY_STATUS
[20:28:43.090579] [52] ATTITUDE_TARGET
[20:28:43.095547] [53] VFR_HUD
[20:28:43.702759] [123] RADIO
[20:28:43.705719] [123] RADIO_STATUS
[20:28:43.953767] [54] VFR_HUD
[20:28:43.956784] [55] HEARTBEAT
[20:28:44.632901] [56] VFR_HUD
[20:28:44.746835] [124] RADIO
[20:28:44.749857] [124] RADIO_STATUS
[20:28:44.981929] [57] HEARTBEAT
[20:28:44.989945] [58] ATTITUDE_TARGET
[20:28:45.432043] [59] VFR_HUD
[20:28:45.771461] [125] RADIO
[20:28:45.774104] [125] RADIO_STATUS
[20:28:46.012194] [60] HEARTBEAT
[20:28:46.242097] [61] VFR_HUD
[20:28:46.816191] [126] RADIO
[20:28:46.819204] [126] RADIO_STATUS
[20:28:47.049225] [62] HEARTBEAT
[20:28:47.056202] [63] SYS_STATUS
[20:28:47.170317] [64] BATTERY_STATUS
[20:28:47.288311] [65] ATTITUDE_TARGET
[20:28:47.293210] [66] VFR_HUD
[20:28:47.735310] [127] RADIO
[20:28:47.738283] [127] RADIO_STATUS
[20:28:47.851335] [67] VFR_HUD
[20:28:47.956385] [68] HEARTBEAT
[20:28:48.650408] [69] VFR_HUD
[20:28:48.760440] [128] RADIO
[20:28:48.762406] [128] RADIO_STATUS
[20:28:49.014522] [70] HEARTBEAT
[20:28:49.022531] [71] ATTITUDE_TARGET
[20:28:49.345561] [72] VFR_HUD
[20:28:49.804656] [129] RADIO
[20:28:49.807609] [129] RADIO_STATUS
[20:28:50.026801] [73] HEARTBEAT
[20:28:50.155043] [74] VFR_HUD
[20:28:50.722018] [130] RADIO
[20:28:50.722325] [130] RADIO_STATUS
[20:28:50.944795] [75] HEARTBEAT
[20:28:50.965000] [76] SYS_STATUS
[20:28:51.008768] [77] BATTERY_STATUS
[20:28:51.009772] [78] EXTENDED_SYS_STATE
[20:28:51.019515] [79] ATTITUDE_TARGET
[20:28:51.022739] [80] VFR_HUD
[20:28:51.025766] [81] SYSTEM_TIME
[20:28:51.748949] [131] RADIO
[20:28:51.752114] [131] RADIO_STATUS
[20:28:51.869571] [82] VFR_HUD
[20:28:51.984962] [83] HEARTBEAT
[20:28:52.559042] [84] VFR_HUD
[20:28:52.788078] [132] RADIO
[20:28:52.791021] [132] RADIO_STATUS
[20:28:53.028120] [85] HEARTBEAT
[20:28:53.036167] [86] ATTITUDE_TARGET
[20:28:53.369209] [87] VFR_HUD
[20:28:53.818239] [133] RADIO
[20:28:53.821197] [133] RADIO_STATUS
[20:28:53.939286] [88] HEARTBEAT
[20:28:54.168323] [89] VFR_HUD
[20:28:54.737485] [134] RADIO
[20:28:54.740479] [134] RADIO_STATUS
[20:28:54.985784] [90] HEARTBEAT
[20:28:54.992412] [91] SYS_STATUS
[20:28:55.110438] [92] BATTERY_STATUS
[20:28:55.118396] [93] ATTITUDE_TARGET
[20:28:55.148397] [94] VFR_HUD
[20:28:55.777500] [95] VFR_HUD
[20:28:55.804546] [135] RADIO
[20:28:55.807445] [135] RADIO_STATUS
[20:28:56.002607] [96] HEARTBEAT
[20:28:56.586715] [97] VFR_HUD
[20:28:56.806757] [136] RADIO
[20:28:56.808694] [136] RADIO_STATUS
[20:28:57.057906] [98] HEARTBEAT
[20:28:57.063839] [99] ATTITUDE_TARGET
[20:28:57.388399] [100] VFR_HUD
[20:28:57.845874] [137] RADIO
[20:28:57.848755] [137] RADIO_STATUS
[20:28:57.961916] [101] HEARTBEAT
[20:28:58.201871] [102] VFR_HUD
[20:28:58.766046] [138] RADIO
[20:28:58.767960] [138] RADIO_STATUS
[20:28:59.003972] [103] HEARTBEAT
[20:28:59.010994] [104] SYS_STATUS
[20:28:59.125063] [105] BATTERY_STATUS
[20:28:59.243016] [106] ATTITUDE_TARGET
[20:28:59.247968] [107] VFR_HUD
[20:28:59.795047] [139] RADIO
[20:28:59.798030] [139] RADIO_STATUS
[20:28:59.833148] [108] VFR_HUD
[20:29:00.031078] [109] HEARTBEAT
[20:29:00.605257] [110] VFR_HUD
[20:29:00.834176] [140] RADIO
[20:29:00.837098] [140] RADIO_STATUS
[20:29:00.964119] [111] HEARTBEAT
[20:29:00.972199] [112] ATTITUDE_TARGET
[20:29:01.420477] [113] VFR_HUD
[20:29:01.864286] [141] RADIO
[20:29:01.867288] [141] RADIO_STATUS
[20:29:01.980317] [114] HEARTBEAT
[20:29:02.214450] [115] VFR_HUD
[20:29:02.783496] [142] RADIO
[20:29:02.786492] [142] RADIO_STATUS
[20:29:03.031504] [116] HEARTBEAT
[20:29:03.038440] [117] SYS_STATUS
[20:29:03.157563] [118] BATTERY_STATUS
[20:29:03.165689] [119] ATTITUDE_TARGET
[20:29:03.195492] [120] VFR_HUD
[20:29:03.824514] [121] VFR_HUD
[20:29:03.851562] [143] RADIO
[20:29:03.854565] [143] RADIO_STATUS
[20:29:04.049616] [122] HEARTBEAT
[20:29:04.633694] [123] VFR_HUD
[20:29:04.852703] [144] RADIO
[20:29:04.855696] [144] RADIO_STATUS
[20:29:04.982746] [124] HEARTBEAT
[20:29:04.990724] [125] ATTITUDE_TARGET
[20:29:05.432819] [126] VFR_HUD
[20:29:05.892895] [145] RADIO
[20:29:05.895005] [145] RADIO_STATUS
[20:29:06.014045] [127] HEARTBEAT
[20:29:06.242955] [128] VFR_HUD
[20:29:06.817069] [146] RADIO
[20:29:06.819996] [146] RADIO_STATUS
[20:29:07.050084] [129] HEARTBEAT
[20:29:07.057040] [130] SYS_STATUS
[20:29:07.172096] [131] BATTERY_STATUS
[20:29:07.289117] [132] ATTITUDE_TARGET
[20:29:07.294141] [133] VFR_HUD
[20:29:07.841175] [147] RADIO
[20:29:07.844142] [147] RADIO_STATUS
[20:29:07.880120] [134] VFR_HUD
[20:29:07.957234] [135] HEARTBEAT
[20:29:08.652298] [136] VFR_HUD
[20:29:08.886388] [148] RADIO
[20:29:08.889286] [148] RADIO_STATUS
[20:29:09.016359] [137] HEARTBEAT
[20:29:09.024338] [138] ATTITUDE_TARGET
[20:29:09.466425] [139] VFR_HUD
[20:29:09.805904] [149] RADIO
[20:29:09.808431] [149] RADIO_STATUS
[20:29:10.026539] [140] HEARTBEAT
[20:29:10.150565] [141] VFR_HUD
[20:29:10.830580] [150] RADIO
[20:29:10.833569] [150] RADIO_STATUS
[20:29:10.946641] [142] HEARTBEAT
[20:29:10.966663] [143] SYS_STATUS
[20:29:11.009648] [144] BATTERY_STATUS
[20:29:11.011582] [145] EXTENDED_SYS_STATE
[20:29:11.019585] [146] ATTITUDE_TARGET
[20:29:11.023605] [147] VFR_HUD
[20:29:11.027579] [148] SYSTEM_TIME
[20:29:11.760809] [149] VFR_HUD
[20:29:11.874796] [151] RADIO
[20:29:11.877738] [151] RADIO_STATUS
[20:29:11.990818] [150] HEARTBEAT
[20:29:12.559901] [151] VFR_HUD
[20:29:12.899889] [152] RADIO
[20:29:12.901891] [152] RADIO_STATUS
[20:29:13.028943] [152] HEARTBEAT
[20:29:13.036930] [153] ATTITUDE_TARGET
[20:29:13.369966] [154] VFR_HUD
[20:29:13.944112] [153] RADIO
[20:29:13.947032] [153] RADIO_STATUS
[20:29:14.060115] [155] HEARTBEAT
[20:29:14.169116] [156] VFR_HUD
[20:29:14.864337] [154] RADIO
[20:29:14.866147] [154] RADIO_STATUS
[20:29:14.987249] [157] HEARTBEAT
[20:29:14.993211] [158] SYS_STATUS
[20:29:15.112247] [159] BATTERY_STATUS
[20:29:15.120275] [160] ATTITUDE_TARGET
[20:29:15.150180] [161] VFR_HUD
[20:29:15.779313] [162] VFR_HUD
[20:29:15.888314] [155] RADIO
[20:29:15.891305] [155] RADIO_STATUS
[20:29:16.004361] [163] HEARTBEAT
[20:29:16.593626] [164] VFR_HUD
[20:29:16.932556] [156] RADIO
[20:29:16.935529] [156] RADIO_STATUS
[20:29:17.062732] [165] HEARTBEAT
[20:29:17.070556] [166] ATTITUDE_TARGET
[20:29:17.388635] [167] VFR_HUD
[20:29:17.956685] [157] RADIO
[20:29:17.959649] [157] RADIO_STATUS
[20:29:18.073738] [168] HEARTBEAT
[20:29:18.203222] [169] VFR_HUD
[20:29:18.876782] [158] RADIO
[20:29:18.879735] [158] RADIO_STATUS
[20:29:19.004849] [170] HEARTBEAT
[20:29:19.011818] [171] SYS_STATUS
[20:29:19.131798] [172] BATTERY_STATUS
[20:29:19.243862] [173] ATTITUDE_TARGET
[20:29:19.248818] [174] VFR_HUD
[20:29:19.812025] [175] VFR_HUD
[20:29:19.928040] [159] RADIO
[20:29:19.930885] [159] RADIO_STATUS
[20:29:20.041009] [176] HEARTBEAT
[20:29:20.606054] [177] VFR_HUD
[20:29:20.946118] [160] RADIO
[20:29:20.948089] [160] RADIO_STATUS
[20:29:21.075146] [178] HEARTBEAT
[20:29:21.083117] [179] ATTITUDE_TARGET
[20:29:21.416132] [180] VFR_HUD
[20:29:21.981297] [181] HEARTBEAT
[20:29:22.013276] [161] RADIO
[20:29:22.016198] [161] RADIO_STATUS
[20:29:22.215296] [182] VFR_HUD
[20:29:22.904405] [162] RADIO
[20:29:22.907336] [162] RADIO_STATUS
[20:29:23.033455] [183] HEARTBEAT
[20:29:23.039473] [184] SYS_STATUS
[20:29:23.158467] [185] BATTERY_STATUS
[20:29:23.166451] [186] ATTITUDE_TARGET
[20:29:23.196457] [187] VFR_HUD
[20:29:23.825565] [188] VFR_HUD
[20:29:23.934592] [163] RADIO
[20:29:23.937782] [163] RADIO_STATUS
[20:29:24.050579] [189] HEARTBEAT
[20:29:24.634644] [190] VFR_HUD
[20:29:24.983778] [191] HEARTBEAT
[20:29:24.991823] [192] ATTITUDE_TARGET
[20:29:25.083729] [164] RADIO
[20:29:25.086683] [164] RADIO_STATUS
[20:29:25.433763] [193] VFR_HUD
[20:29:26.002808] [165] RADIO
[20:29:26.005832] [165] RADIO_STATUS
[20:29:26.119047] [194] HEARTBEAT
[20:29:26.248851] [195] VFR_HUD
[20:29:26.921957] [166] RADIO
[20:29:26.924937] [166] RADIO_STATUS
[20:29:26.981981] [196] HEARTBEAT
[20:29:26.989017] [197] SYS_STATUS
[20:29:26.996995] [198] BATTERY_STATUS
[20:29:27.009000] [199] ATTITUDE_TARGET
[20:29:27.013950] [200] VFR_HUD
[20:29:27.859063] [201] VFR_HUD
[20:29:27.969191] [202] HEARTBEAT
[20:29:27.995104] [167] RADIO
[20:29:27.998139] [167] RADIO_STATUS
[20:29:28.652241] [203] VFR_HUD
[20:29:28.991281] [168] RADIO
[20:29:28.994278] [168] RADIO_STATUS
[20:29:29.039274] [204] HEARTBEAT
[20:29:29.047222] [205] ATTITUDE_TARGET
[20:29:29.467394] [206] VFR_HUD
[20:29:30.027403] [207] HEARTBEAT
[20:29:30.140449] [169] RADIO
[20:29:30.143598] [169] RADIO_STATUS
[20:29:30.261435] [208] VFR_HUD
[20:29:30.958612] [209] HEARTBEAT
[20:29:30.965676] [210] SYS_STATUS
[20:29:31.060585] [170] RADIO
[20:29:31.063542] [170] RADIO_STATUS
[20:29:31.101625] [211] BATTERY_STATUS
[20:29:31.131602] [212] EXTENDED_SYS_STATE
[20:29:31.139583] [213] ATTITUDE_TARGET
[20:29:31.144573] [214] VFR_HUD
[20:29:31.147554] [215] SYSTEM_TIME
[20:29:31.979719] [171] RADIO
[20:29:31.982653] [171] RADIO_STATUS
[20:29:32.024715] [216] VFR_HUD
[20:29:32.027672] [217] HEARTBEAT
[20:29:32.560826] [218] VFR_HUD
[20:29:33.030051] [219] HEARTBEAT
[20:29:33.036959] [220] ATTITUDE_TARGET
[20:29:33.130015] [172] RADIO
[20:29:33.131888] [172] RADIO_STATUS
[20:29:33.369986] [221] VFR_HUD
[20:29:34.049119] [173] RADIO
[20:29:34.052067] [173] RADIO_STATUS
[20:29:34.083090] [222] HEARTBEAT
[20:29:34.174005] [223] VFR_HUD
[20:29:34.969227] [174] RADIO
[20:29:34.971200] [174] RADIO_STATUS
[20:29:35.028230] [224] HEARTBEAT
[20:29:35.035222] [225] SYS_STATUS
[20:29:35.043226] [226] BATTERY_STATUS
[20:29:35.055198] [227] ATTITUDE_TARGET
[20:29:35.060273] [228] VFR_HUD
[20:29:35.779330] [229] VFR_HUD
[20:29:36.006430] [230] HEARTBEAT
[20:29:36.118360] [175] RADIO
[20:29:36.121368] [175] RADIO_STATUS
[20:29:36.594400] [231] VFR_HUD
[20:29:37.037497] [176] RADIO
[20:29:37.040488] [176] RADIO_STATUS
[20:29:37.085541] [232] HEARTBEAT
[20:29:37.093492] [233] ATTITUDE_TARGET
[20:29:37.388497] [234] VFR_HUD
[20:29:37.963608] [235] HEARTBEAT
[20:29:38.077688] [177] RADIO
[20:29:38.080639] [177] RADIO_STATUS
[20:29:38.307712] [236] VFR_HUD
[20:29:39.004822] [237] HEARTBEAT
[20:29:39.011786] [238] SYS_STATUS
[20:29:39.024766] [178] RADIO
[20:29:39.027735] [178] RADIO_STATUS
[20:29:39.131821] [239] BATTERY_STATUS
[20:29:39.243861] [240] ATTITUDE_TARGET
[20:29:39.248786] [241] VFR_HUD
[20:29:39.807029] [242] VFR_HUD
[20:29:40.025892] [179] RADIO
[20:29:40.028950] [179] RADIO_STATUS
[20:29:40.059921] [243] HEARTBEAT
[20:29:40.607284] [244] VFR_HUD
[20:29:40.966086] [245] HEARTBEAT
[20:29:40.974060] [246] ATTITUDE_TARGET
[20:29:41.094052] [180] RADIO
[20:29:41.097042] [180] RADIO_STATUS
[20:29:41.416184] [247] VFR_HUD
[20:29:41.982221] [248] HEARTBEAT
[20:29:42.013214] [181] RADIO
[20:29:42.016168] [181] RADIO_STATUS
[20:29:42.216282] [249] VFR_HUD
[20:29:43.015343] [182] RADIO
[20:29:43.018433] [182] RADIO_STATUS
[20:29:43.143410] [250] HEARTBEAT
[20:29:43.150391] [251] SYS_STATUS
[20:29:43.272427] [252] BATTERY_STATUS
[20:29:43.382453] [253] ATTITUDE_TARGET
[20:29:43.387392] [254] VFR_HUD
[20:29:43.825431] [255] VFR_HUD
[20:29:44.051529] [0] HEARTBEAT
[20:29:44.082464] [183] RADIO
[20:29:44.085461] [183] RADIO_STATUS
[20:29:44.640599] [1] VFR_HUD
[20:29:44.984638] [2] HEARTBEAT
[20:29:44.992673] [3] ATTITUDE_TARGET
[20:29:45.084622] [184] RADIO
[20:29:45.087569] [184] RADIO_STATUS
[20:29:45.434764] [4] VFR_HUD
[20:29:46.009759] [5] HEARTBEAT
[20:29:46.128778] [185] RADIO
[20:29:46.131779] [185] RADIO_STATUS
[20:29:46.249826] [6] VFR_HUD
[20:29:47.051944] [7] HEARTBEAT
[20:29:47.057935] [8] SYS_STATUS
[20:29:47.070908] [186] RADIO
[20:29:47.073936] [186] RADIO_STATUS
[20:29:47.172984] [9] BATTERY_STATUS
[20:29:47.291038] [10] ATTITUDE_TARGET
[20:29:47.295974] [11] VFR_HUD
[20:29:47.859048] [12] VFR_HUD
[20:29:47.971103] [13] HEARTBEAT
[20:29:48.073121] [187] RADIO
[20:29:48.076163] [187] RADIO_STATUS
[20:29:48.653229] [14] VFR_HUD
[20:29:49.012249] [15] HEARTBEAT
[20:29:49.020283] [16] ATTITUDE_TARGET
[20:29:49.140223] [188] RADIO
[20:29:49.143182] [188] RADIO_STATUS
[20:29:49.463288] [17] VFR_HUD
[20:29:50.028388] [18] HEARTBEAT
[20:29:50.142368] [189] RADIO
[20:29:50.144371] [189] RADIO_STATUS
[20:29:50.262446] [19] VFR_HUD
[20:29:50.959633] [20] HEARTBEAT
[20:29:50.966473] [21] SYS_STATUS
[20:29:51.062745] [190] RADIO
[20:29:51.064545] [190] RADIO_STATUS
[20:29:51.105677] [22] BATTERY_STATUS
[20:29:51.133630] [23] EXTENDED_SYS_STATE
[20:29:51.140559] [24] ATTITUDE_TARGET
[20:29:51.145569] [25] VFR_HUD
[20:29:51.149532] [26] SYSTEM_TIME
[20:29:52.002630] [27] VFR_HUD
[20:29:52.005649] [28] HEARTBEAT
[20:29:52.117696] [191] RADIO
[20:29:52.121044] [191] RADIO_STATUS
[20:29:52.561723] [29] VFR_HUD
[20:29:53.030954] [30] HEARTBEAT
[20:29:53.038813] [31] ATTITUDE_TARGET
[20:29:53.130856] [192] RADIO
[20:29:53.133804] [192] RADIO_STATUS
[20:29:53.376861] [32] VFR_HUD
[20:29:54.050041] [193] RADIO
[20:29:54.052913] [193] RADIO_STATUS
[20:29:54.175052] [33] HEARTBEAT
[20:29:54.179932] [34] VFR_HUD
[20:29:54.993094] [35] HEARTBEAT
[20:29:55.000210] [36] SYS_STATUS
[20:29:55.040112] [37] BATTERY_STATUS
[20:29:55.048096] [38] ATTITUDE_TARGET
[20:29:55.052057] [39] VFR_HUD
[20:29:55.090205] [194] RADIO
[20:29:55.093107] [194] RADIO_STATUS
[20:29:56.016291] [40] VFR_HUD
[20:29:56.019639] [41] HEARTBEAT
[20:29:56.119300] [195] RADIO
[20:29:56.122282] [195] RADIO_STATUS
[20:29:56.595857] [42] VFR_HUD
[20:29:57.063449] [43] HEARTBEAT
[20:29:57.071564] [44] ATTITUDE_TARGET
[20:29:57.158481] [196] RADIO
[20:29:57.161403] [196] RADIO_STATUS
[20:29:57.389545] [45] VFR_HUD
[20:29:57.971284] [46] HEARTBEAT
[20:29:58.078647] [197] RADIO
[20:29:58.081613] [197] RADIO_STATUS
[20:29:58.198617] [47] VFR_HUD
[20:29:59.006819] [48] HEARTBEAT
[20:29:59.012766] [49] SYS_STATUS
[20:29:59.107800] [198] RADIO
[20:29:59.110717] [198] RADIO_STATUS
[20:29:59.177861] [50] BATTERY_STATUS
[20:29:59.185771] [51] ATTITUDE_TARGET
[20:29:59.190756] [52] VFR_HUD
[20:30:00.048953] [53] VFR_HUD
[20:30:00.051899] [54] HEARTBEAT
[20:30:00.163951] [199] RADIO
[20:30:00.166963] [199] RADIO_STATUS
[20:30:00.608007] [55] VFR_HUD
[20:30:00.967050] [56] HEARTBEAT
[20:30:00.975279] [57] ATTITUDE_TARGET
[20:30:01.095141] [200] RADIO
[20:30:01.098015] [200] RADIO_STATUS
[20:30:01.418192] [58] VFR_HUD
[20:30:01.983581] [59] HEARTBEAT
[20:30:02.097231] [201] RADIO
[20:30:02.100312] [201] RADIO_STATUS
[20:30:02.217281] [60] VFR_HUD
[20:30:03.039373] [61] HEARTBEAT
[20:30:03.046331] [62] SYS_STATUS
[20:30:03.086323] [63] BATTERY_STATUS
[20:30:03.094413] [64] ATTITUDE_TARGET
[20:30:03.099364] [65] VFR_HUD
[20:30:03.136385] [202] RADIO
[20:30:03.139327] [202] RADIO_STATUS
[20:30:03.952497] [66] VFR_HUD
[20:30:03.955477] [67] HEARTBEAT
[20:30:04.166501] [203] RADIO
[20:30:04.171326] [203] RADIO_STATUS
[20:30:04.641604] [68] VFR_HUD
[20:30:04.985745] [69] HEARTBEAT
[20:30:04.993641] [70] ATTITUDE_TARGET
[20:30:05.205673] [204] RADIO
[20:30:05.208604] [204] RADIO_STATUS
[20:30:05.436759] [71] VFR_HUD
[20:30:06.011941] [72] HEARTBEAT
[20:30:06.130853] [205] RADIO
[20:30:06.133732] [205] RADIO_STATUS
[20:30:06.250874] [73] VFR_HUD
[20:30:07.052978] [74] HEARTBEAT
[20:30:07.059951] [75] SYS_STATUS
[20:30:07.154953] [206] RADIO
[20:30:07.157907] [206] RADIO_STATUS
[20:30:07.225002] [76] BATTERY_STATUS
[20:30:07.231986] [77] ATTITUDE_TARGET
[20:30:07.237083] [78] VFR_HUD
[20:30:07.971070] [79] VFR_HUD
[20:30:07.974020] [80] HEARTBEAT
[20:30:08.203133] [207] RADIO
[20:30:08.206125] [207] RADIO_STATUS
[20:30:08.545175] [81] VFR_HUD
[20:30:09.014260] [82] HEARTBEAT
[20:30:09.022228] [83] ATTITUDE_TARGET
[20:30:09.142225] [208] RADIO
[20:30:09.145185] [208] RADIO_STATUS
[20:30:09.464381] [84] VFR_HUD
[20:30:10.029406] [85] HEARTBEAT
[20:30:10.143408] [209] RADIO
[20:30:10.146414] [209] RADIO_STATUS
[20:30:10.182392] [86] VFR_HUD
[20:30:10.961603] [87] HEARTBEAT
[20:30:10.968742] [88] SYS_STATUS
[20:30:11.085534] [89] BATTERY_STATUS
[20:30:11.087530] [90] EXTENDED_SYS_STATE
[20:30:11.206552] [91] ATTITUDE_TARGET
[20:30:11.211577] [92] VFR_HUD
[20:30:11.215583] [93] SYSTEM_TIME
[20:30:11.249556] [210] RADIO
[20:30:11.252530] [210] RADIO_STATUS
[20:30:11.768693] [94] VFR_HUD
[20:30:11.988678] [95] HEARTBEAT
[20:30:12.212749] [211] RADIO
[20:30:12.215816] [211] RADIO_STATUS
[20:30:12.562738] [96] VFR_HUD
[20:30:13.031893] [97] HEARTBEAT
[20:30:13.039848] [98] ATTITUDE_TARGET
[20:30:13.257011] [212] RADIO
[20:30:13.260900] [212] RADIO_STATUS
[20:30:13.378017] [99] VFR_HUD
[20:30:14.058038] [100] HEARTBEAT
[20:30:14.172015] [101] VFR_HUD
[20:30:14.204143] [213] RADIO
[20:30:14.207053] [213] RADIO_STATUS
[20:30:14.994169] [102] HEARTBEAT
[20:30:15.001135] [103] SYS_STATUS
[20:30:15.041183] [104] BATTERY_STATUS
[20:30:15.049145] [105] ATTITUDE_TARGET
[20:30:15.054098] [106] VFR_HUD
[20:30:15.201126] [214] RADIO
[20:30:15.204100] [214] RADIO_STATUS
[20:30:16.017201] [107] VFR_HUD
[20:30:16.023968] [108] HEARTBEAT
[20:30:16.245283] [215] RADIO
[20:30:16.248206] [215] RADIO_STATUS
[20:30:16.591289] [109] VFR_HUD
[20:30:16.931393] [110] HEARTBEAT
[20:30:17.059363] [111] ATTITUDE_TARGET
[20:30:17.176481] [216] RADIO
[20:30:17.179361] [216] RADIO_STATUS
[20:30:17.390455] [112] VFR_HUD
[20:30:17.971556] [113] HEARTBEAT
[20:30:18.189557] [217] RADIO
[20:30:18.192473] [217] RADIO_STATUS
[20:30:18.310555] [114] VFR_HUD
[20:30:19.007740] [115] HEARTBEAT
[20:30:19.014702] [116] SYS_STATUS
[20:30:19.128694] [117] BATTERY_STATUS
[20:30:19.246764] [118] ATTITUDE_TARGET
[20:30:19.251755] [119] VFR_HUD
[20:30:19.256687] [218] RADIO
[20:30:19.259737] [218] RADIO_STATUS
[20:30:19.809945] [120] VFR_HUD
[20:30:20.039827] [121] HEARTBEAT
[20:30:20.258823] [219] RADIO
[20:30:20.261906] [219] RADIO_STATUS
[20:30:20.608962] [122] VFR_HUD
[20:30:20.972935] [123] HEARTBEAT
[20:30:20.980932] [124] ATTITUDE_TARGET
[20:30:21.297982] [220] RADIO
[20:30:21.300990] [220] RADIO_STATUS
[20:30:21.424456] [125] VFR_HUD
[20:30:21.984124] [126] HEARTBEAT
[20:30:22.218125] [127] VFR_HUD
[20:30:22.245137] [221] RADIO
[20:30:22.248104] [221] RADIO_STATUS
[20:30:23.040273] [128] HEARTBEAT
[20:30:23.047216] [129] SYS_STATUS
[20:30:23.087236] [130] BATTERY_STATUS
[20:30:23.094320] [131] ATTITUDE_TARGET
[20:30:23.099233] [132] VFR_HUD
[20:30:23.250274] [222] RADIO
[20:30:23.253274] [222] RADIO_STATUS
[20:30:23.827467] [133] VFR_HUD
[20:30:23.942332] [134] HEARTBEAT
[20:30:24.286419] [223] RADIO
[20:30:24.289390] [223] RADIO_STATUS
[20:30:24.642442] [135] VFR_HUD
[20:30:24.986572] [136] HEARTBEAT
[20:30:24.993519] [137] ATTITUDE_TARGET
[20:30:25.205617] [224] RADIO
[20:30:25.208490] [224] RADIO_STATUS
[20:30:25.436552] [138] VFR_HUD
[20:30:26.017710] [139] HEARTBEAT
[20:30:26.235755] [225] RADIO
[20:30:26.238834] [225] RADIO_STATUS
[20:30:26.356758] [140] VFR_HUD
[20:30:27.053829] [141] HEARTBEAT
[20:30:27.059943] [142] SYS_STATUS
[20:30:27.179886] [143] BATTERY_STATUS
[20:30:27.292930] [144] ATTITUDE_TARGET
[20:30:27.296819] [145] VFR_HUD
[20:30:27.302846] [226] RADIO
[20:30:27.305824] [226] RADIO_STATUS
[20:30:27.855895] [146] VFR_HUD
[20:30:27.960934] [147] HEARTBEAT
[20:30:28.306560] [227] RADIO
[20:30:28.307926] [227] RADIO_STATUS
[20:30:28.545022] [148] VFR_HUD
[20:30:29.014110] [149] HEARTBEAT
[20:30:29.023282] [150] ATTITUDE_TARGET
[20:30:29.224140] [228] RADIO
[20:30:29.227021] [228] RADIO_STATUS
[20:30:29.465100] [151] VFR_HUD
[20:30:30.030405] [152] HEARTBEAT
[20:30:30.160290] [153] VFR_HUD
[20:30:30.275273] [229] RADIO
[20:30:30.278259] [229] RADIO_STATUS
[20:30:30.961447] [154] HEARTBEAT
[20:30:30.968388] [155] SYS_STATUS
[20:30:31.086378] [156] BATTERY_STATUS
[20:30:31.087330] [157] EXTENDED_SYS_STATE
[20:30:31.207383] [158] ATTITUDE_TARGET
[20:30:31.212369] [159] VFR_HUD
[20:30:31.215307] [160] SYSTEM_TIME
[20:30:31.250372] [230] RADIO
[20:30:31.255247] [230] RADIO_STATUS
[20:30:31.768537] [161] VFR_HUD
[20:30:31.988571] [162] HEARTBEAT
[20:30:32.332570] [231] RADIO
[20:30:32.335554] [231] RADIO_STATUS
[20:30:32.563580] [163] VFR_HUD
[20:30:33.032700] [164] HEARTBEAT
[20:30:33.039801] [165] ATTITUDE_TARGET
[20:30:33.257717] [232] RADIO
[20:30:33.260755] [232] RADIO_STATUS
[20:30:33.378753] [166] VFR_HUD
[20:30:33.937847] [167] HEARTBEAT
[20:30:34.172893] [168] VFR_HUD
[20:30:34.281857] [233] RADIO
[20:30:34.284832] [233] RADIO_STATUS
[20:30:34.990021] [169] HEARTBEAT
[20:30:34.996049] [170] SYS_STATUS
[20:30:35.115725] [171] BATTERY_STATUS
[20:30:35.123059] [172] ATTITUDE_TARGET
[20:30:35.152969] [173] VFR_HUD
[20:30:35.320987] [234] RADIO
[20:30:35.323919] [234] RADIO_STATUS
[20:30:35.782051] [174] VFR_HUD
[20:30:36.007124] [175] HEARTBEAT
[20:30:36.246109] [235] RADIO
[20:30:36.249090] [235] RADIO_STATUS
[20:30:36.592297] [176] VFR_HUD
[20:30:37.061226] [177] HEARTBEAT
[20:30:37.069258] [178] ATTITUDE_TARGET
[20:30:37.271356] [236] RADIO
[20:30:37.274205] [236] RADIO_STATUS
[20:30:37.391204] [179] VFR_HUD
[20:30:37.972332] [180] HEARTBEAT
[20:30:38.311340] [181] VFR_HUD
[20:30:38.343397] [237] RADIO
[20:30:38.346306] [237] RADIO_STATUS
[20:30:39.008473] [182] HEARTBEAT
[20:30:39.015447] [183] SYS_STATUS
[20:30:39.129545] [184] BATTERY_STATUS
[20:30:39.247509] [185] ATTITUDE_TARGET
[20:30:39.252454] [186] VFR_HUD
[20:30:39.286561] [238] RADIO
[20:30:39.289438] [238] RADIO_STATUS
[20:30:39.815563] [187] VFR_HUD
[20:30:39.932757] [188] HEARTBEAT
[20:30:40.259615] [239] RADIO
[20:30:40.262624] [239] RADIO_STATUS
[20:30:40.609752] [189] VFR_HUD
[20:30:40.974771] [190] HEARTBEAT
[20:30:40.981764] [191] ATTITUDE_TARGET
[20:30:41.303767] [240] RADIO
[20:30:41.306803] [240] RADIO_STATUS
[20:30:41.424779] [192] VFR_HUD
[20:30:41.984846] [193] HEARTBEAT
[20:30:42.218883] [194] VFR_HUD
[20:30:42.328932] [241] RADIO
[20:30:42.330837] [241] RADIO_STATUS
[20:30:43.042027] [195] HEARTBEAT
[20:30:43.048009] [196] SYS_STATUS
[20:30:43.087996] [197] BATTERY_STATUS
[20:30:43.096025] [198] ATTITUDE_TARGET
[20:30:43.100948] [199] VFR_HUD
[20:30:43.373073] [242] RADIO
[20:30:43.376191] [242] RADIO_STATUS
[20:30:43.961743] [200] VFR_HUD
[20:30:43.962064] [201] HEARTBEAT
[20:30:44.288287] [243] RADIO
[20:30:44.291222] [243] RADIO_STATUS
[20:30:44.638191] [202] VFR_HUD
[20:30:44.987312] [203] HEARTBEAT
[20:30:44.995296] [204] ATTITUDE_TARGET
[20:30:45.317309] [244] RADIO
[20:30:45.320298] [244] RADIO_STATUS
[20:30:45.438333] [205] VFR_HUD
[20:30:46.019596] [206] HEARTBEAT
[20:30:46.247538] [207] VFR_HUD
[20:30:46.356467] [245] RADIO
[20:30:46.359457] [245] RADIO_STATUS
[20:30:47.054608] [208] HEARTBEAT
[20:30:47.061602] [209] SYS_STATUS
[20:30:47.181621] [210] BATTERY_STATUS
[20:30:47.293684] [211] ATTITUDE_TARGET
[20:30:47.298586] [212] VFR_HUD
[20:30:47.303617] [246] RADIO
[20:30:47.306631] [246] RADIO_STATUS
[20:30:47.856770] [213] VFR_HUD
[20:30:47.961796] [214] HEARTBEAT
[20:30:48.305920] [247] RADIO
[20:30:48.308768] [247] RADIO_STATUS
[20:30:48.551840] [215] VFR_HUD
[20:30:49.020940] [216] HEARTBEAT
[20:30:49.029039] [217] ATTITUDE_TARGET
[20:30:49.345971] [218] VFR_HUD
[20:30:49.372935] [248] RADIO
[20:30:49.375919] [248] RADIO_STATUS
[20:30:50.031073] [219] HEARTBEAT
[20:30:50.161129] [220] VFR_HUD
[20:30:50.375091] [249] RADIO
[20:30:50.378081] [249] RADIO_STATUS
[20:30:50.963203] [221] HEARTBEAT
[20:30:50.969244] [222] SYS_STATUS
[20:30:51.092298] [223] BATTERY_STATUS
