[19:37:58.945888] [167] RADIO
[19:37:58.946075] [167] RADIO_STATUS
[19:37:59.188895] [92] HEARTBEAT
[19:37:59.194756] [93] SYS_STATUS
[19:37:59.345759] [94] BATTERY_STATUS
[19:37:59.353764] [95] ATTITUDE_TARGET
[19:37:59.358808] [96] VFR_HUD
[19:37:59.864843] [168] RADIO
[19:37:59.867917] [168] RADIO_STATUS
[19:37:59.897864] [97] VFR_HUD
[19:38:00.095900] [98] HEARTBEAT
[19:38:00.795141] [99] VFR_HUD
[19:38:00.910980] [169] RADIO
[19:38:00.915795] [169] RADIO_STATUS
[19:38:01.139092] [100] HEARTBEAT
[19:38:01.147191] [101] ATTITUDE_TARGET
[19:38:01.589127] [102] VFR_HUD
[19:38:01.928118] [170] RADIO
[19:38:01.931201] [170] RADIO_STATUS
[19:38:02.165327] [103] HEARTBEAT
[19:38:02.509269] [104] VFR_HUD
[19:38:02.968280] [171] RADIO
[19:38:02.971241] [171] RADIO_STATUS
[19:38:03.096302] [105] HEARTBEAT
[19:38:03.103320] [106] SYS_STATUS
[19:38:03.221331] [107] BATTERY_STATUS
[19:38:03.229334] [108] ATTITUDE_TARGET
[19:38:03.259308] [109] VFR_HUD
[19:38:03.888518] [110] VFR_HUD
[19:38:03.921454] [172] RADIO
[19:38:03.923413] [172] RADIO_STATUS
[19:38:04.114506] [111] HEARTBEAT
[19:38:04.698606] [112] VFR_HUD
[19:38:04.917581] [173] RADIO
[19:38:04.920525] [173] RADIO_STATUS
[19:38:05.276708] [113] HEARTBEAT
[19:38:05.284729] [114] ATTITUDE_TARGET
[19:38:05.497742] [115] VFR_HUD
[19:38:05.962763] [174] RADIO
[19:38:05.964729] [174] RADIO_STATUS
[19:38:06.182831] [116] HEARTBEAT
[19:38:06.986981] [175] RADIO
[19:38:06.989890] [175] RADIO_STATUS
[19:38:07.114921] [118] HEARTBEAT
[19:38:07.121960] [119] SYS_STATUS
[19:38:07.253953] [120] BATTERY_STATUS
[19:38:07.282964] [121] ATTITUDE_TARGET
[19:38:07.287922] [122] VFR_HUD
[19:38:07.906044] [176] RADIO
[19:38:07.908978] [176] RADIO_STATUS
[19:38:07.944014] [123] VFR_HUD
[19:38:08.142073] [124] HEARTBEAT
[19:38:08.716169] [125] VFR_HUD
[19:38:08.951175] [177] RADIO
[19:38:08.954104] [177] RADIO_STATUS
[19:38:09.185257] [126] HEARTBEAT
[19:38:09.193171] [127] ATTITUDE_TARGET
[19:38:09.531349] [128] VFR_HUD
[19:38:09.975322] [178] RADIO
[19:38:09.978304] [178] RADIO_STATUS
[19:38:10.091373] [129] HEARTBEAT
[19:38:10.325350] [130] VFR_HUD
[19:38:11.019506] [179] RADIO
[19:38:11.022486] [179] RADIO_STATUS
[19:38:11.934609] [138] VFR_HUD
[19:38:11.967647] [180] RADIO
[19:38:11.970540] [180] RADIO_STATUS
[19:38:12.160642] [139] HEARTBEAT
[19:38:12.749864] [140] VFR_HUD
[19:38:12.963706] [181] RADIO
[19:38:12.966712] [181] RADIO_STATUS
[19:38:13.079763] [141] HEARTBEAT
[19:38:13.102747] [142] ATTITUDE_TARGET
[19:38:13.544862] [143] VFR_HUD
[19:38:14.008883] [182] RADIO
[19:38:14.011800] [182] RADIO_STATUS
[19:38:14.124878] [144] HEARTBEAT
[19:38:15.033002] [183] RADIO
[19:38:15.035936] [183] RADIO_STATUS
[19:38:15.161174] [146] HEARTBEAT
[19:38:15.168134] [147] SYS_STATUS
[19:38:15.288078] [148] BATTERY_STATUS
[19:38:15.400063] [149] ATTITUDE_TARGET
[19:38:15.405010] [150] VFR_HUD
[19:38:15.951140] [184] RADIO
[19:38:15.954140] [184] RADIO_STATUS
[19:38:16.072123] [151] VFR_HUD
[19:38:16.101109] [152] HEARTBEAT
[19:38:16.762260] [153] VFR_HUD
[19:38:16.991341] [185] RADIO
[19:38:16.994363] [185] RADIO_STATUS
[19:38:17.121422] [154] HEARTBEAT
[19:38:17.129347] [155] ATTITUDE_TARGET
[19:38:17.571431] [156] VFR_HUD
[19:38:18.020441] [186] RADIO
[19:38:18.023413] [186] RADIO_STATUS
[19:38:18.137483] [157] HEARTBEAT
[19:38:18.371502] [158] VFR_HUD
[19:38:19.060610] [187] RADIO
[19:38:19.062521] [187] RADIO_STATUS
[19:38:19.193644] [159] HEARTBEAT
[19:38:19.200611] [160] SYS_STATUS
[19:38:19.239643] [161] BATTERY_STATUS
[19:38:19.247624] [162] ATTITUDE_TARGET
[19:38:19.252747] [163] VFR_HUD
[19:38:19.979727] [188] RADIO
[19:38:19.982685] [188] RADIO_STATUS
[19:38:20.215715] [164] VFR_HUD
[19:38:20.218714] [165] HEARTBEAT
[19:38:20.899801] [166] VFR_HUD
[19:38:21.009845] [189] RADIO
[19:38:21.012802] [189] RADIO_STATUS
[19:38:21.139941] [167] HEARTBEAT
[19:38:21.146838] [168] ATTITUDE_TARGET
[19:38:21.589917] [169] VFR_HUD
[19:38:22.049056] [190] RADIO
[19:38:22.052061] [190] RADIO_STATUS
[19:38:22.165039] [170] HEARTBEAT
[19:38:22.510067] [171] VFR_HUD
[19:38:22.969140] [191] RADIO
[19:38:22.971110] [191] RADIO_STATUS
[19:38:23.222188] [174] BATTERY_STATUS
[19:38:23.230213] [175] ATTITUDE_TARGET
[19:38:23.260199] [176] VFR_HUD
[19:38:23.889248] [177] VFR_HUD
[19:38:23.998435] [192] RADIO
[19:38:24.001288] [192] RADIO_STATUS
[19:38:24.114551] [178] HEARTBEAT
[19:38:25.037417] [193] RADIO
[19:38:25.040490] [193] RADIO_STATUS
[19:38:25.167551] [180] HEARTBEAT
[19:38:25.175630] [181] ATTITUDE_TARGET
[19:38:25.498494] [182] VFR_HUD
[19:38:26.067672] [194] RADIO
[19:38:26.070554] [194] RADIO_STATUS
[19:38:26.183619] [183] HEARTBEAT
[19:38:26.307797] [184] VFR_HUD
[19:38:26.986702] [195] RADIO
[19:38:26.989941] [195] RADIO_STATUS
[19:38:27.114704] [185] HEARTBEAT
[19:38:27.121743] [186] SYS_STATUS
[19:38:27.356335] [188] ATTITUDE_TARGET
[19:38:27.358690] [189] VFR_HUD
[19:38:27.531773] JAMMING_START
[19:38:27.921754] [190] VFR_HUD
[19:38:28.042813] [196] RADIO
[19:38:28.045742] [196] RADIO_STATUS
[19:38:28.151836] [191] HEARTBEAT
[19:38:28.716939] [192] VFR_HUD
[19:38:29.055935] [197] RADIO
[19:38:29.058930] [197] RADIO_STATUS
[19:38:29.104032] [193] HEARTBEAT
[19:38:29.111953] [194] ATTITUDE_TARGET
[19:38:29.637976] [195] VFR_HUD
[19:38:30.092143] [196] HEARTBEAT
[19:38:30.123100] [198] RADIO
[19:38:30.126105] [198] RADIO_STATUS
[19:38:30.326189] [197] VFR_HUD
[19:38:31.020309] [199] RADIO
[19:38:31.022436] [199] RADIO_STATUS
[19:38:31.935465] [205] VFR_HUD
[19:38:32.044430] [200] RADIO
[19:38:32.047399] [200] RADIO_STATUS
[19:38:32.160443] [206] HEARTBEAT
[19:38:33.079639] [208] HEARTBEAT
[19:38:33.107620] [209] ATTITUDE_TARGET
[19:38:33.132611] [201] RADIO
[19:38:33.135614] [201] RADIO_STATUS
[19:38:33.544626] [210] VFR_HUD
[19:38:34.113688] [202] RADIO
[19:38:34.116696] [202] RADIO_STATUS
[19:38:34.147752] [211] HEARTBEAT
[19:38:34.355932] [212] VFR_HUD
[19:38:35.032816] [203] RADIO
[19:38:35.035745] [203] RADIO_STATUS
[19:38:35.161830] [213] HEARTBEAT
[19:38:35.167806] [214] SYS_STATUS
[19:38:35.282865] [215] BATTERY_STATUS
[19:38:35.400811] [216] ATTITUDE_TARGET
[19:38:35.405786] [217] VFR_HUD
[19:38:35.963895] [218] VFR_HUD
[19:38:36.182969] [204] RADIO
[19:38:36.185872] [204] RADIO_STATUS
[19:38:36.216904] [219] HEARTBEAT
[19:38:36.762982] [220] VFR_HUD
[19:38:37.102057] [205] RADIO
[19:38:37.105011] [205] RADIO_STATUS
[19:38:37.150070] [221] HEARTBEAT
[19:38:37.158146] [222] ATTITUDE_TARGET
[19:38:37.578106] [223] VFR_HUD
[19:38:38.138171] [224] HEARTBEAT
[19:38:38.170132] [206] RADIO
[19:38:38.173141] [206] RADIO_STATUS
[19:38:38.384195] [225] VFR_HUD
[19:38:39.061512] [207] RADIO
[19:38:39.064377] [207] RADIO_STATUS
[19:38:39.194366] [226] HEARTBEAT
[19:38:39.201313] [227] SYS_STATUS
[19:38:39.241448] [228] BATTERY_STATUS
[19:38:39.249334] [229] ATTITUDE_TARGET
[19:38:39.253366] [230] VFR_HUD
[19:38:40.090488] [208] RADIO
[19:38:40.093388] [208] RADIO_STATUS
[19:38:40.135486] [231] VFR_HUD
[19:38:40.138418] [232] HEARTBEAT
[19:38:40.796595] [233] VFR_HUD
[19:38:41.140616] [234] HEARTBEAT
[19:38:41.148665] [235] ATTITUDE_TARGET
[19:38:41.240586] [209] RADIO
[19:38:41.243580] [209] RADIO_STATUS
[19:38:41.590716] [236] VFR_HUD
[19:38:42.159764] [210] RADIO
[19:38:42.162729] [210] RADIO_STATUS
[19:38:42.193795] [237] HEARTBEAT
[19:38:42.400751] [238] VFR_HUD
[19:38:43.079900] [211] RADIO
[19:38:43.082884] [211] RADIO_STATUS
[19:38:43.207849] [239] HEARTBEAT
[19:38:43.214982] [240] SYS_STATUS
[19:38:43.337801] [241] BATTERY_STATUS
[19:38:43.447002] [242] ATTITUDE_TARGET
[19:38:43.451844] [243] VFR_HUD
[19:38:43.889894] [244] VFR_HUD
[19:38:44.115972] [245] HEARTBEAT
[19:38:44.228986] [212] RADIO
[19:38:44.231949] [212] RADIO_STATUS
[19:38:44.700025] [246] VFR_HUD
[19:38:45.149106] [213] RADIO
[19:38:45.152123] [213] RADIO_STATUS
[19:38:45.279215] [247] HEARTBEAT
[19:38:45.287123] [248] ATTITUDE_TARGET
[19:38:45.500203] [249] VFR_HUD
[19:38:46.185257] [250] HEARTBEAT
[19:38:46.298368] [214] RADIO
[19:38:46.301300] [214] RADIO_STATUS
[19:38:46.337272] [251] VFR_HUD
[19:38:47.116543] [252] HEARTBEAT
[19:38:47.123390] [253] SYS_STATUS
[19:38:47.218401] [215] RADIO
[19:38:47.221392] [215] RADIO_STATUS
[19:38:48.140722] [216] RADIO_STATUS
[19:38:48.253675] [2] HEARTBEAT
[19:38:48.718568] [3] VFR_HUD
[19:38:49.187627] [4] HEARTBEAT
[19:38:49.195606] [5] ATTITUDE_TARGET
[19:38:49.287700] [217] RADIO
[19:38:49.290584] [217] RADIO_STATUS
[19:38:49.527665] [6] VFR_HUD
[19:38:50.093754] [7] HEARTBEAT
[19:38:50.124824] [218] RADIO
[19:38:50.127844] [218] RADIO_STATUS
[19:38:50.329759] [8] VFR_HUD
[19:38:51.126874] [219] RADIO
[19:38:51.129911] [219] RADIO_STATUS
[19:38:51.254905] [9] HEARTBEAT
[19:38:51.261893] [10] SYS_STATUS
[19:38:51.937032] [16] VFR_HUD
[19:38:52.162070] [17] HEARTBEAT
[19:38:52.279075] [220] RADIO
[19:38:52.282052] [220] RADIO_STATUS
[19:38:52.746203] [18] VFR_HUD
[19:38:53.087219] [19] HEARTBEAT
[19:38:53.110267] [20] ATTITUDE_TARGET
[19:38:53.135247] [221] RADIO
[19:38:53.138170] [221] RADIO_STATUS
[19:38:53.546277] [21] VFR_HUD
[19:38:54.127385] [22] HEARTBEAT
[19:38:54.235537] [222] RADIO
[19:38:54.238449] [222] RADIO_STATUS
[19:38:54.356463] [23] VFR_HUD
[19:38:55.163500] [24] HEARTBEAT
[19:38:55.170513] [25] SYS_STATUS
[19:38:55.182494] [223] RADIO
[19:38:55.185469] [223] RADIO_STATUS
[19:38:55.284511] [26] BATTERY_STATUS
[19:38:55.402502] [27] ATTITUDE_TARGET
[19:38:55.407495] [28] VFR_HUD
[19:38:56.075583] [29] VFR_HUD
[19:38:56.082643] [30] HEARTBEAT
[19:38:56.184615] [224] RADIO
[19:38:56.187560] [224] RADIO_STATUS
[19:38:56.765718] [31] VFR_HUD
[19:38:57.129775] [32] HEARTBEAT
[19:38:57.137764] [33] ATTITUDE_TARGET
[19:38:57.229719] [225] RADIO
[19:38:57.232803] [225] RADIO_STATUS
[19:38:57.579944] [34] VFR_HUD
[19:38:58.139918] [35] HEARTBEAT
[19:38:58.171892] [226] RADIO
[19:38:58.174841] [226] RADIO_STATUS
[19:38:58.374864] [36] VFR_HUD
[19:38:59.172971] [227] RADIO
[19:38:59.175989] [227] RADIO_STATUS
[19:38:59.310094] [40] ATTITUDE_TARGET
[19:38:59.315055] [41] VFR_HUD
[19:38:59.984135] [42] VFR_HUD
[19:39:00.104180] [43] HEARTBEAT
[19:39:00.218196] [228] RADIO
[19:39:00.222429] [228] RADIO_STATUS
[19:39:00.793855] [44] VFR_HUD
[19:39:01.142298] [45] HEARTBEAT
[19:39:01.150288] [46] ATTITUDE_TARGET
[19:39:01.242584] [229] RADIO
[19:39:01.245318] [229] RADIO_STATUS
[19:39:01.494342] [47] VFR_HUD
[19:39:02.174488] [48] HEARTBEAT
[19:39:02.288395] [49] VFR_HUD
[19:39:02.317771] [230] RADIO
[19:39:02.318489] [230] RADIO_STATUS
[19:39:03.088648] [50] HEARTBEAT
[19:39:03.108585] [51] SYS_STATUS
[19:39:03.151595] [52] BATTERY_STATUS
[19:39:03.159644] [53] ATTITUDE_TARGET
[19:39:03.164650] [54] VFR_HUD
[19:39:03.207620] [231] RADIO
[19:39:03.210680] [231] RADIO_STATUS
[19:39:04.127710] [55] VFR_HUD
[19:39:04.130789] [56] HEARTBEAT
[19:39:04.231830] [232] RADIO
[19:39:04.234813] [232] RADIO_STATUS
[19:39:04.707771] [57] VFR_HUD
[19:39:05.276863] [233] RADIO
[19:39:05.279858] [233] RADIO_STATUS
[19:39:05.501932] [60] VFR_HUD
[19:39:06.077021] [61] HEARTBEAT
[19:39:06.190994] [234] RADIO
[19:39:06.194003] [234] RADIO_STATUS
[19:39:06.317932] [62] VFR_HUD
[19:39:07.224154] [235] RADIO
[19:39:07.227116] [235] RADIO_STATUS
[19:39:08.156302] [68] VFR_HUD
[19:39:08.159308] [69] HEARTBEAT
[19:39:08.276421] [236] RADIO
[19:39:08.279375] [236] RADIO_STATUS
[19:39:08.720352] [70] VFR_HUD
[19:39:09.189463] [71] HEARTBEAT
[19:39:09.197470] [72] ATTITUDE_TARGET
[19:39:09.289417] [237] RADIO
[19:39:09.292390] [237] RADIO_STATUS
[19:39:10.095525] [74] HEARTBEAT
[19:39:10.330606] [75] VFR_HUD
[19:39:10.357660] [238] RADIO
[19:39:10.360589] [238] RADIO_STATUS
[19:39:11.146677] [76] HEARTBEAT
[19:39:11.153701] [77] SYS_STATUS
[19:39:11.275774] [78] BATTERY_STATUS
[19:39:11.276686] [79] EXTENDED_SYS_STATE
[19:39:11.284716] [80] ATTITUDE_TARGET
[19:39:11.289650] [81] VFR_HUD
[19:39:11.293664] [82] SYSTEM_TIME
[19:39:11.315662] [239] RADIO
[19:39:11.318908] [239] RADIO_STATUS
[19:39:11.938771] [83] VFR_HUD
[19:39:12.166385] [84] HEARTBEAT
[19:39:12.277875] [240] RADIO
[19:39:12.280836] [240] RADIO_STATUS
[19:39:12.751468] [85] VFR_HUD
[19:39:13.083964] [86] HEARTBEAT
[19:39:13.106960] [87] ATTITUDE_TARGET
[19:39:13.317993] [241] RADIO
[19:39:13.320964] [241] RADIO_STATUS
[19:39:13.549087] [88] VFR_HUD
[19:39:14.124126] [89] HEARTBEAT
[19:39:14.238096] [242] RADIO
[19:39:14.241067] [242] RADIO_STATUS
[19:39:14.468116] [90] VFR_HUD
[19:39:15.267281] [243] RADIO
[19:39:15.270331] [243] RADIO_STATUS
[19:39:15.308335] [93] BATTERY_STATUS
[19:39:15.973415] [96] VFR_HUD
[19:39:16.084372] [97] HEARTBEAT
[19:39:16.307419] [244] RADIO
[19:39:16.309371] [244] RADIO_STATUS
[19:39:16.767462] [98] VFR_HUD
[19:39:17.131531] [99] HEARTBEAT
[19:39:17.139522] [100] ATTITUDE_TARGET
[19:39:17.336600] [245] RADIO
[19:39:17.339591] [245] RADIO_STATUS
[19:39:17.686576] [101] VFR_HUD
[19:39:18.142683] [102] HEARTBEAT
[19:39:18.255736] [246] RADIO
[19:39:18.258686] [246] RADIO_STATUS
[19:39:18.376685] [103] VFR_HUD
[19:39:19.194011] [104] HEARTBEAT
[19:39:19.199852] [105] SYS_STATUS
[19:39:19.318831] [106] BATTERY_STATUS
[19:39:19.326827] [107] ATTITUDE_TARGET
[19:39:19.356983] [108] VFR_HUD
[19:39:19.378807] [247] RADIO
[19:39:19.381806] [247] RADIO_STATUS
[19:39:19.985941] [109] VFR_HUD
[19:39:20.105976] [110] HEARTBEAT
[19:39:20.325051] [248] RADIO
[19:39:20.327957] [248] RADIO_STATUS
[19:39:20.795069] [111] VFR_HUD
[19:39:21.144119] [112] HEARTBEAT
[19:39:21.152100] [113] ATTITUDE_TARGET
[19:39:21.364179] [249] RADIO
[19:39:21.367113] [249] RADIO_STATUS
[19:39:21.485340] [114] VFR_HUD
[19:39:22.175296] [115] HEARTBEAT
[19:39:22.285306] [116] VFR_HUD
[19:39:22.320355] [250] RADIO
[19:39:22.323230] [250] RADIO_STATUS
[19:39:23.107495] [117] HEARTBEAT
[19:39:23.114479] [118] SYS_STATUS
[19:39:23.153527] [119] BATTERY_STATUS
[19:39:23.161515] [120] ATTITUDE_TARGET
[19:39:23.166416] [121] VFR_HUD
[19:39:23.313521] [251] RADIO
[19:39:23.316452] [251] RADIO_STATUS
[19:39:24.129631] [122] VFR_HUD
[19:39:24.132602] [123] HEARTBEAT
[19:39:24.358646] [252] RADIO
[19:39:24.361572] [252] RADIO_STATUS
[19:39:24.708666] [124] VFR_HUD
[19:39:25.382835] [253] RADIO
[19:39:25.385776] [253] RADIO_STATUS
[19:39:25.503845] [127] VFR_HUD
[19:39:26.078966] [128] HEARTBEAT
[19:39:26.301932] [254] RADIO
[19:39:26.304964] [254] RADIO_STATUS
[19:39:26.340950] [129] VFR_HUD
[19:39:27.120091] [130] HEARTBEAT
[19:39:27.127093] [131] SYS_STATUS
[19:39:27.247135] [132] BATTERY_STATUS
[19:39:27.359141] [133] ATTITUDE_TARGET
[19:39:27.364108] [134] VFR_HUD
[19:39:27.398188] [255] RADIO
[19:39:27.401122] [255] RADIO_STATUS
[19:39:28.152348] [136] HEARTBEAT
[19:39:28.371238] [0] RADIO
[19:39:28.374196] [0] RADIO_STATUS
[19:39:28.721318] [137] VFR_HUD
[19:39:29.190435] [138] HEARTBEAT
[19:39:29.198432] [139] ATTITUDE_TARGET
[19:39:29.415415] [1] RADIO
[19:39:29.418382] [1] RADIO_STATUS
[19:39:29.531414] [140] VFR_HUD
[19:39:30.096558] [141] HEARTBEAT
[19:39:30.330642] [142] VFR_HUD
[19:39:30.363611] [2] RADIO
[19:39:30.366570] [2] RADIO_STATUS
[19:39:31.147815] [143] HEARTBEAT
[19:39:31.154858] [144] SYS_STATUS
[19:39:31.276737] [145] BATTERY_STATUS
[19:39:31.277743] [146] EXTENDED_SYS_STATE
[19:39:31.285899] [147] ATTITUDE_TARGET
[19:39:31.290707] [148] VFR_HUD
[19:39:31.294694] [149] SYSTEM_TIME
[19:39:31.359716] [3] RADIO
[19:39:31.362803] [3] RADIO_STATUS
[19:39:31.940993] [150] VFR_HUD
[19:39:32.165924] [151] HEARTBEAT
[19:39:32.405087] [4] RADIO
[19:39:32.407893] [4] RADIO_STATUS
[19:39:32.754973] [152] VFR_HUD
[19:39:33.085962] [153] HEARTBEAT
[19:39:33.107999] [154] ATTITUDE_TARGET
[19:39:33.429020] [5] RADIO
[19:39:33.432031] [5] RADIO_STATUS
[19:39:33.550023] [155] VFR_HUD
[19:39:34.125158] [156] HEARTBEAT
[19:39:34.349234] [6] RADIO
[19:39:34.352156] [6] RADIO_STATUS
[19:39:34.399381] [157] VFR_HUD
[19:39:35.167313] [158] HEARTBEAT
[19:39:35.173314] [159] SYS_STATUS
[19:39:35.288298] [160] BATTERY_STATUS
[19:39:35.406333] [161] ATTITUDE_TARGET
[19:39:35.410305] [162] VFR_HUD
[19:39:35.417274] [7] RADIO
[19:39:35.419294] [7] RADIO_STATUS
[19:39:36.078393] [163] VFR_HUD
[19:39:36.086376] [164] HEARTBEAT
[19:39:36.418497] [8] RADIO
[19:39:36.421426] [8] RADIO_STATUS
[19:39:36.768543] [165] VFR_HUD
[19:39:37.237659] [166] HEARTBEAT
[19:39:37.244607] [167] ATTITUDE_TARGET
[19:39:37.354594] [9] RADIO
[19:39:37.357572] [9] RADIO_STATUS
[19:39:37.578621] [168] VFR_HUD
[19:39:38.143647] [169] HEARTBEAT
[19:39:38.378686] [170] VFR_HUD
[19:39:38.405672] [10] RADIO
[19:39:38.407662] [10] RADIO_STATUS
[19:39:39.194840] [171] HEARTBEAT
[19:39:39.201838] [172] SYS_STATUS
[19:39:39.320856] [173] BATTERY_STATUS
[19:39:39.327896] [174] ATTITUDE_TARGET
[19:39:39.358873] [175] VFR_HUD
[19:39:39.381056] [11] RADIO
[19:39:39.383831] [11] RADIO_STATUS
[19:39:39.986954] [176] VFR_HUD
[19:39:40.108002] [177] HEARTBEAT
[19:39:40.446008] [12] RADIO
[19:39:40.448960] [12] RADIO_STATUS
[19:39:40.797107] [178] VFR_HUD
[19:39:41.146109] [179] HEARTBEAT
[19:39:41.154097] [180] ATTITUDE_TARGET
[19:39:41.366164] [13] RADIO
[19:39:41.369102] [13] RADIO_STATUS
[19:39:41.492166] [181] VFR_HUD
[19:39:42.172576] [182] HEARTBEAT
[19:39:42.286288] [183] VFR_HUD
[19:39:42.395268] [14] RADIO
[19:39:42.398290] [14] RADIO_STATUS
[19:39:43.435385] [15] RADIO
[19:39:43.438407] [15] RADIO_STATUS
[19:39:44.131582] [189] VFR_HUD
[19:39:44.134483] [190] HEARTBEAT
[19:39:44.464656] [16] RADIO
[19:39:44.467586] [16] RADIO_STATUS
[19:39:44.716729] [191] VFR_HUD
[19:39:45.384696] [17] RADIO
[19:39:45.387674] [17] RADIO_STATUS
[19:39:45.504696] [194] VFR_HUD
[19:39:46.085785] [195] HEARTBEAT
[19:39:46.314747] [196] VFR_HUD
[19:39:46.423776] [18] RADIO
[19:39:46.426788] [18] RADIO_STATUS
[19:39:47.122018] [197] HEARTBEAT
[19:39:47.128880] [198] SYS_STATUS
[19:39:47.247944] [199] BATTERY_STATUS
[19:39:47.399971] [19] RADIO
[19:39:47.402921] [19] RADIO_STATUS
[19:39:47.924004] [202] VFR_HUD
[19:39:48.154090] [203] HEARTBEAT
[19:39:48.493164] [20] RADIO
[19:39:48.496077] [20] RADIO_STATUS
[19:39:48.723135] [204] VFR_HUD
[19:39:49.192281] [205] HEARTBEAT
[19:39:49.200217] [206] ATTITUDE_TARGET
[19:39:49.417252] [21] RADIO
[19:39:49.420223] [21] RADIO_STATUS
[19:39:49.533275] [207] VFR_HUD
[19:39:50.098398] [208] HEARTBEAT
[19:39:50.332413] [209] VFR_HUD
[19:39:50.441456] [22] RADIO
[19:39:50.444342] [22] RADIO_STATUS
[19:39:51.154539] [210] HEARTBEAT
[19:39:51.161508] [211] SYS_STATUS
[19:39:51.195533] [212] BATTERY_STATUS
[19:39:51.197511] [213] EXTENDED_SYS_STATE
[19:39:51.205527] [214] ATTITUDE_TARGET
[19:39:51.210561] [215] VFR_HUD
[19:39:51.213455] [216] SYSTEM_TIME
[19:39:51.486615] [23] RADIO
[19:39:51.489578] [23] RADIO_STATUS
[19:39:52.167727] [218] HEARTBEAT
[19:39:52.510751] [24] RADIO
[19:39:52.513646] [24] RADIO_STATUS
[19:39:52.756759] [219] VFR_HUD
[19:39:53.100847] [220] HEARTBEAT
[19:39:53.108835] [221] ATTITUDE_TARGET
[19:39:53.429826] [25] RADIO
[19:39:53.432839] [25] RADIO_STATUS
[19:39:53.550874] [222] VFR_HUD
[19:39:54.125931] [223] HEARTBEAT
[19:39:54.366108] [224] VFR_HUD
[19:39:54.485979] [26] RADIO
[19:39:54.489029] [26] RADIO_STATUS
[19:39:55.168187] [225] HEARTBEAT
[19:39:55.174218] [226] SYS_STATUS
[19:39:55.294158] [227] BATTERY_STATUS
[19:39:55.445201] [27] RADIO
[19:39:55.448129] [27] RADIO_STATUS
[19:39:55.970266] [230] VFR_HUD
[19:39:56.075276] [231] HEARTBEAT
[19:39:56.649282] [28] RADIO
[19:39:56.651282] [28] RADIO_STATUS
[19:39:56.769428] [232] VFR_HUD
[19:39:57.128397] [233] HEARTBEAT
[19:39:57.136364] [234] ATTITUDE_TARGET
[19:39:57.458437] [29] RADIO
[19:39:57.461548] [29] RADIO_STATUS
[19:39:57.579449] [235] VFR_HUD
[19:39:58.144554] [236] HEARTBEAT
[19:39:58.378780] [237] VFR_HUD
[19:39:58.488530] [30] RADIO
[19:39:58.490502] [30] RADIO_STATUS
[19:39:59.321701] [240] BATTERY_STATUS
[19:39:59.329643] [241] ATTITUDE_TARGET
[19:39:59.359648] [242] VFR_HUD
[19:39:59.532831] [31] RADIO
[19:39:59.535625] [31] RADIO_STATUS
[19:39:59.883741] [243] VFR_HUD
[19:40:00.112901] [244] HEARTBEAT
[19:40:00.556831] [32] RADIO
[19:40:00.559806] [32] RADIO_STATUS
[19:40:00.797934] [245] VFR_HUD
[19:40:01.477043] [33] RADIO
[19:40:01.479959] [33] RADIO_STATUS
[19:40:01.515019] [248] VFR_HUD
[19:40:02.173141] [249] HEARTBEAT
[19:40:02.287139] [250] VFR_HUD
[19:40:02.516102] [34] RADIO
[19:40:02.519086] [34] RADIO_STATUS
[19:40:03.546284] [35] RADIO
[19:40:03.549323] [35] RADIO_STATUS
[19:40:03.897415] [0] VFR_HUD
[19:40:04.125412] [1] HEARTBEAT
[19:40:04.471559] [36] RADIO
[19:40:04.474551] [36] RADIO_STATUS
[19:40:04.718497] [2] VFR_HUD
[19:40:05.175662] [3] HEARTBEAT
[19:40:05.183737] [4] ATTITUDE_TARGET
[19:40:05.506605] [5] VFR_HUD
[19:40:05.533652] [37] RADIO
[19:40:05.536563] [37] RADIO_STATUS
[19:40:06.086716] [6] HEARTBEAT
[19:40:06.315786] [7] VFR_HUD
[19:40:06.535798] [38] RADIO
[19:40:06.538713] [38] RADIO_STATUS
[19:40:07.123828] [8] HEARTBEAT
[19:40:07.129810] [9] SYS_STATUS
[19:40:07.262924] [10] BATTERY_STATUS
[19:40:07.574913] [39] RADIO
[19:40:07.577833] [39] RADIO_STATUS
[19:40:07.925047] [13] VFR_HUD
[19:40:08.166065] [14] HEARTBEAT
[19:40:08.494156] [40] RADIO
[19:40:08.497172] [40] RADIO_STATUS
[19:40:08.725127] [15] VFR_HUD
[19:40:09.076182] [16] HEARTBEAT
[19:40:09.193221] [17] ATTITUDE_TARGET
[19:40:09.524234] [41] RADIO
[19:40:09.527209] [41] RADIO_STATUS
[19:40:09.562296] [18] VFR_HUD
[19:40:10.100435] [19] HEARTBEAT
[19:40:10.334404] [20] VFR_HUD
[19:40:10.563353] [42] RADIO
[19:40:10.566395] [42] RADIO_STATUS
[19:40:11.157535] [21] HEARTBEAT
[19:40:11.163475] [22] SYS_STATUS
[19:40:11.198509] [23] BATTERY_STATUS
[19:40:11.199483] [24] EXTENDED_SYS_STATE
[19:40:11.207613] [25] ATTITUDE_TARGET
[19:40:11.226445] [26] VFR_HUD
[19:40:11.229528] [27] SYSTEM_TIME
[19:40:11.593657] [43] RADIO
[19:40:11.596535] [43] RADIO_STATUS
[19:40:11.943645] [28] VFR_HUD
[19:40:12.169645] [29] HEARTBEAT
[19:40:12.512739] [44] RADIO
[19:40:12.515670] [44] RADIO_STATUS
[19:40:12.862731] [30] VFR_HUD
[19:40:13.102749] [31] HEARTBEAT
[19:40:13.110749] [32] ATTITUDE_TARGET
[19:40:13.552791] [33] VFR_HUD
[19:40:13.585856] [45] RADIO
[19:40:13.588773] [45] RADIO_STATUS
[19:40:14.134006] [34] HEARTBEAT
[19:40:14.362946] [35] VFR_HUD
[19:40:14.583372] [46] RADIO
[19:40:14.584953] [46] RADIO_STATUS
[19:40:15.170022] [36] HEARTBEAT
[19:40:15.177034] [37] SYS_STATUS
[19:40:15.297002] [38] BATTERY_STATUS
[19:40:15.409071] [39] ATTITUDE_TARGET
[19:40:15.414029] [40] VFR_HUD
[19:40:15.621139] [47] RADIO
[19:40:15.624042] [47] RADIO_STATUS
[19:40:15.972122] [41] VFR_HUD
[19:40:16.083292] [42] HEARTBEAT
[19:40:16.546185] [48] RADIO
[19:40:16.549219] [48] RADIO_STATUS
[19:40:16.772283] [43] VFR_HUD
[19:40:17.131336] [44] HEARTBEAT
[19:40:17.138308] [45] ATTITUDE_TARGET
[19:40:17.570382] [49] RADIO
[19:40:17.573369] [49] RADIO_STATUS
[19:40:17.691319] [46] VFR_HUD
[19:40:18.146467] [47] HEARTBEAT
[19:40:18.380460] [48] VFR_HUD
[19:40:18.615482] [50] RADIO
[19:40:18.618458] [50] RADIO_STATUS
[19:40:19.323648] [51] BATTERY_STATUS
[19:40:19.331624] [52] ATTITUDE_TARGET
[19:40:19.361695] [53] VFR_HUD
[19:40:19.639647] [51] RADIO
[19:40:19.642631] [51] RADIO_STATUS
[19:40:19.885707] [54] VFR_HUD
[19:40:20.105697] [55] HEARTBEAT
[19:40:20.558738] [52] RADIO
[19:40:20.561722] [52] RADIO_STATUS
[19:40:20.684782] [56] VFR_HUD
[19:40:21.148927] [57] HEARTBEAT
[19:40:21.156827] [58] ATTITUDE_TARGET
[19:40:21.598979] [59] VFR_HUD
[19:40:21.614929] [53] RADIO
[19:40:21.617886] [53] RADIO_STATUS
[19:40:22.175049] [60] HEARTBEAT
[19:40:22.289031] [61] VFR_HUD
[19:40:22.628072] [54] RADIO
[19:40:22.631123] [54] RADIO_STATUS
[19:40:23.232216] [64] BATTERY_STATUS
[19:40:23.239199] [65] ATTITUDE_TARGET
[19:40:23.269175] [66] VFR_HUD
[19:40:23.673302] [55] RADIO
[19:40:23.676253] [55] RADIO_STATUS
[19:40:23.898348] [67] VFR_HUD
[19:40:24.124331] [68] HEARTBEAT
[19:40:24.594014] [56] RADIO
[19:40:24.596283] [56] RADIO_STATUS
[19:40:24.708325] [69] VFR_HUD
[19:40:25.177432] [70] HEARTBEAT
[19:40:25.185420] [71] ATTITUDE_TARGET
[19:40:25.507497] [72] VFR_HUD
[19:40:25.617522] [57] RADIO
[19:40:25.620429] [57] RADIO_STATUS
[19:40:26.097682] [73] HEARTBEAT
[19:40:26.317685] [74] VFR_HUD
[19:40:26.661651] [58] RADIO
[19:40:26.664687] [58] RADIO_STATUS
[19:40:27.124641] [75] HEARTBEAT
[19:40:27.131679] [76] SYS_STATUS
[19:40:27.363738] [78] ATTITUDE_TARGET
[19:40:27.368694] [79] VFR_HUD
[19:40:27.685766] [59] RADIO
[19:40:27.688696] [59] RADIO_STATUS
[19:40:28.036784] [80] VFR_HUD
[19:40:28.151832] [81] HEARTBEAT
[19:40:28.605861] [60] RADIO
[19:40:28.608828] [60] RADIO_STATUS
[19:40:28.725873] [82] VFR_HUD
[19:40:29.076997] [83] HEARTBEAT
[19:40:29.194010] [84] ATTITUDE_TARGET
[19:40:29.646031] [85] VFR_HUD
[19:40:29.656992] [61] RADIO
[19:40:29.659969] [61] RADIO_STATUS
[19:40:30.101085] [86] HEARTBEAT
[19:40:30.335177] [87] VFR_HUD
[19:40:30.674176] [62] RADIO
[19:40:30.677137] [62] RADIO_STATUS
[19:40:31.599318] [63] RADIO
[19:40:31.602290] [63] RADIO_STATUS
[19:40:31.945386] [95] VFR_HUD
[19:40:32.170445] [96] HEARTBEAT
[19:40:32.633426] [64] RADIO
[19:40:32.636413] [64] RADIO_STATUS
[19:40:32.754437] [97] VFR_HUD
[19:40:33.103574] [98] HEARTBEAT
[19:40:33.111589] [99] ATTITUDE_TARGET
[19:40:33.554645] [100] VFR_HUD
[19:40:33.663651] [65] RADIO
[19:40:33.666655] [65] RADIO_STATUS
[19:40:34.134743] [101] HEARTBEAT
[19:40:34.363786] [102] VFR_HUD
[19:40:34.702814] [66] RADIO
[19:40:34.705686] [66] RADIO_STATUS
[19:40:35.170839] [103] HEARTBEAT
[19:40:35.177891] [104] SYS_STATUS
[19:40:35.298008] [105] BATTERY_STATUS
[19:40:35.409893] [106] ATTITUDE_TARGET
[19:40:35.414812] [107] VFR_HUD
[19:40:35.622936] [67] RADIO
[19:40:35.625860] [67] RADIO_STATUS
[19:40:35.972961] [108] VFR_HUD
[19:40:36.078006] [109] HEARTBEAT
[19:40:36.652004] [68] RADIO
[19:40:36.655006] [68] RADIO_STATUS
[19:40:36.690033] [110] VFR_HUD
[19:40:37.582508] [113] VFR_HUD
[19:40:37.691273] [69] RADIO
[19:40:37.694232] [69] RADIO_STATUS
[19:40:38.147341] [114] HEARTBEAT
[19:40:38.381430] [115] VFR_HUD
[19:40:38.720336] [70] RADIO
[19:40:38.723377] [70] RADIO_STATUS
[19:40:39.072413] [116] HEARTBEAT
[19:40:39.092400] [117] SYS_STATUS
[19:40:39.641520] [71] RADIO
[19:40:39.644455] [71] RADIO_STATUS
[19:40:39.710516] [118] BATTERY_STATUS
[19:40:39.718522] [119] ATTITUDE_TARGET
[19:40:39.723480] [120] VFR_HUD
[19:40:39.893880] [121] VFR_HUD
[19:40:40.107647] [122] HEARTBEAT
[19:40:40.681683] [72] RADIO
[19:40:40.684592] [72] RADIO_STATUS
[19:40:40.807671] [123] VFR_HUD
[19:40:41.150804] [124] HEARTBEAT
[19:40:41.158889] [125] ATTITUDE_TARGET
[19:40:41.502746] [126] VFR_HUD
[19:40:41.710817] [73] RADIO
[19:40:41.713772] [73] RADIO_STATUS
[19:40:42.176864] [127] HEARTBEAT
[19:40:42.292048] [128] VFR_HUD
[19:40:42.750212] [74] RADIO
[19:40:42.752868] [74] RADIO_STATUS
[19:40:43.109045] [129] HEARTBEAT
[19:40:43.115040] [130] SYS_STATUS
[19:40:43.233989] [131] BATTERY_STATUS
[19:40:43.241961] [132] ATTITUDE_TARGET
[19:40:43.271995] [133] VFR_HUD
[19:40:43.676457] [75] RADIO
[19:40:43.678002] [75] RADIO_STATUS
[19:40:43.901061] [134] VFR_HUD
[19:40:44.126105] [135] HEARTBEAT
[19:40:44.699183] [76] RADIO
[19:40:44.702118] [76] RADIO_STATUS
[19:40:44.820245] [136] VFR_HUD
[19:40:45.288309] [137] HEARTBEAT
[19:40:45.296248] [138] ATTITUDE_TARGET
[19:40:45.509343] [139] VFR_HUD
[19:40:45.744297] [77] RADIO
[19:40:45.747351] [77] RADIO_STATUS
[19:40:46.324421] [141] VFR_HUD
[19:40:46.768486] [78] RADIO
[19:40:46.771416] [78] RADIO_STATUS
[19:40:47.126577] [142] HEARTBEAT
[19:40:47.132531] [143] SYS_STATUS
[19:40:47.365585] [145] ATTITUDE_TARGET
[19:40:47.369660] [146] VFR_HUD
[19:40:47.687603] [79] RADIO
[19:40:47.690645] [79] RADIO_STATUS
[19:40:48.037867] [147] VFR_HUD
[19:40:48.153737] [148] HEARTBEAT
[19:40:48.727861] [149] VFR_HUD
[19:40:48.759818] [80] RADIO
[19:40:48.762787] [80] RADIO_STATUS
[19:40:49.195917] [151] ATTITUDE_TARGET
[19:40:49.646973] [152] VFR_HUD
[19:40:49.756929] [81] RADIO
[19:40:49.759872] [81] RADIO_STATUS
[19:40:50.103063] [153] HEARTBEAT
[19:40:50.337069] [154] VFR_HUD
[19:40:50.801135] [82] RADIO
[19:40:50.804083] [82] RADIO_STATUS
[19:40:51.154163] [155] HEARTBEAT
[19:40:51.161164] [156] SYS_STATUS
[19:40:51.283203] [157] BATTERY_STATUS
[19:40:51.284143] [158] EXTENDED_SYS_STATE
[19:40:51.292188] [159] ATTITUDE_TARGET
[19:40:51.297133] [160] VFR_HUD
[19:40:51.301194] [161] SYSTEM_TIME
[19:40:51.721252] [83] RADIO
[19:40:51.724180] [83] RADIO_STATUS
[19:40:51.946293] [162] VFR_HUD
[19:40:52.172317] [163] HEARTBEAT
[19:40:52.745388] [84] RADIO
[19:40:52.748392] [84] RADIO_STATUS
[19:40:52.866412] [164] VFR_HUD
[19:40:53.105453] [165] HEARTBEAT
[19:40:53.113460] [166] ATTITUDE_TARGET
[19:40:53.555633] [167] VFR_HUD
[19:40:53.790539] [85] RADIO
[19:40:53.797772] [85] RADIO_STATUS
[19:40:54.137920] [168] HEARTBEAT
[19:40:54.814726] [86] RADIO
[19:40:54.817679] [86] RADIO_STATUS
[19:40:55.172813] [170] HEARTBEAT
[19:40:55.179791] [171] SYS_STATUS
[19:40:55.293837] [172] BATTERY_STATUS
[19:40:55.411831] [173] ATTITUDE_TARGET
[19:40:55.416821] [174] VFR_HUD
[19:40:55.858848] [87] RADIO
[19:40:55.861811] [87] RADIO_STATUS
[19:40:55.974858] [175] VFR_HUD
[19:40:56.079896] [176] HEARTBEAT
[19:40:56.773981] [177] VFR_HUD
[19:40:56.801031] [88] RADIO
[19:40:56.803931] [88] RADIO_STATUS
[19:40:57.589169] [180] VFR_HUD
[19:40:57.803160] [89] RADIO
[19:40:57.806189] [89] RADIO_STATUS
[19:40:58.149233] [181] HEARTBEAT
[19:40:58.383261] [182] VFR_HUD
[19:40:58.842253] [90] RADIO
[19:40:58.845383] [90] RADIO_STATUS
[19:40:59.069385] [183] HEARTBEAT
[19:40:59.088372] [184] SYS_STATUS
[19:40:59.137329] [185] BATTERY_STATUS
[19:40:59.145361] [186] ATTITUDE_TARGET
[19:40:59.150301] [187] VFR_HUD
[19:40:59.764375] [91] RADIO
[19:40:59.766337] [91] RADIO_STATUS
[19:41:00.125445] [188] VFR_HUD
[19:41:00.128602] [189] HEARTBEAT
[19:41:00.684549] [190] VFR_HUD
[19:41:00.793670] [92] RADIO
[19:41:00.796556] [92] RADIO_STATUS
[19:41:01.153572] [191] HEARTBEAT
[19:41:01.161651] [192] ATTITUDE_TARGET
[19:41:01.493698] [193] VFR_HUD
[19:41:01.832696] [93] RADIO
[19:41:01.835751] [93] RADIO_STATUS
[19:41:02.184755] [194] HEARTBEAT
[19:41:02.293750] [195] VFR_HUD
[19:41:02.862986] [94] RADIO
[19:41:02.865812] [94] RADIO_STATUS
[19:41:03.110914] [196] HEARTBEAT
[19:41:03.117913] [197] SYS_STATUS
[19:41:03.235909] [198] BATTERY_STATUS
[19:41:03.243921] [199] ATTITUDE_TARGET
[19:41:03.273923] [200] VFR_HUD
[19:41:03.781998] [95] RADIO
[19:41:03.784970] [95] RADIO_STATUS
[19:41:03.903043] [201] VFR_HUD
[19:41:04.128039] [202] HEARTBEAT
[19:41:04.718109] [203] VFR_HUD
[19:41:04.833126] [96] RADIO
[19:41:04.836079] [96] RADIO_STATUS
[19:41:05.182138] [204] HEARTBEAT
[19:41:05.189175] [205] ATTITUDE_TARGET
[19:41:05.512207] [206] VFR_HUD
[19:41:05.851409] [97] RADIO
[19:41:05.854277] [97] RADIO_STATUS
[19:41:06.087295] [207] HEARTBEAT
[19:41:06.327281] [208] VFR_HUD
[19:41:06.891349] [98] RADIO
[19:41:06.893338] [98] RADIO_STATUS
[19:41:07.129441] [209] HEARTBEAT
[19:41:07.136448] [210] SYS_STATUS
[19:41:07.250635] [211] BATTERY_STATUS
[19:41:07.368465] [212] ATTITUDE_TARGET
[19:41:07.373412] [213] VFR_HUD
[19:41:07.810485] [99] RADIO
[19:41:07.813430] [99] RADIO_STATUS
[19:41:08.041507] [214] VFR_HUD
[19:41:08.156516] [215] HEARTBEAT
[19:41:08.730673] [216] VFR_HUD
[19:41:08.839680] [100] RADIO
[19:41:08.845896] [100] RADIO_STATUS
[19:41:09.199666] [217] HEARTBEAT
[19:41:09.207672] [218] ATTITUDE_TARGET
[19:41:09.540733] [219] VFR_HUD
[19:41:09.879763] [101] RADIO
[19:41:09.882722] [101] RADIO_STATUS
[19:41:10.105814] [220] HEARTBEAT
[19:41:10.340887] [221] VFR_HUD
[19:41:10.910046] [102] RADIO
[19:41:10.912872] [102] RADIO_STATUS
[19:41:11.157934] [222] HEARTBEAT
[19:41:11.163965] [223] SYS_STATUS
[19:41:11.285922] [224] BATTERY_STATUS
[19:41:11.287869] [225] EXTENDED_SYS_STATE
[19:41:11.295874] [226] ATTITUDE_TARGET
[19:41:11.829019] [103] RADIO
[19:41:11.831997] [103] RADIO_STATUS
[19:41:11.950056] [229] VFR_HUD
[19:41:12.175221] [230] HEARTBEAT
[19:41:12.759189] [231] VFR_HUD
[19:41:12.978143] [104] RADIO
[19:41:12.981106] [104] RADIO_STATUS
[19:41:13.108340] [232] HEARTBEAT
[19:41:13.116152] [233] ATTITUDE_TARGET
[19:41:13.559208] [234] VFR_HUD
[19:41:13.898265] [105] RADIO
[19:41:13.901165] [105] RADIO_STATUS
[19:41:14.134319] [235] HEARTBEAT
[19:41:14.380313] [236] VFR_HUD
[19:41:14.937392] [106] RADIO
[19:41:14.940350] [106] RADIO_STATUS
[19:41:15.175442] [237] HEARTBEAT
[19:41:15.182467] [238] SYS_STATUS
[19:41:15.297443] [239] BATTERY_STATUS
[19:41:15.414566] [240] ATTITUDE_TARGET
[19:41:15.419589] [241] VFR_HUD
[19:41:15.862568] [107] RADIO
[19:41:15.865531] [107] RADIO_STATUS
[19:41:16.087618] [242] VFR_HUD
[19:41:16.094648] [243] HEARTBEAT
[19:41:16.777692] [244] VFR_HUD
[19:41:16.887105] [108] RADIO
[19:41:16.889718] [108] RADIO_STATUS
[19:41:17.592847] [247] VFR_HUD
[19:41:17.931909] [109] RADIO
[19:41:17.934844] [109] RADIO_STATUS
[19:41:18.161977] [248] HEARTBEAT
[19:41:18.386970] [249] VFR_HUD
[19:41:18.850976] [110] RADIO
[19:41:18.854085] [110] RADIO_STATUS
[19:41:19.209136] [250] HEARTBEAT
[19:41:19.216068] [251] SYS_STATUS
[19:41:19.256077] [252] BATTERY_STATUS
[19:41:19.263009] [253] ATTITUDE_TARGET
[19:41:19.268087] [254] VFR_HUD
[19:41:19.877139] [111] RADIO
[19:41:19.880093] [111] RADIO_STATUS
[19:41:20.129182] [255] VFR_HUD
[19:41:20.132190] [0] HEARTBEAT
[19:41:20.687259] [1] VFR_HUD
[19:41:20.922303] [112] RADIO
[19:41:20.925244] [112] RADIO_STATUS
[19:41:21.156336] [2] HEARTBEAT
[19:41:21.164378] [3] ATTITUDE_TARGET
[19:41:21.497368] [4] VFR_HUD
[19:41:21.946440] [113] RADIO
[19:41:21.949450] [113] RADIO_STATUS
[19:41:22.187654] [5] HEARTBEAT
[19:41:22.296498] [6] VFR_HUD
[19:41:22.865731] [114] RADIO
[19:41:22.868511] [114] RADIO_STATUS
[19:41:23.118692] [7] HEARTBEAT
[19:41:23.125656] [8] SYS_STATUS
[19:41:23.165703] [9] BATTERY_STATUS
[19:41:23.172725] [10] ATTITUDE_TARGET
[19:41:23.177656] [11] VFR_HUD
[19:41:23.910686] [115] RADIO
[19:41:23.913750] [115] RADIO_STATUS
[19:41:24.141763] [12] VFR_HUD
[19:41:24.144707] [13] HEARTBEAT
[19:41:24.720798] [14] VFR_HUD
[19:41:24.934836] [116] RADIO
[19:41:24.937773] [116] RADIO_STATUS
[19:41:25.514972] [17] VFR_HUD
[19:41:25.979005] [117] RADIO
[19:41:25.981997] [117] RADIO_STATUS
[19:41:26.089981] [18] HEARTBEAT
[19:41:26.434079] [19] VFR_HUD
[19:41:26.893135] [118] RADIO
[19:41:26.896073] [118] RADIO_STATUS
[19:41:27.132289] [20] HEARTBEAT
[19:41:27.138163] [21] SYS_STATUS
[19:41:27.258136] [22] BATTERY_STATUS
[19:41:27.371399] [23] ATTITUDE_TARGET
[19:41:27.375181] [24] VFR_HUD
[19:41:27.923306] [119] RADIO
[19:41:27.926218] [119] RADIO_STATUS
[19:41:28.043363] [25] VFR_HUD
[19:41:28.168344] [26] HEARTBEAT
[19:41:28.733393] [27] VFR_HUD
[19:41:28.962400] [120] RADIO
[19:41:28.965403] [120] RADIO_STATUS
[19:41:29.079563] [28] HEARTBEAT
[19:41:29.101471] [29] ATTITUDE_TARGET
[19:41:29.543544] [30] VFR_HUD
[19:41:29.992678] [121] RADIO
[19:41:29.995630] [121] RADIO_STATUS
[19:41:30.108669] [31] HEARTBEAT
[19:41:30.342763] [32] VFR_HUD
[19:41:30.911671] [122] RADIO
[19:41:30.914684] [122] RADIO_STATUS
[19:41:31.160750] [33] HEARTBEAT
[19:41:31.166748] [34] SYS_STATUS
[19:41:31.288784] [35] BATTERY_STATUS
[19:41:31.290712] [36] EXTENDED_SYS_STATE
[19:41:31.297804] [37] ATTITUDE_TARGET
[19:41:31.302727] [38] VFR_HUD
[19:41:31.306700] [39] SYSTEM_TIME
[19:41:31.951852] [40] VFR_HUD
[19:41:31.978852] [123] RADIO
[19:41:31.981857] [123] RADIO_STATUS
[19:41:32.067890] [41] HEARTBEAT
[19:41:32.772943] [42] VFR_HUD
[19:41:32.980963] [124] RADIO
[19:41:32.983931] [124] RADIO_STATUS
[19:41:33.111157] [43] HEARTBEAT
[19:41:33.118990] [44] ATTITUDE_TARGET
[19:41:33.562074] [45] VFR_HUD
[19:41:33.906085] [125] RADIO
[19:41:33.909075] [125] RADIO_STATUS
[19:41:34.137173] [46] HEARTBEAT
[19:41:34.481223] [47] VFR_HUD
[19:41:34.940226] [126] RADIO
[19:41:34.943214] [126] RADIO_STATUS
[19:41:35.178259] [48] HEARTBEAT
[19:41:35.185296] [49] SYS_STATUS
[19:41:35.300267] [50] BATTERY_STATUS
[19:41:35.417418] [51] ATTITUDE_TARGET
[19:41:35.422346] [52] VFR_HUD
[19:41:35.970368] [127] RADIO
[19:41:35.972379] [127] RADIO_STATUS
[19:41:36.008400] [53] VFR_HUD
[19:41:36.086425] [54] HEARTBEAT
[19:41:36.780569] [55] VFR_HUD
[19:41:37.009585] [128] RADIO
[19:41:37.012543] [128] RADIO_STATUS
[19:41:37.139864] [56] HEARTBEAT
[19:41:37.147681] [57] ATTITUDE_TARGET
[19:41:37.594659] [58] VFR_HUD
[19:41:37.928715] [129] RADIO
[19:41:37.931700] [129] RADIO_STATUS
[19:41:38.155744] [59] HEARTBEAT
[19:41:38.279684] [60] VFR_HUD
[19:41:38.958844] [130] RADIO
[19:41:38.961814] [130] RADIO_STATUS
[19:41:39.074871] [61] HEARTBEAT
[19:41:39.094851] [62] SYS_STATUS
[19:41:39.325942] [64] ATTITUDE_TARGET
[19:41:39.331038] [65] VFR_HUD
[19:41:39.889022] [66] VFR_HUD
[19:41:39.999077] [131] RADIO
[19:41:40.001381] [131] RADIO_STATUS
[19:41:40.120132] [67] HEARTBEAT
[19:41:40.689146] [68] VFR_HUD
[19:41:41.028159] [132] RADIO
[19:41:41.031250] [132] RADIO_STATUS
[19:41:41.158203] [69] HEARTBEAT
[19:41:41.166198] [70] ATTITUDE_TARGET
[19:41:41.503248] [71] VFR_HUD
[19:41:41.947357] [133] RADIO
[19:41:41.950339] [133] RADIO_STATUS
[19:41:42.189463] [72] HEARTBEAT
[19:41:42.298410] [73] VFR_HUD
[19:41:42.992696] [134] RADIO
[19:41:42.995492] [134] RADIO_STATUS
[19:41:43.120555] [74] HEARTBEAT
[19:41:43.127724] [75] SYS_STATUS
[19:41:44.016682] [135] RADIO
[19:41:44.019691] [135] RADIO_STATUS
[19:41:44.085699] [76] BATTERY_STATUS
[19:41:44.093670] [77] ATTITUDE_TARGET
[19:41:44.098720] [78] VFR_HUD
[19:41:44.102654] [79] VFR_HUD
[19:41:44.105678] [80] HEARTBEAT
[19:41:44.722959] [81] VFR_HUD
[19:41:45.061839] [136] RADIO
[19:41:45.064855] [136] RADIO_STATUS
[19:41:45.192217] [82] HEARTBEAT
[19:41:45.199899] [83] ATTITUDE_TARGET
[19:41:45.516870] [84] VFR_HUD
[19:41:45.981008] [137] RADIO
[19:41:45.983973] [137] RADIO_STATUS
[19:41:46.106975] [85] HEARTBEAT
[19:41:46.327021] [86] VFR_HUD
[19:41:47.006088] [138] RADIO
[19:41:47.009019] [138] RADIO_STATUS
[19:41:47.134239] [87] HEARTBEAT
[19:41:47.141103] [88] SYS_STATUS
[19:41:47.261095] [89] BATTERY_STATUS
[19:41:47.373117] [90] ATTITUDE_TARGET
[19:41:47.378136] [91] VFR_HUD
[19:41:47.936175] [92] VFR_HUD
[19:41:48.155249] [139] RADIO
[19:41:48.158215] [139] RADIO_STATUS
[19:41:48.189274] [93] HEARTBEAT
[19:41:48.736366] [94] VFR_HUD
[19:41:49.075635] [140] RADIO
[19:41:49.078443] [140] RADIO_STATUS
[19:41:49.204463] [95] HEARTBEAT
[19:41:49.212451] [96] ATTITUDE_TARGET
[19:41:49.545457] [97] VFR_HUD
[19:41:49.994530] [141] RADIO
[19:41:49.997460] [141] RADIO_STATUS
[19:41:50.110635] [98] HEARTBEAT
[19:41:50.356535] [99] VFR_HUD
[19:41:51.038696] [142] RADIO
[19:41:51.041663] [142] RADIO_STATUS
[19:41:51.289821] [102] BATTERY_STATUS
[19:41:51.291714] [103] EXTENDED_SYS_STATE
[19:41:51.299754] [104] ATTITUDE_TARGET
[19:41:51.305098] [105] VFR_HUD
[19:41:51.307727] [106] SYSTEM_TIME
[19:41:51.953845] [107] VFR_HUD
[19:41:52.062936] [143] RADIO
[19:41:52.065914] [143] RADIO_STATUS
[19:41:52.178916] [108] HEARTBEAT
[19:41:52.872997] [109] VFR_HUD
[19:41:53.112007] [110] HEARTBEAT
[19:41:53.120006] [111] ATTITUDE_TARGET
[19:41:53.129971] [144] RADIO
[19:41:53.133011] [144] RADIO_STATUS
[19:41:53.563096] [112] VFR_HUD
[19:41:54.022082] [145] RADIO
[19:41:54.025087] [145] RADIO_STATUS
[19:41:54.138151] [113] HEARTBEAT
[19:41:54.378162] [114] VFR_HUD
[19:41:55.051171] [146] RADIO
[19:41:55.054125] [146] RADIO_STATUS
[19:41:55.179206] [115] HEARTBEAT
[19:41:55.186255] [116] SYS_STATUS
[19:41:55.418320] [118] ATTITUDE_TARGET
[19:41:55.423264] [119] VFR_HUD
[19:41:55.989672] [120] VFR_HUD
[19:41:56.108423] [121] HEARTBEAT
[19:41:56.124405] [147] RADIO
[19:41:56.127344] [147] RADIO_STATUS
[19:41:56.781450] [122] VFR_HUD
[19:41:57.011487] [148] RADIO
[19:41:57.013502] [148] RADIO_STATUS
[19:41:57.140556] [123] HEARTBEAT
[19:41:57.148530] [124] ATTITUDE_TARGET
[19:41:57.591567] [125] VFR_HUD
[19:41:58.040682] [149] RADIO
[19:41:58.043632] [149] RADIO_STATUS
[19:41:58.074650] [126] HEARTBEAT
[19:41:58.281724] [127] VFR_HUD
[19:41:59.076931] [128] HEARTBEAT
[19:41:59.096825] [129] SYS_STATUS
[19:41:59.107820] [150] RADIO
[19:41:59.110750] [150] RADIO_STATUS
[19:41:59.327881] [131] ATTITUDE_TARGET
[19:41:59.332791] [132] VFR_HUD
[19:41:59.895999] [133] VFR_HUD
[19:42:00.109904] [151] RADIO
[19:42:00.112869] [151] RADIO_STATUS
[19:42:00.225974] [134] HEARTBEAT
[19:42:01.029121] [152] RADIO
[19:42:01.032234] [152] RADIO_STATUS
[19:42:01.159155] [136] HEARTBEAT
[19:42:01.167075] [137] ATTITUDE_TARGET
[19:42:01.609262] [138] VFR_HUD
[19:42:02.068165] [153] RADIO
[19:42:02.071100] [153] RADIO_STATUS
[19:42:02.194152] [139] HEARTBEAT
[19:42:02.299210] [140] VFR_HUD
[19:42:03.098272] [154] RADIO
[19:42:03.101266] [154] RADIO_STATUS
[19:42:03.235333] [144] ATTITUDE_TARGET
[19:42:03.239199] [145] VFR_HUD
[19:42:03.908359] [146] VFR_HUD
[19:42:04.143403] [147] HEARTBEAT
[19:42:04.247426] [155] RADIO
[19:42:04.250346] [155] RADIO_STATUS
[19:42:04.718583] [148] VFR_HUD
[19:42:05.057485] [156] RADIO
[19:42:05.060388] [156] RADIO_STATUS
[19:42:05.192496] [149] HEARTBEAT
[19:42:05.200550] [150] ATTITUDE_TARGET
[19:42:05.517617] [151] VFR_HUD
[19:42:06.086595] [157] RADIO
[19:42:06.089804] [157] RADIO_STATUS
[19:42:06.130785] [152] HEARTBEAT
[19:42:06.327791] [153] VFR_HUD
[19:42:07.134790] [154] HEARTBEAT
[19:42:07.141783] [155] SYS_STATUS
[19:42:07.236814] [158] RADIO
[19:42:07.239805] [158] RADIO_STATUS
[19:42:08.155906] [159] RADIO
[19:42:08.158923] [159] RADIO_STATUS
[19:42:08.199999] [159] VFR_HUD
[19:42:08.202947] [160] HEARTBEAT
[19:42:08.748015] [161] VFR_HUD
[19:42:09.076580] [160] RADIO
[19:42:09.079676] [160] RADIO_STATUS
[19:42:09.123155] [162] HEARTBEAT
[19:42:09.131141] [163] ATTITUDE_TARGET
[19:42:09.546210] [164] VFR_HUD
[19:42:10.112259] [165] HEARTBEAT
[19:42:10.143235] [161] RADIO
[19:42:10.146325] [161] RADIO_STATUS
[19:42:10.346273] [166] VFR_HUD
[19:42:11.145396] [162] RADIO
[19:42:11.148406] [162] RADIO_STATUS
[19:42:11.288425] [171] ATTITUDE_TARGET
[19:42:11.293397] [172] VFR_HUD
[19:42:11.296408] [173] SYSTEM_TIME
[19:42:11.955514] [174] VFR_HUD
[19:42:12.181557] [175] HEARTBEAT
[19:42:12.294486] [163] RADIO
[19:42:12.297470] [163] RADIO_STATUS
[19:42:12.770559] [176] VFR_HUD
[19:42:13.116936] [177] HEARTBEAT
[19:42:13.121671] [178] ATTITUDE_TARGET
[19:42:13.132659] [164] RADIO
[19:42:13.134704] [164] RADIO_STATUS
[19:42:13.564677] [179] VFR_HUD
[19:42:14.133743] [165] RADIO
[19:42:14.136711] [165] RADIO_STATUS
[19:42:14.250761] [180] HEARTBEAT
[19:42:14.379717] [181] VFR_HUD
[19:42:15.181934] [182] HEARTBEAT
[19:42:15.188842] [183] SYS_STATUS
[19:42:15.201904] [166] RADIO
[19:42:15.204924] [166] RADIO_STATUS
[19:42:15.309028] [184] BATTERY_STATUS
[19:42:15.421044] [185] ATTITUDE_TARGET
[19:42:15.425845] [186] VFR_HUD
[19:42:15.984016] [187] VFR_HUD
[19:42:16.090029] [188] HEARTBEAT
[19:42:16.121062] [167] RADIO
[19:42:16.124153] [167] RADIO_STATUS
[19:42:16.784119] [189] VFR_HUD
[19:42:17.123216] [168] RADIO
[19:42:17.126388] [168] RADIO_STATUS
[19:42:17.253211] [190] HEARTBEAT
[19:42:17.261289] [191] ATTITUDE_TARGET
[19:42:17.605259] [192] VFR_HUD
[19:42:18.159330] [193] HEARTBEAT
[19:42:18.190372] [169] RADIO
[19:42:18.193243] [169] RADIO_STATUS
[19:42:18.288384] [194] VFR_HUD
[19:42:19.091427] [195] HEARTBEAT
[19:42:19.097401] [196] SYS_STATUS
[19:42:19.192445] [170] RADIO
[19:42:19.195438] [170] RADIO_STATUS
[19:42:20.237658] [171] RADIO
[19:42:20.240610] [171] RADIO_STATUS
[19:42:20.692661] [202] VFR_HUD
[19:42:21.161752] [203] HEARTBEAT
[19:42:21.169715] [204] ATTITUDE_TARGET
[19:42:21.261719] [172] RADIO
[19:42:21.264812] [172] RADIO_STATUS
[19:42:21.611831] [205] VFR_HUD
[19:42:22.180896] [173] RADIO
[19:42:22.183920] [173] RADIO_STATUS
[19:42:22.305851] [206] HEARTBEAT
[19:42:22.310825] [207] VFR_HUD
[19:42:23.118970] [208] HEARTBEAT
[19:42:23.126294] [209] SYS_STATUS
[19:42:23.244009] [210] BATTERY_STATUS
[19:42:23.251994] [211] ATTITUDE_TARGET
[19:42:23.281989] [212] VFR_HUD
[19:42:23.310034] [174] RADIO
[19:42:23.313013] [174] RADIO_STATUS
[19:42:23.911109] [213] VFR_HUD
[19:42:24.136140] [214] HEARTBEAT
[19:42:24.253872] [175] RADIO
[19:42:24.254125] [175] RADIO_STATUS
[19:42:24.720191] [215] VFR_HUD
[19:42:25.169293] [176] RADIO
[19:42:25.172249] [176] RADIO_STATUS
[19:42:25.299335] [216] HEARTBEAT
[19:42:25.307304] [217] ATTITUDE_TARGET
[19:42:25.520342] [218] VFR_HUD
[19:42:26.209424] [177] RADIO
[19:42:26.212364] [177] RADIO_STATUS
[19:42:27.137581] [221] HEARTBEAT
[19:42:27.143547] [222] SYS_STATUS
[19:42:27.238543] [178] RADIO
[19:42:27.241532] [178] RADIO_STATUS
[19:42:27.939676] [226] VFR_HUD
[19:42:28.163670] [179] RADIO
[19:42:28.166683] [179] RADIO_STATUS
[19:42:28.193608] [227] HEARTBEAT
[19:42:28.738773] [228] VFR_HUD
[19:42:29.197838] [180] RADIO
[19:42:29.200856] [180] RADIO_STATUS
[19:42:29.553916] [231] VFR_HUD
[19:42:30.114039] [232] HEARTBEAT
[19:42:30.227957] [181] RADIO
[19:42:30.230955] [181] RADIO_STATUS
[19:42:30.349015] [233] VFR_HUD
[19:42:31.171161] [234] HEARTBEAT
[19:42:31.178199] [235] SYS_STATUS
[19:42:31.212134] [236] BATTERY_STATUS
[19:42:31.214086] [237] EXTENDED_SYS_STATE
[19:42:31.221114] [238] ATTITUDE_TARGET
[19:42:31.226059] [239] VFR_HUD
[19:42:31.230031] [240] SYSTEM_TIME
[19:42:31.267103] [182] RADIO
[19:42:31.270096] [182] RADIO_STATUS
[19:42:31.958266] [241] VFR_HUD
[19:42:32.078268] [242] HEARTBEAT
[19:42:32.187228] [183] RADIO
[19:42:32.190202] [183] RADIO_STATUS
[19:42:32.773290] [243] VFR_HUD
[19:42:33.117291] [244] HEARTBEAT
[19:42:33.124304] [245] ATTITUDE_TARGET
[19:42:33.217319] [184] RADIO
[19:42:33.219370] [184] RADIO_STATUS
[19:42:33.567426] [246] VFR_HUD
[19:42:34.148569] [247] HEARTBEAT
[19:42:34.256489] [185] RADIO
[19:42:34.259403] [185] RADIO_STATUS
[19:42:34.377544] [248] VFR_HUD
[19:42:35.286651] [186] RADIO
[19:42:35.289660] [186] RADIO_STATUS
[19:42:36.102779] [254] VFR_HUD
[19:42:36.105814] [255] HEARTBEAT
[19:42:36.205703] [187] RADIO
[19:42:36.208751] [187] RADIO_STATUS
[19:42:36.681859] [0] VFR_HUD
[19:42:37.255008] [1] HEARTBEAT
[19:42:37.262903] [2] ATTITUDE_TARGET
[19:42:37.276848] [188] RADIO
[19:42:37.279900] [188] RADIO_STATUS
[19:42:38.165802] [4] HEARTBEAT
[19:42:38.276035] [189] RADIO
[19:42:38.279011] [189] RADIO_STATUS
[19:42:38.314022] [5] VFR_HUD
[19:42:39.094145] [6] HEARTBEAT
[19:42:39.100172] [7] SYS_STATUS
[19:42:39.215124] [8] BATTERY_STATUS
[19:42:39.333160] [9] ATTITUDE_TARGET
[19:42:39.337195] [10] VFR_HUD
[19:42:39.371219] [190] RADIO
[19:42:39.374272] [190] RADIO_STATUS
[19:42:40.005240] [11] VFR_HUD
[19:42:40.121320] [12] HEARTBEAT
[19:42:40.240248] [191] RADIO
[19:42:40.243211] [191] RADIO_STATUS
[19:42:40.695349] [13] VFR_HUD
[19:42:41.164804] [14] HEARTBEAT
[19:42:41.172435] [15] ATTITUDE_TARGET
[19:42:41.264406] [192] RADIO
[19:42:41.267409] [192] RADIO_STATUS
[19:42:41.505433] [16] VFR_HUD
[19:42:42.200546] [17] HEARTBEAT
[19:42:42.305532] [18] VFR_HUD
[19:42:42.337559] [193] RADIO
[19:42:42.340505] [193] RADIO_STATUS
[19:42:43.122665] [19] HEARTBEAT
[19:42:43.128682] [20] SYS_STATUS
[19:42:43.285714] [23] VFR_HUD
[19:42:43.314331] [194] RADIO
[19:42:43.316642] [194] RADIO_STATUS
[19:42:43.914772] [24] VFR_HUD
[19:42:44.140831] [25] HEARTBEAT
[19:42:44.253790] [195] RADIO
[19:42:44.256799] [195] RADIO_STATUS
[19:42:44.723884] [26] VFR_HUD
[19:42:45.193972] [27] HEARTBEAT
[19:42:45.200993] [28] ATTITUDE_TARGET
[19:42:45.320945] [196] RADIO
[19:42:45.323902] [196] RADIO_STATUS
[19:42:45.524015] [29] VFR_HUD
[19:42:46.099140] [30] HEARTBEAT
[19:42:46.323128] [197] RADIO
[19:42:46.326061] [197] RADIO_STATUS
[19:42:46.444128] [31] VFR_HUD
[19:42:47.141256] [32] HEARTBEAT
[19:42:47.148284] [33] SYS_STATUS
[19:42:47.263260] [34] BATTERY_STATUS
[19:42:47.380266] [35] ATTITUDE_TARGET
[19:42:47.385232] [36] VFR_HUD
[19:42:47.419281] [198] RADIO
[19:42:47.422259] [198] RADIO_STATUS
[19:42:48.053359] [37] VFR_HUD
[19:42:48.169345] [38] HEARTBEAT
[19:42:48.282382] [199] RADIO
[19:42:48.285391] [199] RADIO_STATUS
[19:42:48.743410] [39] VFR_HUD
[19:42:49.312466] [200] RADIO
[19:42:49.315444] [200] RADIO_STATUS
[19:42:49.558561] [42] VFR_HUD
[19:42:50.118594] [43] HEARTBEAT
[19:42:50.352709] [44] VFR_HUD
[19:42:50.379684] [201] RADIO
[19:42:50.382704] [201] RADIO_STATUS
[19:42:51.174793] [45] HEARTBEAT
[19:42:51.181773] [46] SYS_STATUS
[19:42:51.216850] [47] BATTERY_STATUS
[19:42:51.217698] [48] EXTENDED_SYS_STATE
[19:42:51.225736] [49] ATTITUDE_TARGET
[19:42:51.230725] [50] VFR_HUD
[19:42:51.233729] [51] SYSTEM_TIME
[19:42:51.381794] [202] RADIO
[19:42:51.384897] [202] RADIO_STATUS
[19:42:51.961849] [52] VFR_HUD
[19:42:52.082863] [53] HEARTBEAT
[19:42:52.303910] [203] RADIO
[19:42:52.306860] [203] RADIO_STATUS
[19:42:53.121058] [55] HEARTBEAT
[19:42:53.129000] [56] ATTITUDE_TARGET
[19:42:53.341011] [204] RADIO
[19:42:53.343997] [204] RADIO_STATUS
[19:42:53.571139] [57] VFR_HUD
[19:42:54.152222] [58] HEARTBEAT
[19:42:54.370212] [205] RADIO
[19:42:54.373156] [205] RADIO_STATUS
[19:42:54.491329] [59] VFR_HUD
[19:42:55.410324] [206] RADIO
[19:42:55.413264] [206] RADIO_STATUS
[19:42:56.106421] [65] VFR_HUD
[19:42:56.109438] [66] HEARTBEAT
[19:42:56.329443] [207] RADIO
[19:42:56.332415] [207] RADIO_STATUS
[19:42:56.685517] [67] VFR_HUD
[19:42:57.358682] [208] RADIO
[19:42:57.361555] [208] RADIO_STATUS
[19:42:57.479700] [70] VFR_HUD
[19:42:58.164778] [71] HEARTBEAT
[19:42:58.294780] [72] VFR_HUD
[19:42:58.409777] [209] RADIO
[19:42:58.412833] [209] RADIO_STATUS
[19:42:59.096900] [73] HEARTBEAT
[19:42:59.103841] [74] SYS_STATUS
[19:42:59.222913] [75] BATTERY_STATUS
[19:42:59.336135] [76] ATTITUDE_TARGET
[19:42:59.339931] [77] VFR_HUD
[19:42:59.373908] [210] RADIO
[19:42:59.376868] [210] RADIO_STATUS
[19:42:59.898997] [78] VFR_HUD
[19:43:00.123999] [79] HEARTBEAT
[19:43:00.348054] [211] RADIO
[19:43:00.350987] [211] RADIO_STATUS
[19:43:00.698117] [80] VFR_HUD
[19:43:01.167193] [81] HEARTBEAT
[19:43:01.175324] [82] ATTITUDE_TARGET
[19:43:01.387203] [212] RADIO
[19:43:01.390195] [212] RADIO_STATUS
[19:43:01.508176] [83] VFR_HUD
[19:43:02.073323] [84] HEARTBEAT
[19:43:02.307309] [85] VFR_HUD
[19:43:02.340343] [213] RADIO
[19:43:02.343323] [213] RADIO_STATUS
[19:43:03.124466] [86] HEARTBEAT
[19:43:03.131543] [87] SYS_STATUS
[19:43:03.250509] [88] BATTERY_STATUS
[19:43:03.258485] [89] ATTITUDE_TARGET
[19:43:03.288437] [90] VFR_HUD
[19:43:03.336471] [214] RADIO
[19:43:03.339441] [214] RADIO_STATUS
[19:43:03.916589] [91] VFR_HUD
[19:43:04.142585] [92] HEARTBEAT
[19:43:04.381595] [215] RADIO
[19:43:04.384600] [215] RADIO_STATUS
[19:43:05.305813] [94] HEARTBEAT
[19:43:05.313746] [95] ATTITUDE_TARGET
[19:43:05.405711] [216] RADIO
[19:43:05.408736] [216] RADIO_STATUS
[19:43:05.526822] [96] VFR_HUD
[19:43:06.101864] [97] HEARTBEAT
[19:43:06.445966] [98] VFR_HUD
[19:43:06.461894] [217] RADIO
[19:43:06.464839] [217] RADIO_STATUS
[19:43:07.144073] [99] HEARTBEAT
[19:43:07.150075] [100] SYS_STATUS
[19:43:07.265046] [101] BATTERY_STATUS
[19:43:07.383163] [102] ATTITUDE_TARGET
[19:43:07.387015] [103] VFR_HUD
[19:43:07.425039] [218] RADIO
[19:43:07.428309] [218] RADIO_STATUS
[19:43:07.951122] [104] VFR_HUD
[19:43:08.171169] [105] HEARTBEAT
[19:43:08.395203] [219] RADIO
[19:43:08.398394] [219] RADIO_STATUS
[19:43:08.745214] [106] VFR_HUD
[19:43:09.104272] [107] HEARTBEAT
[19:43:09.112245] [108] ATTITUDE_TARGET
[19:43:09.439343] [220] RADIO
[19:43:09.442242] [220] RADIO_STATUS
[19:43:09.560330] [109] VFR_HUD
[19:43:10.120376] [110] HEARTBEAT
[19:43:10.354425] [111] VFR_HUD
[19:43:10.381428] [221] RADIO
[19:43:10.384518] [221] RADIO_STATUS
[19:43:11.299657] [114] BATTERY_STATUS
[19:43:11.301529] [115] EXTENDED_SYS_STATE
[19:43:11.309607] [116] ATTITUDE_TARGET
[19:43:11.314668] [117] VFR_HUD
[19:43:11.317575] [118] SYSTEM_TIME
[19:43:11.383694] [222] RADIO
[19:43:11.386538] [222] RADIO_STATUS
[19:43:11.963718] [119] VFR_HUD
[19:43:12.084759] [120] HEARTBEAT
[19:43:12.422918] [223] RADIO
[19:43:12.425798] [223] RADIO_STATUS
[19:43:12.773886] [121] VFR_HUD
[19:43:13.452898] [224] RADIO
[19:43:13.455892] [224] RADIO_STATUS
[19:43:13.501961] [124] VFR_HUD
[19:43:14.154054] [125] HEARTBEAT
[19:43:14.497053] [225] RADIO
[19:43:14.500055] [225] RADIO_STATUS
[19:43:15.203431] [128] SYS_STATUS
[19:43:15.211260] [129] BATTERY_STATUS
[19:43:15.320167] [130] ATTITUDE_TARGET
[19:43:15.325101] [131] VFR_HUD
[19:43:15.522204] [226] RADIO
[19:43:15.525168] [226] RADIO_STATUS
[19:43:15.873248] [132] VFR_HUD
[19:43:16.098303] [133] HEARTBEAT
[19:43:16.442447] [227] RADIO
[19:43:16.445291] [227] RADIO_STATUS
[19:43:16.687346] [134] VFR_HUD
[19:43:17.156464] [135] HEARTBEAT
[19:43:17.164443] [136] ATTITUDE_TARGET
[19:43:17.482497] [137] VFR_HUD
[19:43:17.509487] [228] RADIO
[19:43:17.512486] [228] RADIO_STATUS
[19:43:18.167630] [138] HEARTBEAT
[19:43:18.291748] [139] VFR_HUD
[19:43:18.401668] [229] RADIO
[19:43:18.404981] [229] RADIO_STATUS
[19:43:19.099730] [140] HEARTBEAT
[19:43:19.105842] [141] SYS_STATUS
[19:43:19.225741] [142] BATTERY_STATUS
[19:43:19.338770] [143] ATTITUDE_TARGET
[19:43:19.342700] [144] VFR_HUD
[19:43:19.430729] [230] RADIO
[19:43:19.433895] [230] RADIO_STATUS
[19:43:19.900815] [145] VFR_HUD
[19:43:20.131946] [146] HEARTBEAT
[19:43:20.469898] [231] RADIO
[19:43:20.472875] [231] RADIO_STATUS
[19:43:20.702001] [147] VFR_HUD
[19:43:21.500189] [232] RADIO
[19:43:21.503025] [232] RADIO_STATUS
[19:43:21.621099] [150] VFR_HUD
[19:43:22.076110] [151] HEARTBEAT
[19:43:22.321250] [152] VFR_HUD
[19:43:22.419218] [233] RADIO
[19:43:22.422155] [233] RADIO_STATUS
[19:43:23.127322] [153] HEARTBEAT
[19:43:23.134262] [154] SYS_STATUS
[19:43:23.253279] [155] BATTERY_STATUS
[19:43:23.260285] [156] ATTITUDE_TARGET
[19:43:23.291252] [157] VFR_HUD
[19:43:23.459297] [234] RADIO
[19:43:23.462295] [234] RADIO_STATUS
[19:43:23.919405] [158] VFR_HUD
[19:43:24.145393] [159] HEARTBEAT
[19:43:24.488408] [235] RADIO
[19:43:24.491394] [235] RADIO_STATUS
[19:43:24.839525] [160] VFR_HUD
[19:43:25.198538] [161] HEARTBEAT
[19:43:25.206556] [162] ATTITUDE_TARGET
[19:43:25.529606] [163] VFR_HUD
[19:43:25.556595] [236] RADIO
[19:43:25.559834] [236] RADIO_STATUS
[19:43:26.104679] [164] HEARTBEAT
[19:43:26.343704] [165] VFR_HUD
[19:43:26.464783] [237] RADIO
[19:43:26.467733] [237] RADIO_STATUS
[19:43:27.145904] [166] HEARTBEAT
[19:43:27.152865] [167] SYS_STATUS
[19:43:27.272892] [168] BATTERY_STATUS
[19:43:27.385943] [169] ATTITUDE_TARGET
[19:43:27.389873] [170] VFR_HUD
[19:43:27.477970] [238] RADIO
[19:43:27.480889] [238] RADIO_STATUS
[19:43:27.953029] [171] VFR_HUD
[19:43:28.065000] [172] HEARTBEAT
[19:43:28.517040] [239] RADIO
[19:43:28.519970] [239] RADIO_STATUS
[19:43:28.748113] [173] VFR_HUD
[19:43:29.107169] [174] HEARTBEAT
[19:43:29.115213] [175] ATTITUDE_TARGET
[19:43:29.547175] [240] RADIO
[19:43:29.550209] [240] RADIO_STATUS
[19:43:29.667282] [176] VFR_HUD
[19:43:30.123319] [177] HEARTBEAT
[19:43:30.357310] [178] VFR_HUD
[19:43:30.466321] [241] RADIO
[19:43:30.469309] [241] RADIO_STATUS
[19:43:31.303503] [181] BATTERY_STATUS
[19:43:31.304401] [182] EXTENDED_SYS_STATE
[19:43:31.312504] [183] ATTITUDE_TARGET
[19:43:31.317764] [184] VFR_HUD
[19:43:31.325739] [185] SYSTEM_TIME
[19:43:31.506472] [242] RADIO
[19:43:31.509455] [242] RADIO_STATUS
[19:43:31.966553] [186] VFR_HUD
[19:43:32.085798] [187] HEARTBEAT
[19:43:32.535702] [243] RADIO
[19:43:32.538751] [243] RADIO_STATUS
[19:43:32.776697] [188] VFR_HUD
[19:43:33.125857] [189] HEARTBEAT
[19:43:33.133813] [190] ATTITUDE_TARGET
[19:43:33.471877] [191] VFR_HUD
[19:43:33.591875] [244] RADIO
[19:43:33.594859] [244] RADIO_STATUS
[19:43:34.150951] [192] HEARTBEAT
[19:43:34.385990] [193] VFR_HUD
[19:43:34.500007] [245] RADIO
[19:43:34.502948] [245] RADIO_STATUS
[19:43:35.206178] [195] SYS_STATUS
[19:43:35.213245] [196] BATTERY_STATUS
[19:43:35.525165] [246] RADIO
[19:43:35.528167] [246] RADIO_STATUS
[19:43:35.876351] [199] VFR_HUD
[19:43:36.101374] [200] HEARTBEAT
[19:43:36.569321] [247] RADIO
[19:43:36.572304] [247] RADIO_STATUS
[19:43:36.685312] [201] VFR_HUD
[19:43:37.159387] [202] HEARTBEAT
[19:43:37.167361] [203] ATTITUDE_TARGET
[19:43:37.484374] [204] VFR_HUD
[19:43:37.517459] [248] RADIO
[19:43:37.520417] [248] RADIO_STATUS
[19:43:38.074584] [205] HEARTBEAT
[19:43:38.294578] [206] VFR_HUD
[19:43:38.513543] [249] RADIO
[19:43:38.516569] [249] RADIO_STATUS
[19:43:39.101712] [207] HEARTBEAT
[19:43:39.108619] [208] SYS_STATUS
[19:43:39.228722] [209] BATTERY_STATUS
[19:43:39.340794] [210] ATTITUDE_TARGET
[19:43:39.345658] [211] VFR_HUD
[19:43:39.558684] [250] RADIO
[19:43:39.561639] [250] RADIO_STATUS
[19:43:40.134890] [213] HEARTBEAT
[19:43:40.582812] [251] RADIO
[19:43:40.585795] [251] RADIO_STATUS
[19:43:40.703804] [214] VFR_HUD
[19:43:41.172925] [215] HEARTBEAT
[19:43:41.180925] [216] ATTITUDE_TARGET
[19:43:41.513915] [217] VFR_HUD
[19:43:41.627936] [252] RADIO
[19:43:41.630879] [252] RADIO_STATUS
[19:43:42.079096] [218] HEARTBEAT
[19:43:42.313068] [219] VFR_HUD
[19:43:42.542120] [253] RADIO
[19:43:42.545159] [253] RADIO_STATUS
[19:43:43.572379] [254] RADIO
[19:43:43.575382] [254] RADIO_STATUS
[19:43:43.641338] [222] BATTERY_STATUS
[19:43:43.648255] [223] ATTITUDE_TARGET
[19:43:43.653285] [224] VFR_HUD
[19:43:43.922357] [225] VFR_HUD
[19:43:44.148355] [226] HEARTBEAT
[19:43:44.611437] [255] RADIO
[19:43:44.614369] [255] RADIO_STATUS
[19:43:44.737391] [227] VFR_HUD
[19:43:45.206552] [228] HEARTBEAT
[19:43:45.214621] [229] ATTITUDE_TARGET
[19:43:45.532677] [230] VFR_HUD
[19:43:45.559553] [0] RADIO
[19:43:45.562513] [0] RADIO_STATUS
[19:43:46.107684] [231] HEARTBEAT
[19:43:46.346682] [232] VFR_HUD
[19:43:46.560776] [1] RADIO
[19:43:46.563726] [1] RADIO_STATUS
[19:43:47.148912] [233] HEARTBEAT
[19:43:47.155806] [234] SYS_STATUS
[19:43:47.387926] [236] ATTITUDE_TARGET
[19:43:47.392984] [237] VFR_HUD
[19:43:47.601186] [2] RADIO
[19:43:47.603856] [2] RADIO_STATUS
[19:43:47.950935] [238] VFR_HUD
[19:43:48.177029] [239] HEARTBEAT
[19:43:48.630020] [3] RADIO
[19:43:48.633028] [3] RADIO_STATUS
[19:43:48.751053] [240] VFR_HUD
[19:43:49.219132] [241] HEARTBEAT
[19:43:49.227108] [242] ATTITUDE_TARGET
[19:43:49.560193] [243] VFR_HUD
[19:43:49.669197] [4] RADIO
[19:43:49.672177] [4] RADIO_STATUS
[19:43:50.125248] [244] HEARTBEAT
[19:43:50.360275] [245] VFR_HUD
[19:43:50.589496] [5] RADIO
[19:43:50.592519] [5] RADIO_STATUS
[19:43:51.305462] [248] BATTERY_STATUS
[19:43:51.307412] [249] EXTENDED_SYS_STATE
[19:43:51.315421] [250] ATTITUDE_TARGET
[19:43:51.320589] [251] VFR_HUD
[19:43:51.323369] [252] SYSTEM_TIME
[19:43:51.618438] [6] RADIO
[19:43:51.621485] [6] RADIO_STATUS
[19:43:51.969544] [253] VFR_HUD
[19:43:52.084558] [254] HEARTBEAT
[19:43:52.658602] [7] RADIO
[19:43:52.661571] [7] RADIO_STATUS
[19:43:52.779564] [255] VFR_HUD
[19:43:53.128714] [0] HEARTBEAT
[19:43:53.135692] [1] ATTITUDE_TARGET
[19:43:53.578933] [2] VFR_HUD
[19:43:53.589743] [8] RADIO
[19:43:53.592787] [8] RADIO_STATUS
[19:43:54.153840] [3] HEARTBEAT
[19:43:54.393916] [4] VFR_HUD
[19:43:54.607927] [9] RADIO
[19:43:54.610962] [9] RADIO_STATUS
[19:43:55.091015] [5] HEARTBEAT
[19:43:55.098052] [6] SYS_STATUS
[19:43:55.136992] [7] BATTERY_STATUS
[19:43:55.144965] [8] ATTITUDE_TARGET
[19:43:55.149993] [9] VFR_HUD
[19:43:55.647060] [10] RADIO
[19:43:55.650062] [10] RADIO_STATUS
[19:43:56.114379] [10] VFR_HUD
[19:43:56.116204] [11] HEARTBEAT
[19:43:56.677255] [11] RADIO
[19:43:56.679198] [11] RADIO_STATUS
[19:43:56.797207] [12] VFR_HUD
[19:43:57.156288] [13] HEARTBEAT
[19:43:57.164306] [14] ATTITUDE_TARGET
[19:43:57.487265] [15] VFR_HUD
[19:43:57.596283] [12] RADIO
[19:43:57.600294] [12] RADIO_STATUS
[19:43:58.077374] [16] HEARTBEAT
[19:43:58.296439] [17] VFR_HUD
[19:43:58.641924] [13] RADIO
[19:43:58.644495] [13] RADIO_STATUS
[19:43:59.342642] [21] ATTITUDE_TARGET
[19:43:59.347677] [22] VFR_HUD
[19:43:59.666759] [14] RADIO
[19:43:59.668561] [14] RADIO_STATUS
[19:44:00.136706] [24] HEARTBEAT
[19:44:00.705715] [25] VFR_HUD
[19:44:00.737771] [15] RADIO
[19:44:00.740721] [15] RADIO_STATUS
[19:44:01.174833] [26] HEARTBEAT
[19:44:01.182775] [27] ATTITUDE_TARGET
[19:44:01.624852] [28] VFR_HUD
[19:44:01.641902] [16] RADIO
[19:44:01.643814] [16] RADIO_STATUS
[19:44:02.081101] [29] HEARTBEAT
[19:44:02.314955] [30] VFR_HUD
[19:44:02.654027] [17] RADIO
[19:44:02.656958] [17] RADIO_STATUS
