[03:00:15.019214] [13] HEARTBEAT
[03:00:15.472138] [215] RADIO
[03:00:15.475091] [215] RADIO_STATUS
[03:00:16.182285] [17] BATTERY_STATUS
[03:00:16.622398] [216] RADIO
[03:00:16.625362] [216] RADIO_STATUS
[03:00:16.868408] [20] VFR_HUD
[03:00:16.989443] [21] HEARTBEAT
[03:00:17.541576] [217] RADIO
[03:00:17.544505] [217] RADIO_STATUS
[03:00:17.615791] JAMMING_START
[03:00:18.021663] [23] HEARTBEAT
[03:00:18.029687] [24] ATTITUDE_TARGET
[03:00:18.472670] [25] VFR_HUD
[03:00:18.581785] [218] RADIO
[03:00:18.584698] [218] RADIO_STATUS
[03:00:19.037826] [26] HEARTBEAT
[03:00:19.271837] [27] VFR_HUD
[03:00:19.610888] [219] RADIO
[03:00:19.613885] [219] RADIO_STATUS
[03:00:20.215015] [30] BATTERY_STATUS
[03:00:20.221999] [31] ATTITUDE_TARGET
[03:00:20.253019] [32] VFR_HUD
[03:00:20.531038] [220] RADIO
[03:00:20.534010] [220] RADIO_STATUS
[03:00:20.771120] [33] VFR_HUD
[03:00:21.570297] [221] RADIO
[03:00:21.573194] [221] RADIO_STATUS
[03:00:21.694968] [35] VFR_HUD
[03:00:22.490603] [38] VFR_HUD
[03:00:22.501381] [222] RADIO
[03:00:22.504397] [222] RADIO_STATUS
[03:00:23.066400] [39] HEARTBEAT
[03:00:23.191418] [40] VFR_HUD
[03:00:23.519458] [223] RADIO
[03:00:23.521509] [223] RADIO_STATUS
[03:00:24.002630] [41] HEARTBEAT
[03:00:24.009603] [42] SYS_STATUS
[03:00:24.051046] [43] BATTERY_STATUS
[03:00:24.056590] [44] ATTITUDE_TARGET
[03:00:24.061532] [45] VFR_HUD
[03:00:24.668642] [224] RADIO
[03:00:24.671635] [224] RADIO_STATUS
[03:00:25.144779] [46] VFR_HUD
[03:00:25.146711] [47] HEARTBEAT
[03:00:25.587840] [225] RADIO
[03:00:25.590762] [225] RADIO_STATUS
[03:00:26.072922] [49] HEARTBEAT
[03:00:26.080892] [50] ATTITUDE_TARGET
[03:00:26.508082] [226] RADIO
[03:00:26.511138] [226] RADIO_STATUS
[03:00:26.989113] [52] HEARTBEAT
[03:00:27.209055] [53] VFR_HUD
[03:00:27.657130] [227] RADIO
[03:00:27.660146] [227] RADIO_STATUS
[03:00:28.577379] [228] RADIO
[03:00:28.580359] [228] RADIO_STATUS
[03:00:29.649568] [229] RADIO
[03:00:29.652512] [229] RADIO_STATUS
[03:00:30.541715] [230] RADIO
[03:00:30.544595] [230] RADIO_STATUS
[03:00:31.001784] [67] HEARTBEAT
[03:00:31.238823] [68] VFR_HUD
[03:00:31.565841] [231] RADIO
[03:00:31.568875] [231] RADIO_STATUS
[03:00:32.049996] [69] HEARTBEAT
[03:00:32.055897] [70] SYS_STATUS
[03:00:32.095997] [71] BATTERY_STATUS
[03:00:32.103985] [72] ATTITUDE_TARGET
[03:00:32.107919] [73] VFR_HUD
[03:00:32.718041] [232] RADIO
[03:00:32.721035] [232] RADIO_STATUS
[03:00:32.791012] [74] VFR_HUD
[03:00:33.073180] [75] HEARTBEAT
[03:00:33.637338] [233] RADIO
[03:00:33.640202] [233] RADIO_STATUS
[03:00:33.997311] [77] HEARTBEAT
[03:00:34.005249] [78] ATTITUDE_TARGET
[03:00:34.459414] [79] VFR_HUD
[03:00:34.557357] [234] RADIO
[03:00:34.560437] [234] RADIO_STATUS
[03:00:35.023469] [80] HEARTBEAT
[03:00:35.262483] [81] VFR_HUD
[03:00:35.706793] [235] RADIO
[03:00:35.709603] [235] RADIO_STATUS
[03:00:36.305987] [85] ATTITUDE_TARGET
[03:00:36.308697] [86] VFR_HUD
[03:00:36.626717] [236] RADIO
[03:00:36.629724] [236] RADIO_STATUS
[03:00:36.866742] [87] VFR_HUD
[03:00:36.972863] [88] HEARTBEAT
[03:00:37.698893] [237] RADIO
[03:00:37.701825] [237] RADIO_STATUS
[03:00:38.586006] [238] RADIO
[03:00:38.589002] [238] RADIO_STATUS
[03:00:39.042193] [93] HEARTBEAT
[03:00:39.178145] [94] VFR_HUD
[03:00:39.615288] [239] RADIO
[03:00:39.618209] [239] RADIO_STATUS
[03:00:40.095323] [97] BATTERY_STATUS
[03:00:40.765376] [240] RADIO
[03:00:40.768406] [240] RADIO_STATUS
[03:00:41.001590] [101] HEARTBEAT
[03:00:41.575456] [102] VFR_HUD
[03:00:41.602532] [241] RADIO
[03:00:41.605523] [241] RADIO_STATUS
[03:00:42.044655] [103] HEARTBEAT
[03:00:42.052604] [104] ATTITUDE_TARGET
[03:00:42.390716] [105] VFR_HUD
[03:00:42.603739] [242] RADIO
[03:00:42.606723] [242] RADIO_STATUS
[03:00:43.069872] [106] HEARTBEAT
[03:00:43.184825] [107] VFR_HUD
[03:00:43.643921] [243] RADIO
[03:00:43.646867] [243] RADIO_STATUS
[03:00:44.673218] [244] RADIO
[03:00:44.676044] [244] RADIO_STATUS
[03:00:45.603283] [115] VFR_HUD
[03:00:45.712299] [245] RADIO
[03:00:45.715239] [245] RADIO_STATUS
[03:00:46.632405] [246] RADIO
[03:00:46.635382] [246] RADIO_STATUS
[03:00:46.983487] [119] HEARTBEAT
[03:00:47.224550] [120] VFR_HUD
[03:00:47.662561] [247] RADIO
[03:00:47.665784] [247] RADIO_STATUS
[03:00:48.144715] [123] BATTERY_STATUS
[03:00:48.146570] [124] EXTENDED_SYS_STATE
[03:00:48.811782] [248] RADIO
[03:00:48.814666] [248] RADIO_STATUS
[03:00:48.933814] [128] VFR_HUD
[03:00:48.961164] [129] HEARTBEAT
[03:00:49.621897] [130] VFR_HUD
[03:00:49.648925] [249] RADIO
[03:00:49.651918] [249] RADIO_STATUS
[03:00:50.437102] [133] VFR_HUD
[03:00:50.651081] [250] RADIO
[03:00:50.654078] [250] RADIO_STATUS
[03:00:51.231166] [135] VFR_HUD
[03:00:51.690319] [251] RADIO
[03:00:51.693240] [251] RADIO_STATUS
[03:00:52.719398] [252] RADIO
[03:00:52.722420] [252] RADIO_STATUS
[03:00:53.655638] [143] VFR_HUD
[03:00:53.868633] [253] RADIO
[03:00:53.871661] [253] RADIO_STATUS
[03:00:54.683711] [254] RADIO
[03:00:54.686729] [254] RADIO_STATUS
[03:00:55.039102] [147] HEARTBEAT
[03:00:55.258824] [148] VFR_HUD
[03:00:55.707918] [255] RADIO
[03:00:55.710911] [255] RADIO_STATUS
[03:00:56.861127] [0] RADIO
[03:00:56.864074] [0] RADIO_STATUS
[03:00:56.908178] [154] VFR_HUD
[03:00:56.974154] [155] HEARTBEAT
[03:00:57.700277] [1] RADIO
[03:00:57.703239] [1] RADIO_STATUS
[03:00:58.137570] [157] HEARTBEAT
[03:00:58.145459] [158] ATTITUDE_TARGET
[03:00:58.478415] [159] VFR_HUD
[03:00:58.697405] [2] RADIO
[03:00:58.700418] [2] RADIO_STATUS
[03:00:59.173566] [161] VFR_HUD
[03:00:59.742678] [3] RADIO
[03:00:59.745568] [3] RADIO_STATUS
[03:01:00.766675] [4] RADIO
[03:01:00.769692] [4] RADIO_STATUS
[03:01:00.805821] [167] VFR_HUD
[03:01:01.002761] [168] HEARTBEAT
[03:01:01.576896] [169] VFR_HUD
[03:01:01.811884] [5] RADIO
[03:01:01.814870] [5] RADIO_STATUS
[03:01:02.731038] [6] RADIO
[03:01:02.733970] [6] RADIO_STATUS
[03:01:03.072124] [173] HEARTBEAT
[03:01:03.187176] [174] VFR_HUD
[03:01:03.755267] [7] RADIO
[03:01:03.758226] [7] RADIO_STATUS
[03:01:04.003224] [175] HEARTBEAT
[03:01:04.010511] [176] SYS_STATUS
[03:01:04.904401] [8] RADIO
[03:01:04.907383] [8] RADIO_STATUS
[03:01:05.021440] [181] HEARTBEAT
[03:01:05.605471] [182] VFR_HUD
[03:01:05.714614] [9] RADIO
[03:01:05.717456] [9] RADIO_STATUS
[03:01:06.183590] [183] HEARTBEAT
[03:01:06.191608] [184] ATTITUDE_TARGET
[03:01:06.404639] [185] VFR_HUD
[03:01:06.743662] [10] RADIO
[03:01:06.746621] [10] RADIO_STATUS
[03:01:07.225733] [187] VFR_HUD
[03:01:07.893832] [11] RADIO
[03:01:07.896926] [11] RADIO_STATUS
[03:01:08.812990] [12] RADIO
[03:01:08.815910] [12] RADIO_STATUS
[03:01:08.851983] [195] VFR_HUD
[03:01:09.049019] [196] HEARTBEAT
[03:01:09.623081] [197] VFR_HUD
[03:01:09.733054] [13] RADIO
[03:01:09.737979] [13] RADIO_STATUS
[03:01:09.988174] [198] HEARTBEAT
[03:01:09.995154] [199] ATTITUDE_TARGET
[03:01:10.772289] [14] RADIO
[03:01:10.775397] [14] RADIO_STATUS
[03:01:11.008393] [201] HEARTBEAT
[03:01:11.805461] [15] RADIO
[03:01:11.808497] [15] RADIO_STATUS
[03:01:12.055447] [203] HEARTBEAT
[03:01:12.062449] [204] SYS_STATUS
[03:01:12.101445] [205] BATTERY_STATUS
[03:01:12.109642] [206] ATTITUDE_TARGET
[03:01:12.114466] [207] VFR_HUD
[03:01:12.953627] [16] RADIO
[03:01:12.956550] [16] RADIO_STATUS
[03:01:13.653940] [210] VFR_HUD
[03:01:13.762704] [17] RADIO
[03:01:13.765689] [17] RADIO_STATUS
[03:01:14.792916] [18] RADIO
[03:01:14.795858] [18] RADIO_STATUS
[03:01:15.274981] [215] VFR_HUD
[03:01:15.832077] [19] RADIO
[03:01:15.834984] [19] RADIO_STATUS
[03:01:16.861255] [20] RADIO
[03:01:16.864175] [20] RADIO_STATUS
[03:01:17.671310] [223] VFR_HUD
[03:01:17.781421] [21] RADIO
[03:01:17.784533] [21] RADIO_STATUS
[03:01:18.036463] [224] HEARTBEAT
[03:01:18.044446] [225] ATTITUDE_TARGET
[03:01:18.820528] [22] RADIO
[03:01:18.823454] [22] RADIO_STATUS
[03:01:19.056611] [227] HEARTBEAT
[03:01:19.176577] [228] VFR_HUD
[03:01:19.850714] [23] RADIO
[03:01:19.853917] [23] RADIO_STATUS
[03:01:19.978741] [229] HEARTBEAT
[03:01:19.985733] [230] SYS_STATUS
[03:01:20.105761] [231] BATTERY_STATUS
[03:01:20.770883] [24] RADIO
[03:01:20.772807] [24] RADIO_STATUS
[03:01:21.006957] [235] HEARTBEAT
[03:01:21.592165] [236] VFR_HUD
[03:01:21.810063] [25] RADIO
[03:01:21.813038] [25] RADIO_STATUS
[03:01:22.390222] [239] VFR_HUD
[03:01:22.839226] [26] RADIO
[03:01:22.842202] [26] RADIO_STATUS
[03:01:23.989419] [27] RADIO
[03:01:23.992342] [27] RADIO_STATUS
[03:01:24.908556] [28] RADIO
[03:01:24.911628] [28] RADIO_STATUS
[03:01:25.034683] [248] HEARTBEAT
[03:01:25.620690] [249] VFR_HUD
[03:01:25.828715] [29] RADIO
[03:01:25.831652] [29] RADIO_STATUS
[03:01:26.078756] [250] HEARTBEAT
[03:01:26.085714] [251] ATTITUDE_TARGET
[03:01:26.420784] [252] VFR_HUD
[03:01:26.873007] [30] RADIO
[03:01:26.875840] [30] RADIO_STATUS
[03:01:26.983935] [253] HEARTBEAT
[03:01:27.224165] [254] VFR_HUD
[03:01:27.898052] [31] RADIO
[03:01:27.901008] [31] RADIO_STATUS
[03:01:28.026092] [255] HEARTBEAT
[03:01:28.033108] [0] SYS_STATUS
[03:01:28.150128] [1] BATTERY_STATUS
[03:01:28.152106] [2] EXTENDED_SYS_STATE
[03:01:28.817247] [32] RADIO
[03:01:28.820269] [32] RADIO_STATUS
[03:01:29.053298] [7] HEARTBEAT
[03:01:29.639373] [8] VFR_HUD
[03:01:29.861402] [33] RADIO
[03:01:29.864426] [33] RADIO_STATUS
[03:01:30.442522] [11] VFR_HUD
[03:01:30.886593] [34] RADIO
[03:01:30.889630] [34] RADIO_STATUS
[03:01:31.002846] [12] HEARTBEAT
[03:01:32.036501] [35] RADIO
[03:01:32.039050] [35] RADIO_STATUS
[03:01:32.956336] [36] RADIO
[03:01:32.958067] [36] RADIO_STATUS
[03:01:32.989090] [20] HEARTBEAT
[03:01:33.656098] [21] VFR_HUD
[03:01:33.875110] [37] RADIO
[03:01:33.878096] [37] RADIO_STATUS
[03:01:34.124194] [22] HEARTBEAT
[03:01:34.132193] [23] ATTITUDE_TARGET
[03:01:34.456258] [24] VFR_HUD
[03:01:34.915401] [38] RADIO
[03:01:34.918282] [38] RADIO_STATUS
[03:01:35.036451] [25] HEARTBEAT
[03:01:35.265401] [26] VFR_HUD
[03:01:35.944423] [39] RADIO
[03:01:35.947432] [39] RADIO_STATUS
[03:01:36.081512] [30] ATTITUDE_TARGET
[03:01:36.086477] [31] VFR_HUD
[03:01:36.864537] [40] RADIO
[03:01:36.867572] [40] RADIO_STATUS
[03:01:37.570752] [34] VFR_HUD
[03:01:37.903773] [41] RADIO
[03:01:37.906808] [41] RADIO_STATUS
[03:01:38.364878] [37] VFR_HUD
[03:01:38.933933] [42] RADIO
[03:01:38.937078] [42] RADIO_STATUS
[03:01:38.967995] [38] HEARTBEAT
[03:01:40.083247] [43] RADIO
[03:01:40.086142] [43] RADIO_STATUS
[03:01:40.893280] [44] RADIO
[03:01:40.896251] [44] RADIO_STATUS
[03:01:41.024385] [45] VFR_HUD
[03:01:41.027300] [46] HEARTBEAT
[03:01:41.923463] [45] RADIO
[03:01:41.925496] [45] RADIO_STATUS
[03:01:42.177603] [48] HEARTBEAT
[03:01:42.185466] [49] ATTITUDE_TARGET
[03:01:42.404516] [50] VFR_HUD
[03:01:42.958647] [51] HEARTBEAT
[03:01:43.072690] [46] RADIO
[03:01:43.075731] [46] RADIO_STATUS
[03:01:43.992778] [47] RADIO
[03:01:43.994769] [47] RADIO_STATUS
[03:01:44.120941] [53] HEARTBEAT
[03:01:44.126893] [54] SYS_STATUS
[03:01:44.247820] [55] BATTERY_STATUS
[03:01:44.478886] [56] ATTITUDE_TARGET
[03:01:44.483845] [57] VFR_HUD
[03:01:44.802932] [58] VFR_HUD
[03:01:44.911937] [48] RADIO
[03:01:44.914924] [48] RADIO_STATUS
[03:01:45.618165] [60] VFR_HUD
[03:01:45.951091] [49] RADIO
[03:01:45.954078] [49] RADIO_STATUS
[03:01:46.412311] [63] VFR_HUD
[03:01:46.981429] [50] RADIO
[03:01:46.984309] [50] RADIO_STATUS
[03:01:47.097421] [64] HEARTBEAT
[03:01:48.130572] [51] RADIO
[03:01:48.133407] [51] RADIO_STATUS
[03:01:48.837994] [73] VFR_HUD
[03:01:48.956598] [52] RADIO
[03:01:48.959587] [52] RADIO_STATUS
[03:01:49.056659] [74] HEARTBEAT
[03:01:49.969781] [53] RADIO
[03:01:49.972722] [53] RADIO_STATUS
[03:01:50.224862] [76] HEARTBEAT
[03:01:50.231874] [77] ATTITUDE_TARGET
[03:01:50.451828] [78] VFR_HUD
[03:01:51.005956] [79] HEARTBEAT
[03:01:51.037134] [54] RADIO
[03:01:51.039921] [54] RADIO_STATUS
[03:01:51.252025] [80] VFR_HUD
[03:01:52.038313] [55] RADIO
[03:01:52.041072] [55] RADIO_STATUS
[03:01:52.167130] [81] HEARTBEAT
[03:01:52.173194] [82] SYS_STATUS
[03:01:52.293230] [83] BATTERY_STATUS
[03:01:52.849319] [86] VFR_HUD
[03:01:52.958296] [56] RADIO
[03:01:52.961320] [56] RADIO_STATUS
[03:01:53.658451] [88] VFR_HUD
[03:01:54.025496] [57] RADIO
[03:01:54.028416] [57] RADIO_STATUS
[03:01:54.458560] [91] VFR_HUD
[03:01:55.028681] [58] RADIO
[03:01:55.030653] [58] RADIO_STATUS
[03:01:55.144164] [92] HEARTBEAT
[03:01:55.167636] [93] VFR_HUD
[03:01:55.946794] [59] RADIO
[03:01:55.949715] [59] RADIO_STATUS
[03:01:56.006824] [94] HEARTBEAT
[03:01:56.013789] [95] SYS_STATUS
[03:01:56.020920] [96] BATTERY_STATUS
[03:01:56.033851] [97] ATTITUDE_TARGET
[03:01:56.037845] [98] VFR_HUD
[03:01:56.882944] [99] VFR_HUD
[03:01:56.994007] [100] HEARTBEAT
[03:01:57.097045] [60] RADIO
[03:01:57.100001] [60] RADIO_STATUS
[03:01:58.016208] [61] RADIO
[03:01:58.019198] [61] RADIO_STATUS
[03:01:58.064371] [102] HEARTBEAT
[03:01:58.072146] [103] ATTITUDE_TARGET
[03:01:58.367288] [104] VFR_HUD
[03:01:59.052316] [105] HEARTBEAT
[03:01:59.083475] [62] RADIO
[03:01:59.086391] [62] RADIO_STATUS
[03:01:59.176414] [106] VFR_HUD
[03:02:00.085531] [63] RADIO
[03:02:00.088539] [63] RADIO_STATUS
[03:02:01.005677] [64] RADIO
[03:02:01.008732] [64] RADIO_STATUS
[03:02:01.597801] [114] VFR_HUD
[03:02:02.072825] [65] RADIO
[03:02:02.075781] [65] RADIO_STATUS
[03:02:02.395911] [117] VFR_HUD
[03:02:02.962007] [118] HEARTBEAT
[03:02:03.075012] [66] RADIO
[03:02:03.077990] [66] RADIO_STATUS
[03:02:03.196029] [119] VFR_HUD
[03:02:03.995161] [67] RADIO
[03:02:03.998114] [67] RADIO_STATUS
[03:02:04.805467] [125] VFR_HUD
[03:02:05.040485] [126] HEARTBEAT
[03:02:05.144426] [68] RADIO
[03:02:05.147340] [68] RADIO_STATUS
[03:02:06.064574] [69] RADIO
[03:02:06.067721] [69] RADIO_STATUS
[03:02:06.112864] [128] HEARTBEAT
[03:02:06.119703] [129] ATTITUDE_TARGET
[03:02:06.991377] [131] HEARTBEAT
[03:02:07.103982] [70] RADIO
[03:02:07.106800] [70] RADIO_STATUS
[03:02:07.229751] [132] VFR_HUD
[03:02:08.133929] [71] RADIO
[03:02:08.137086] [71] RADIO_STATUS
[03:02:08.845057] [140] VFR_HUD
[03:02:09.053068] [72] RADIO
[03:02:09.056036] [72] RADIO_STATUS
[03:02:10.203483] [73] RADIO
[03:02:10.206216] [73] RADIO_STATUS
[03:02:10.443280] [145] VFR_HUD
[03:02:11.009441] [146] HEARTBEAT
[03:02:11.122373] [74] RADIO
[03:02:11.125344] [74] RADIO_STATUS
[03:02:11.243447] [147] VFR_HUD
[03:02:12.042660] [75] RADIO
[03:02:12.045558] [75] RADIO_STATUS
[03:02:12.297386] [150] BATTERY_STATUS
[03:02:12.852736] [153] VFR_HUD
[03:02:12.967796] [154] HEARTBEAT
[03:02:13.081730] [76] RADIO
[03:02:13.084720] [76] RADIO_STATUS
[03:02:14.011912] [156] HEARTBEAT
[03:02:14.020262] [157] ATTITUDE_TARGET
[03:02:14.029898] [77] RADIO
[03:02:14.032889] [77] RADIO_STATUS
[03:02:14.474052] [158] VFR_HUD
[03:02:15.031122] [78] RADIO
[03:02:15.034164] [78] RADIO_STATUS
[03:02:15.148125] [159] HEARTBEAT
[03:02:15.171274] [160] VFR_HUD
[03:02:16.181285] [79] RADIO
[03:02:16.184219] [79] RADIO_STATUS
[03:02:17.008433] [167] HEARTBEAT
[03:02:17.028401] [80] RADIO
[03:02:17.031422] [80] RADIO_STATUS
[03:02:17.571561] [168] VFR_HUD
[03:02:18.250643] [81] RADIO
[03:02:18.253571] [81] RADIO_STATUS
[03:02:19.056770] [172] HEARTBEAT
[03:02:19.169774] [82] RADIO
[03:02:19.172728] [82] RADIO_STATUS
[03:02:19.290739] [173] VFR_HUD
[03:02:20.089899] [83] RADIO
[03:02:20.092821] [83] RADIO_STATUS
[03:02:20.129938] [176] BATTERY_STATUS
[03:02:20.157687] [177] ATTITUDE_TARGET
[03:02:20.162103] [178] VFR_HUD
[03:02:20.790026] [179] VFR_HUD
[03:02:21.021133] [180] HEARTBEAT
[03:02:21.239105] [84] RADIO
[03:02:21.242079] [84] RADIO_STATUS
[03:02:21.590112] [181] VFR_HUD
[03:02:22.059229] [182] HEARTBEAT
[03:02:22.067163] [183] ATTITUDE_TARGET
[03:02:22.077223] [85] RADIO
[03:02:22.080179] [85] RADIO_STATUS
[03:02:22.405281] [184] VFR_HUD
[03:02:23.078416] [86] RADIO
[03:02:23.081396] [86] RADIO_STATUS
[03:02:23.199408] [186] VFR_HUD
[03:02:24.228696] [87] RADIO
[03:02:24.230592] [87] RADIO_STATUS
[03:02:25.147762] [88] RADIO
[03:02:25.150717] [88] RADIO_STATUS
[03:02:25.623837] [194] VFR_HUD
[03:02:26.092954] [195] HEARTBEAT
[03:02:26.100914] [196] ATTITUDE_TARGET
[03:02:26.192935] [89] RADIO
[03:02:26.195926] [89] RADIO_STATUS
[03:02:26.999026] [198] HEARTBEAT
[03:02:27.106979] [90] RADIO
[03:02:27.110018] [90] RADIO_STATUS
[03:02:27.239096] [199] VFR_HUD
[03:02:28.137240] [91] RADIO
[03:02:28.140166] [91] RADIO_STATUS
[03:02:28.201296] [202] BATTERY_STATUS
[03:02:28.203194] [203] EXTENDED_SYS_STATE
[03:02:28.211200] [204] ATTITUDE_TARGET
[03:02:28.216315] [205] VFR_HUD
[03:02:28.219187] [206] SYSTEM_TIME
[03:02:28.837322] [207] VFR_HUD
[03:02:29.068450] [208] HEARTBEAT
[03:02:29.176421] [92] RADIO
[03:02:29.179395] [92] RADIO_STATUS
[03:02:29.638135] [209] VFR_HUD
[03:02:30.105582] [210] HEARTBEAT
[03:02:30.113606] [211] ATTITUDE_TARGET
[03:02:30.206585] [93] RADIO
[03:02:30.209536] [93] RADIO_STATUS
[03:02:30.446585] [212] VFR_HUD
[03:02:31.125672] [94] RADIO
[03:02:31.128655] [94] RADIO_STATUS
[03:02:31.246706] [214] VFR_HUD
[03:02:32.275924] [95] RADIO
[03:02:32.278898] [95] RADIO_STATUS
[03:02:32.855970] [220] VFR_HUD
[03:02:32.971981] [221] HEARTBEAT
[03:02:33.194973] [96] RADIO
[03:02:33.197966] [96] RADIO_STATUS
[03:02:33.671076] [222] VFR_HUD
[03:02:34.115120] [97] RADIO
[03:02:34.118066] [97] RADIO_STATUS
[03:02:35.041306] [226] HEARTBEAT
[03:02:35.155306] [98] RADIO
[03:02:35.158226] [98] RADIO_STATUS
[03:02:35.973500] [228] HEARTBEAT
[03:02:35.979433] [229] SYS_STATUS
[03:02:36.158484] [99] RADIO
[03:02:36.161413] [99] RADIO_STATUS
[03:02:36.990683] [234] HEARTBEAT
[03:02:37.223649] [100] RADIO
[03:02:37.226644] [100] RADIO_STATUS
[03:02:37.577825] [235] VFR_HUD
[03:02:38.154285] [236] HEARTBEAT
[03:02:38.160847] [237] ATTITUDE_TARGET
[03:02:38.253890] [101] RADIO
[03:02:38.256948] [101] RADIO_STATUS
[03:02:38.374867] [238] VFR_HUD
[03:02:39.173991] [102] RADIO
[03:02:39.176929] [102] RADIO_STATUS
[03:02:39.294052] [240] VFR_HUD
[03:02:40.323242] [103] RADIO
[03:02:40.326177] [103] RADIO_STATUS
[03:02:40.799338] [246] VFR_HUD
[03:02:41.019591] [247] HEARTBEAT
[03:02:41.245066] [104] RADIO
[03:02:41.245337] [104] RADIO_STATUS
[03:02:41.593547] [248] VFR_HUD
[03:02:42.162522] [105] RADIO
[03:02:42.164465] [105] RADIO_STATUS
[03:02:42.977752] [252] HEARTBEAT
[03:02:43.234719] [106] RADIO
[03:02:43.238035] [106] RADIO_STATUS
[03:02:44.024893] [254] HEARTBEAT
[03:02:44.031843] [255] SYS_STATUS
[03:02:44.071908] [0] BATTERY_STATUS
[03:02:44.078872] [1] ATTITUDE_TARGET
[03:02:44.083846] [2] VFR_HUD
[03:02:44.231873] [107] RADIO
[03:02:44.234842] [107] RADIO_STATUS
[03:02:45.048031] [3] VFR_HUD
[03:02:45.051049] [4] HEARTBEAT
[03:02:45.276152] [108] RADIO
[03:02:45.279093] [108] RADIO_STATUS
[03:02:46.196222] [109] RADIO
[03:02:46.199203] [109] RADIO_STATUS
[03:02:47.220410] [110] RADIO
[03:02:47.223372] [110] RADIO_STATUS
[03:02:47.341505] [10] VFR_HUD
[03:02:48.370836] [111] RADIO
[03:02:48.373616] [111] RADIO_STATUS
[03:02:48.840715] [18] VFR_HUD
[03:02:49.071441] [19] HEARTBEAT
[03:02:49.184768] [112] RADIO
[03:02:49.187816] [112] RADIO_STATUS
[03:02:49.640867] [20] VFR_HUD
[03:02:50.004961] [21] HEARTBEAT
[03:02:50.012890] [22] ATTITUDE_TARGET
[03:02:50.209935] [113] RADIO
[03:02:50.212957] [113] RADIO_STATUS
[03:02:51.025310] [24] HEARTBEAT
[03:02:51.250085] [25] VFR_HUD
[03:02:51.282086] [114] RADIO
[03:02:51.286042] [114] RADIO_STATUS
[03:02:52.072270] [26] HEARTBEAT
[03:02:52.079267] [27] SYS_STATUS
[03:02:52.118307] [28] BATTERY_STATUS
[03:02:52.126242] [29] ATTITUDE_TARGET
[03:02:52.131265] [30] VFR_HUD
[03:02:52.279281] [115] RADIO
[03:02:52.281234] [115] RADIO_STATUS
[03:02:52.985421] [31] VFR_HUD
[03:02:52.988429] [32] HEARTBEAT
[03:02:53.198467] [116] RADIO
[03:02:53.201414] [116] RADIO_STATUS
[03:02:53.778700] [33] VFR_HUD
[03:02:54.237661] [117] RADIO
[03:02:54.240597] [117] RADIO_STATUS
[03:02:54.468668] [36] VFR_HUD
[03:02:55.267786] [118] RADIO
[03:02:55.270829] [118] RADIO_STATUS
[03:02:55.316837] [38] VFR_HUD
[03:02:56.150041] [43] VFR_HUD
[03:02:56.416005] [119] RADIO
[03:02:56.418964] [119] RADIO_STATUS
[03:02:56.767180] [44] VFR_HUD
[03:02:56.993822] [45] HEARTBEAT
[03:02:57.226139] [120] RADIO
[03:02:57.229624] [120] RADIO_STATUS
[03:02:58.045471] [47] HEARTBEAT
[03:02:58.053260] [48] ATTITUDE_TARGET
[03:02:58.255383] [121] RADIO
[03:02:58.258314] [121] RADIO_STATUS
[03:02:59.061669] [50] HEARTBEAT
[03:02:59.191446] [51] VFR_HUD
[03:02:59.405482] [122] RADIO
[03:02:59.408430] [122] RADIO_STATUS
[03:02:59.993992] [52] HEARTBEAT
[03:03:00.000631] [53] SYS_STATUS
[03:03:00.114640] [54] BATTERY_STATUS
[03:03:00.242630] [123] RADIO
[03:03:00.245681] [123] RADIO_STATUS
[03:03:01.033831] [58] HEARTBEAT
[03:03:01.244800] [124] RADIO
[03:03:01.247809] [124] RADIO_STATUS
[03:03:02.284977] [125] RADIO
[03:03:02.286987] [125] RADIO_STATUS
[03:03:02.411014] [62] VFR_HUD
[03:03:02.972332] [63] HEARTBEAT
[03:03:03.314226] [126] RADIO
[03:03:03.317108] [126] RADIO_STATUS
[03:03:04.185429] [69] VFR_HUD
[03:03:04.463495] [127] RADIO
[03:03:04.466550] [127] RADIO_STATUS
[03:03:05.048688] [71] HEARTBEAT
[03:03:05.272756] [128] RADIO
[03:03:05.275617] [128] RADIO_STATUS
[03:03:06.091842] [73] HEARTBEAT
[03:03:06.099739] [74] ATTITUDE_TARGET
[03:03:06.302790] [129] RADIO
[03:03:06.304712] [129] RADIO_STATUS
[03:03:06.424233] [75] VFR_HUD
[03:03:07.003904] [76] HEARTBEAT
[03:03:07.232933] [77] VFR_HUD
[03:03:07.341904] [130] RADIO
[03:03:07.344843] [130] RADIO_STATUS
[03:03:08.039988] [78] HEARTBEAT
[03:03:08.047004] [79] SYS_STATUS
[03:03:08.164062] [80] BATTERY_STATUS
[03:03:08.165940] [81] EXTENDED_SYS_STATE
[03:03:08.328030] [131] RADIO
[03:03:08.331032] [131] RADIO_STATUS
[03:03:09.072182] [86] HEARTBEAT
[03:03:09.291163] [132] RADIO
[03:03:09.294150] [132] RADIO_STATUS
[03:03:09.641290] [87] VFR_HUD
[03:03:10.336635] [133] RADIO
[03:03:10.339111] [133] RADIO_STATUS
[03:03:10.456442] [90] VFR_HUD
[03:03:11.016461] [91] HEARTBEAT
[03:03:11.360523] [134] RADIO
[03:03:11.363532] [134] RADIO_STATUS
[03:03:12.509948] [135] RADIO
[03:03:12.512726] [135] RADIO_STATUS
[03:03:12.975816] [99] HEARTBEAT
[03:03:13.324800] [136] RADIO
[03:03:13.327776] [136] RADIO_STATUS
[03:03:13.675843] [100] VFR_HUD
[03:03:14.143882] [101] HEARTBEAT
[03:03:14.151911] [102] ATTITUDE_TARGET
[03:03:14.348899] [137] RADIO
[03:03:14.351898] [137] RADIO_STATUS
[03:03:15.051107] [104] HEARTBEAT
[03:03:15.280132] [105] VFR_HUD
[03:03:15.394163] [138] RADIO
[03:03:15.397208] [138] RADIO_STATUS
[03:03:16.102262] [108] BATTERY_STATUS
[03:03:16.110397] [109] ATTITUDE_TARGET
[03:03:16.140218] [110] VFR_HUD
[03:03:16.314336] [139] RADIO
[03:03:16.317261] [139] RADIO_STATUS
[03:03:17.338448] [140] RADIO
[03:03:17.341305] [140] RADIO_STATUS
[03:03:17.579589] [113] VFR_HUD
[03:03:18.378579] [116] VFR_HUD
[03:03:18.410572] [141] RADIO
[03:03:18.413463] [141] RADIO_STATUS
[03:03:18.953687] [117] HEARTBEAT
[03:03:19.407686] [142] RADIO
[03:03:19.410663] [142] RADIO_STATUS
[03:03:20.117840] [121] BATTERY_STATUS
[03:03:20.326977] [143] RADIO
[03:03:20.329908] [143] RADIO_STATUS
[03:03:20.803054] [124] VFR_HUD
[03:03:21.022955] [125] HEARTBEAT
[03:03:21.477077] [144] RADIO
[03:03:21.479054] [144] RADIO_STATUS
[03:03:22.186173] [127] HEARTBEAT
[03:03:22.193179] [128] ATTITUDE_TARGET
[03:03:22.396288] [145] RADIO
[03:03:22.399211] [145] RADIO_STATUS
[03:03:22.446176] [129] VFR_HUD
[03:03:22.971537] [130] HEARTBEAT
[03:03:23.545488] [146] RADIO
[03:03:23.547588] [146] RADIO_STATUS
[03:03:24.149420] [134] BATTERY_STATUS
[03:03:24.156632] [135] ATTITUDE_TARGET
[03:03:24.186647] [136] VFR_HUD
[03:03:24.354479] [147] RADIO
[03:03:24.357407] [147] RADIO_STATUS
[03:03:24.815646] [137] VFR_HUD
[03:03:25.384650] [148] RADIO
[03:03:25.387629] [148] RADIO_STATUS
[03:03:26.424854] [142] VFR_HUD
[03:03:26.451899] [149] RADIO
[03:03:26.455132] [149] RADIO_STATUS
[03:03:27.009006] [143] HEARTBEAT
[03:03:27.455602] [150] RADIO
[03:03:27.457158] [150] RADIO_STATUS
[03:03:28.373790] [151] RADIO
[03:03:28.376114] [151] RADIO_STATUS
[03:03:28.848221] [152] VFR_HUD
[03:03:28.960268] [153] HEARTBEAT
[03:03:29.412418] [152] RADIO
[03:03:29.415305] [152] RADIO_STATUS
[03:03:30.007664] [155] HEARTBEAT
[03:03:30.015453] [156] ATTITUDE_TARGET
[03:03:30.442539] [153] RADIO
[03:03:30.445541] [153] RADIO_STATUS
[03:03:30.480500] [157] VFR_HUD
[03:03:31.019392] [158] HEARTBEAT
[03:03:31.263696] [159] VFR_HUD
[03:03:31.361768] [154] RADIO
[03:03:31.364698] [154] RADIO_STATUS
[03:03:32.401837] [155] RADIO
[03:03:32.404834] [155] RADIO_STATUS
[03:03:33.430977] [156] RADIO
[03:03:33.433962] [156] RADIO_STATUS
[03:03:33.672004] [167] VFR_HUD
[03:03:34.473778] [157] RADIO
[03:03:34.474093] [157] RADIO_STATUS
[03:03:35.052229] [171] HEARTBEAT
[03:03:35.166228] [172] VFR_HUD
[03:03:35.500370] [158] RADIO
[03:03:35.503288] [158] RADIO_STATUS
[03:03:35.978380] [173] HEARTBEAT
[03:03:35.985344] [174] SYS_STATUS
[03:03:36.153677] [177] VFR_HUD
[03:03:36.420572] [159] RADIO
[03:03:36.423494] [159] RADIO_STATUS
[03:03:36.770518] [178] VFR_HUD
[03:03:36.996618] [179] HEARTBEAT
[03:03:37.459704] [160] RADIO
[03:03:37.462632] [160] RADIO_STATUS
[03:03:38.054867] [181] HEARTBEAT
[03:03:38.062827] [182] ATTITUDE_TARGET
[03:03:38.488937] [161] RADIO
[03:03:38.491857] [161] RADIO_STATUS
[03:03:39.195019] [185] VFR_HUD
[03:03:39.639202] [162] RADIO
[03:03:39.642415] [162] RADIO_STATUS
[03:03:40.236277] [189] ATTITUDE_TARGET
[03:03:40.241287] [190] VFR_HUD
[03:03:40.453256] [163] RADIO
[03:03:40.456234] [163] RADIO_STATUS
[03:03:40.804303] [191] VFR_HUD
[03:03:41.477453] [164] RADIO
[03:03:41.480439] [164] RADIO_STATUS
[03:03:42.419923] [196] VFR_HUD
[03:03:42.522680] [165] RADIO
[03:03:42.525659] [165] RADIO_STATUS
[03:03:42.982716] [197] HEARTBEAT
[03:03:43.218779] [198] VFR_HUD
[03:03:43.545856] [166] RADIO
[03:03:43.548814] [166] RADIO_STATUS
[03:03:44.023944] [199] HEARTBEAT
[03:03:44.033430] [200] SYS_STATUS
[03:03:44.188015] [203] VFR_HUD
[03:03:44.466081] [167] RADIO
[03:03:44.469090] [167] RADIO_STATUS
[03:03:44.816041] [204] VFR_HUD
[03:03:45.051140] [205] HEARTBEAT
[03:03:45.510229] [168] RADIO
[03:03:45.513167] [168] RADIO_STATUS
[03:03:45.961345] [207] HEARTBEAT
[03:03:45.984266] [208] ATTITUDE_TARGET
[03:03:46.437333] [209] VFR_HUD
[03:03:46.458341] [169] RADIO
[03:03:46.461338] [169] RADIO_STATUS
[03:03:47.001459] [210] HEARTBEAT
[03:03:47.240476] [211] VFR_HUD
[03:03:47.454503] [170] RADIO
[03:03:47.457460] [170] RADIO_STATUS
[03:03:48.288699] [216] ATTITUDE_TARGET
[03:03:48.293932] [217] VFR_HUD
[03:03:48.297593] [218] SYSTEM_TIME
[03:03:48.604691] [171] RADIO
[03:03:48.607672] [171] RADIO_STATUS
[03:03:48.850703] [219] VFR_HUD
[03:03:48.972784] [220] HEARTBEAT
[03:03:49.526172] [172] RADIO
[03:03:49.527869] [172] RADIO_STATUS
[03:03:49.656957] [221] VFR_HUD
[03:03:50.565107] [224] VFR_HUD
[03:03:50.581125] [173] RADIO
[03:03:50.584040] [173] RADIO_STATUS
[03:03:51.020285] [225] HEARTBEAT
[03:03:51.254295] [226] VFR_HUD
[03:03:51.594266] [174] RADIO
[03:03:51.596294] [174] RADIO_STATUS
[03:03:52.072267] [227] HEARTBEAT
[03:03:52.078305] [228] SYS_STATUS
[03:03:52.513457] [175] RADIO
[03:03:52.516306] [175] RADIO_STATUS
[03:03:52.864616] [232] VFR_HUD
[03:03:52.985820] [233] HEARTBEAT
[03:03:53.559474] [234] VFR_HUD
[03:03:53.592154] [176] RADIO
[03:03:53.592300] [176] RADIO_STATUS
[03:03:54.023560] [235] HEARTBEAT
[03:03:54.030621] [236] ATTITUDE_TARGET
[03:03:54.363713] [237] VFR_HUD
[03:03:54.582725] [177] RADIO
[03:03:54.585788] [177] RADIO_STATUS
[03:03:55.054116] [238] HEARTBEAT
[03:03:55.163772] [239] VFR_HUD
[03:03:55.502874] [178] RADIO
[03:03:55.505814] [178] RADIO_STATUS
[03:03:56.542035] [179] RADIO
[03:03:56.544980] [179] RADIO_STATUS
[03:03:57.572302] [180] RADIO
[03:03:57.575167] [180] RADIO_STATUS
[03:03:57.610286] [247] VFR_HUD
[03:03:58.496455] [181] RADIO
[03:03:58.499365] [181] RADIO_STATUS
[03:03:58.957523] [251] HEARTBEAT
[03:03:59.641693] [182] RADIO
[03:03:59.643530] [182] RADIO_STATUS
[03:04:00.125849] [255] BATTERY_STATUS
[03:04:00.560727] [183] RADIO
[03:04:00.563682] [183] RADIO_STATUS
[03:04:01.031912] [3] HEARTBEAT
[03:04:01.612973] [4] VFR_HUD
[03:04:01.709961] [184] RADIO
[03:04:01.712937] [184] RADIO_STATUS
[03:04:02.070171] [5] HEARTBEAT
[03:04:02.077057] [6] ATTITUDE_TARGET
[03:04:02.410177] [7] VFR_HUD
[03:04:02.519125] [185] RADIO
[03:04:02.522083] [185] RADIO_STATUS
[03:04:03.210215] [9] VFR_HUD
[03:04:03.549267] [186] RADIO
[03:04:03.552281] [186] RADIO_STATUS
[03:04:04.698457] [187] RADIO
[03:04:04.701517] [187] RADIO_STATUS
[03:04:05.044549] [16] HEARTBEAT
[03:04:05.618602] [188] RADIO
[03:04:05.621698] [188] RADIO_STATUS
[03:04:05.656577] [17] VFR_HUD
[03:04:06.097693] [18] HEARTBEAT
[03:04:06.105720] [19] ATTITUDE_TARGET
[03:04:06.537929] [189] RADIO
[03:04:06.540759] [189] RADIO_STATUS
[03:04:07.003903] [21] HEARTBEAT
[03:04:07.243794] [22] VFR_HUD
[03:04:07.687851] [190] RADIO
[03:04:07.690876] [190] RADIO_STATUS
[03:04:08.170936] [25] BATTERY_STATUS
[03:04:08.171895] [26] EXTENDED_SYS_STATE
[03:04:08.609727] [191] RADIO
[03:04:08.610120] [191] RADIO_STATUS
[03:04:08.958078] [30] VFR_HUD
[03:04:08.965032] [31] HEARTBEAT
[03:04:09.659154] [32] VFR_HUD
[03:04:09.675312] [192] RADIO
[03:04:09.678183] [192] RADIO_STATUS
[03:04:10.116317] [33] HEARTBEAT
[03:04:10.124198] [34] ATTITUDE_TARGET
[03:04:10.457308] [35] VFR_HUD
[03:04:10.676467] [193] RADIO
[03:04:10.679322] [193] RADIO_STATUS
[03:04:11.257494] [37] VFR_HUD
[03:04:11.596465] [194] RADIO
[03:04:11.599449] [194] RADIO_STATUS
[03:04:12.745707] [195] RADIO
[03:04:12.750037] [195] RADIO_STATUS
[03:04:12.784745] [43] VFR_HUD
[03:04:12.981739] [44] HEARTBEAT
[03:04:13.665859] [196] RADIO
[03:04:13.668826] [196] RADIO_STATUS
[03:04:13.705784] [45] VFR_HUD
[03:04:14.585046] [197] RADIO
[03:04:14.587964] [197] RADIO_STATUS
[03:04:15.051092] [49] HEARTBEAT
[03:04:15.165115] [50] VFR_HUD
[03:04:15.734222] [198] RADIO
[03:04:15.737397] [198] RADIO_STATUS
[03:04:15.988221] [51] HEARTBEAT
[03:04:15.995295] [52] SYS_STATUS
[03:04:16.034285] [53] BATTERY_STATUS
[03:04:16.042254] [54] ATTITUDE_TARGET
[03:04:16.047177] [55] VFR_HUD
[03:04:16.656352] [199] RADIO
[03:04:16.659269] [199] RADIO_STATUS
[03:04:17.012441] [56] VFR_HUD
[03:04:17.015403] [57] HEARTBEAT
[03:04:17.591783] [58] VFR_HUD
[03:04:17.712543] [200] RADIO
[03:04:17.715484] [200] RADIO_STATUS
[03:04:18.397696] [61] VFR_HUD
[03:04:18.619909] [201] RADIO
[03:04:18.622834] [201] RADIO_STATUS
[03:04:18.975796] [62] HEARTBEAT
[03:04:19.194798] [63] VFR_HUD
[03:04:19.643922] [202] RADIO
[03:04:19.646875] [202] RADIO_STATUS
[03:04:20.794394] [203] RADIO
[03:04:20.797901] [203] RADIO_STATUS
[03:04:20.914106] [69] VFR_HUD
[03:04:21.044120] [70] HEARTBEAT
[03:04:21.604240] [71] VFR_HUD
[03:04:21.631163] [204] RADIO
[03:04:21.634202] [204] RADIO_STATUS
[03:04:21.950318] [72] HEARTBEAT
[03:04:21.972367] [73] ATTITUDE_TARGET
[03:04:22.633340] [205] RADIO
[03:04:22.636312] [205] RADIO_STATUS
[03:04:22.979439] [75] HEARTBEAT
[03:04:23.213535] [76] VFR_HUD
[03:04:23.783514] [206] RADIO
[03:04:23.786476] [206] RADIO_STATUS
[03:04:24.036532] [77] HEARTBEAT
[03:04:24.043503] [78] SYS_STATUS
[03:04:24.082531] [79] BATTERY_STATUS
[03:04:24.090552] [80] ATTITUDE_TARGET
[03:04:24.095579] [81] VFR_HUD
[03:04:24.702768] [207] RADIO
[03:04:24.705656] [207] RADIO_STATUS
[03:04:25.048816] [83] HEARTBEAT
[03:04:25.627833] [208] RADIO
[03:04:25.630851] [208] RADIO_STATUS
[03:04:25.660852] [84] VFR_HUD
[03:04:26.661961] [209] RADIO
[03:04:26.664960] [209] RADIO_STATUS
[03:04:27.248127] [89] VFR_HUD
[03:04:27.691186] [210] RADIO
[03:04:27.694169] [210] RADIO_STATUS
[03:04:28.731348] [211] RADIO
[03:04:28.734304] [211] RADIO_STATUS
[03:04:28.863403] [97] VFR_HUD
[03:04:28.957350] [98] HEARTBEAT
[03:04:29.651815] [99] VFR_HUD
[03:04:29.678647] [212] RADIO
[03:04:29.681456] [212] RADIO_STATUS
[03:04:30.010577] [100] HEARTBEAT
[03:04:30.020449] [101] ATTITUDE_TARGET
[03:04:30.680673] [213] RADIO
[03:04:30.683671] [213] RADIO_STATUS
[03:04:31.026788] [103] HEARTBEAT
[03:04:31.261743] [104] VFR_HUD
[03:04:31.830897] [214] RADIO
[03:04:31.832782] [214] RADIO_STATUS
[03:04:31.951914] [105] HEARTBEAT
[03:04:31.971896] [106] SYS_STATUS
[03:04:32.014889] [107] BATTERY_STATUS
[03:04:32.022921] [108] ATTITUDE_TARGET
[03:04:32.027916] [109] VFR_HUD
[03:04:32.751027] [215] RADIO
[03:04:32.754020] [215] RADIO_STATUS
[03:04:32.997074] [111] HEARTBEAT
[03:04:33.562240] [112] VFR_HUD
[03:04:33.901325] [216] RADIO
[03:04:33.904241] [216] RADIO_STATUS
[03:04:34.377398] [115] VFR_HUD
[03:04:34.711351] [217] RADIO
[03:04:34.713304] [217] RADIO_STATUS
[03:04:35.740564] [218] RADIO
[03:04:35.743516] [218] RADIO_STATUS
[03:04:36.163798] [122] VFR_HUD
[03:04:36.780692] [123] VFR_HUD
[03:04:36.807678] [219] RADIO
[03:04:36.810664] [219] RADIO_STATUS
[03:04:37.006715] [124] HEARTBEAT
[03:04:37.704955] [220] RADIO
[03:04:37.707950] [220] RADIO_STATUS
[03:04:38.059991] [126] HEARTBEAT
[03:04:38.068090] [127] ATTITUDE_TARGET
[03:04:38.730069] [221] RADIO
[03:04:38.733990] [221] RADIO_STATUS
[03:04:38.971213] [129] HEARTBEAT
[03:04:39.200215] [130] VFR_HUD
[03:04:39.879139] [222] RADIO
[03:04:39.882203] [222] RADIO_STATUS
[03:04:40.008245] [131] HEARTBEAT
[03:04:40.014214] [132] SYS_STATUS
[03:04:40.129286] [133] BATTERY_STATUS
[03:04:40.799319] [223] RADIO
[03:04:40.802364] [223] RADIO_STATUS
[03:04:41.040453] [137] HEARTBEAT
[03:04:41.609514] [138] VFR_HUD
[03:04:41.722752] [224] RADIO
[03:04:41.724514] [224] RADIO_STATUS
[03:04:42.424963] [141] VFR_HUD
[03:04:42.762648] [225] RADIO
[03:04:42.765648] [225] RADIO_STATUS
[03:04:42.993737] [142] HEARTBEAT
[03:04:43.787783] [226] RADIO
[03:04:43.790831] [226] RADIO_STATUS
[03:04:44.831975] [227] RADIO
[03:04:44.834920] [227] RADIO_STATUS
[03:04:45.642133] [151] VFR_HUD
[03:04:45.763299] [228] RADIO
[03:04:45.766107] [228] RADIO_STATUS
[03:04:46.111220] [152] HEARTBEAT
[03:04:46.118196] [153] ATTITUDE_TARGET
[03:04:46.448292] [154] VFR_HUD
[03:04:46.776361] [229] RADIO
[03:04:46.779296] [229] RADIO_STATUS
[03:04:47.017426] [155] HEARTBEAT
[03:04:47.246589] [156] VFR_HUD
[03:04:47.925513] [230] RADIO
[03:04:47.928563] [230] RADIO_STATUS
[03:04:48.053558] [157] HEARTBEAT
[03:04:48.060512] [158] SYS_STATUS
[03:04:48.183608] [159] BATTERY_STATUS
[03:04:48.185560] [160] EXTENDED_SYS_STATE
[03:04:48.217600] [161] ATTITUDE_TARGET
[03:04:48.222541] [162] VFR_HUD
[03:04:48.225577] [163] SYSTEM_TIME
[03:04:48.845765] [231] RADIO
[03:04:48.847610] [231] RADIO_STATUS
[03:04:49.764929] [232] RADIO
[03:04:49.768073] [232] RADIO_STATUS
[03:04:50.465092] [169] VFR_HUD
[03:04:50.804839] [233] RADIO
[03:04:50.807025] [233] RADIO_STATUS
[03:04:51.040141] [170] HEARTBEAT
[03:04:51.834310] [234] RADIO
[03:04:51.836442] [234] RADIO_STATUS
[03:04:52.983476] [235] RADIO
[03:04:52.986485] [235] RADIO_STATUS
[03:04:53.792656] [236] RADIO
[03:04:53.795572] [236] RADIO_STATUS
[03:04:54.152711] [180] HEARTBEAT
[03:04:54.165965] [181] ATTITUDE_TARGET
[03:04:54.378690] [182] VFR_HUD
[03:04:54.822857] [237] RADIO
[03:04:54.825846] [237] RADIO_STATUS
[03:04:55.058902] [183] HEARTBEAT
[03:04:55.971995] [238] RADIO
[03:04:55.975047] [238] RADIO_STATUS
[03:04:56.101030] [185] HEARTBEAT
[03:04:56.107062] [186] SYS_STATUS
[03:04:56.227154] [187] BATTERY_STATUS
[03:04:56.459113] [188] ATTITUDE_TARGET
[03:04:56.463063] [189] VFR_HUD
[03:04:56.794130] [190] VFR_HUD
[03:04:56.894130] [239] RADIO
[03:04:56.897114] [239] RADIO_STATUS
[03:04:57.591278] [192] VFR_HUD
[03:04:57.810279] [240] RADIO
[03:04:57.813224] [240] RADIO_STATUS
[03:04:58.391347] [195] VFR_HUD
[03:04:58.850494] [241] RADIO
[03:04:58.853520] [241] RADIO_STATUS
[03:04:58.971463] [196] HEARTBEAT
[03:04:59.879609] [242] RADIO
[03:04:59.882524] [242] RADIO_STATUS
[03:05:00.814777] [203] VFR_HUD
[03:05:00.930769] [243] RADIO
[03:05:00.933798] [243] RADIO_STATUS
[03:05:01.045140] [204] HEARTBEAT
[03:05:01.845606] [244] RADIO
[03:05:01.845747] [244] RADIO_STATUS
[03:05:01.973945] [206] HEARTBEAT
[03:05:01.982004] [207] ATTITUDE_TARGET
[03:05:02.425223] [208] VFR_HUD
[03:05:02.868067] [245] RADIO
[03:05:02.873678] [245] RADIO_STATUS
[03:05:02.984264] [209] HEARTBEAT
[03:05:03.230160] [210] VFR_HUD
[03:05:04.017297] [246] RADIO
[03:05:04.020334] [246] RADIO_STATUS
[03:05:04.154422] [214] ATTITUDE_TARGET
[03:05:04.159328] [215] VFR_HUD
[03:05:04.828372] [216] VFR_HUD
[03:05:04.860491] [247] RADIO
[03:05:04.863458] [247] RADIO_STATUS
[03:05:05.638119] [218] VFR_HUD
[03:05:05.856645] [248] RADIO
[03:05:05.859668] [248] RADIO_STATUS
[03:05:06.438273] [221] VFR_HUD
[03:05:06.901757] [249] RADIO
[03:05:06.904826] [249] RADIO_STATUS
[03:05:07.026830] [222] HEARTBEAT
[03:05:07.926153] [250] RADIO
[03:05:07.928896] [250] RADIO_STATUS
[03:05:07.971986] [224] HEARTBEAT
[03:05:07.978944] [225] SYS_STATUS
[03:05:08.010953] [226] BATTERY_STATUS
[03:05:08.012900] [227] EXTENDED_SYS_STATE
[03:05:08.019994] [228] ATTITUDE_TARGET
[03:05:08.024954] [229] VFR_HUD
[03:05:08.028914] [230] SYSTEM_TIME
[03:05:08.856073] [231] VFR_HUD
[03:05:08.962189] [232] HEARTBEAT
[03:05:09.075114] [251] RADIO
[03:05:09.078112] [251] RADIO_STATUS
[03:05:09.890255] [252] RADIO
[03:05:09.893260] [252] RADIO_STATUS
[03:05:10.020373] [234] HEARTBEAT
[03:05:10.028258] [235] ATTITUDE_TARGET
[03:05:10.466117] [236] VFR_HUD
[03:05:10.914473] [253] RADIO
[03:05:10.917481] [253] RADIO_STATUS
[03:05:11.031481] [237] HEARTBEAT
[03:05:11.160485] [238] VFR_HUD
[03:05:12.063645] [254] RADIO
[03:05:12.066936] [254] RADIO_STATUS
[03:05:12.889756] [255] RADIO
[03:05:12.892716] [255] RADIO_STATUS
[03:05:13.563856] [246] VFR_HUD
[03:05:13.902901] [0] RADIO
[03:05:13.905936] [0] RADIO_STATUS
[03:05:14.948104] [1] RADIO
[03:05:14.951021] [1] RADIO_STATUS
[03:05:15.059173] [250] HEARTBEAT
[03:05:15.972209] [2] RADIO
[03:05:15.975154] [2] RADIO_STATUS
[03:05:16.782713] [1] VFR_HUD
[03:05:16.892610] [3] RADIO
[03:05:16.894463] [3] RADIO_STATUS
[03:05:17.009377] [2] HEARTBEAT
[03:05:17.931556] [4] RADIO
[03:05:17.934585] [4] RADIO_STATUS
[03:05:18.061643] [4] HEARTBEAT
[03:05:18.069834] [5] ATTITUDE_TARGET
[03:05:18.961591] [5] RADIO
[03:05:18.963742] [5] RADIO_STATUS
[03:05:19.078033] [7] HEARTBEAT
[03:05:19.206934] [8] VFR_HUD
[03:05:20.110920] [6] RADIO
[03:05:20.113926] [6] RADIO_STATUS
[03:05:21.030009] [7] RADIO
[03:05:21.032974] [7] RADIO_STATUS
[03:05:21.950223] [8] RADIO
[03:05:21.953200] [8] RADIO_STATUS
[03:05:22.530375] [19] VFR_HUD
[03:05:22.989928] [20] HEARTBEAT
[03:05:23.099341] [9] RADIO
[03:05:23.102425] [9] RADIO_STATUS
[03:05:23.220405] [21] VFR_HUD
[03:05:24.020220] [10] RADIO
[03:05:24.022509] [10] RADIO_STATUS
[03:05:24.829687] [27] VFR_HUD
[03:05:24.938737] [11] RADIO
[03:05:24.941660] [11] RADIO_STATUS
[03:05:24.972716] [28] HEARTBEAT
[03:05:25.988868] [30] HEARTBEAT
[03:05:25.997510] [31] ATTITUDE_TARGET
[03:05:26.088845] [12] RADIO
[03:05:26.092858] [12] RADIO_STATUS
[03:05:26.439100] [32] VFR_HUD
[03:05:27.008023] [13] RADIO
[03:05:27.010998] [13] RADIO_STATUS
[03:05:27.052069] [33] HEARTBEAT
[03:05:27.249106] [34] VFR_HUD
[03:05:28.157281] [14] RADIO
[03:05:28.160183] [14] RADIO_STATUS
[03:05:29.076358] [15] RADIO
[03:05:29.079396] [15] RADIO_STATUS
[03:05:29.552800] [44] VFR_HUD
[03:05:29.996651] [16] RADIO
[03:05:29.999636] [16] RADIO_STATUS
[03:05:30.472677] [47] VFR_HUD
[03:05:31.032838] [48] HEARTBEAT
[03:05:31.145842] [17] RADIO
[03:05:31.148906] [17] RADIO_STATUS
[03:05:31.184777] [49] VFR_HUD
[03:05:32.068485] [18] RADIO
[03:05:32.069158] [18] RADIO_STATUS
[03:05:32.135010] [52] BATTERY_STATUS
[03:05:32.142978] [53] ATTITUDE_TARGET
[03:05:32.148106] [54] VFR_HUD
[03:05:32.985158] [19] RADIO
[03:05:32.988052] [19] RADIO_STATUS
[03:05:33.029134] [55] VFR_HUD
[03:05:33.032168] [56] HEARTBEAT
[03:05:34.035630] [58] HEARTBEAT
[03:05:34.044452] [59] ATTITUDE_TARGET
[03:05:34.135463] [20] RADIO
[03:05:34.138276] [20] RADIO_STATUS
[03:05:34.375347] [60] VFR_HUD
[03:05:35.054807] [21] RADIO
[03:05:35.057643] [21] RADIO_STATUS
[03:05:35.175551] [62] VFR_HUD
[03:05:36.204820] [22] RADIO
[03:05:36.207673] [22] RADIO_STATUS
[03:05:37.020123] [69] HEARTBEAT
[03:05:37.044793] [23] RADIO
[03:05:37.045171] [23] RADIO_STATUS
[03:05:37.599938] [70] VFR_HUD
[03:05:38.043002] [24] RADIO
[03:05:38.045877] [24] RADIO_STATUS
[03:05:38.969155] [74] HEARTBEAT
[03:05:39.088080] [25] RADIO
[03:05:39.091053] [25] RADIO_STATUS
[03:05:39.209184] [75] VFR_HUD
[03:05:40.031271] [26] RADIO
[03:05:40.033228] [26] RADIO_STATUS
[03:05:40.133335] [78] BATTERY_STATUS
[03:05:40.923490] [81] VFR_HUD
[03:05:41.032500] [27] RADIO
[03:05:41.035432] [27] RADIO_STATUS
[03:05:41.158482] [82] HEARTBEAT
[03:05:41.624521] [83] VFR_HUD
[03:05:42.081679] [84] HEARTBEAT
[03:05:42.089740] [85] ATTITUDE_TARGET
[03:05:42.100609] [28] RADIO
[03:05:42.103651] [28] RADIO_STATUS
[03:05:42.422669] [86] VFR_HUD
[03:05:43.101763] [29] RADIO
[03:05:43.104768] [29] RADIO_STATUS
[03:05:43.222869] [88] VFR_HUD
[03:05:44.021055] [30] RADIO
[03:05:44.024048] [30] RADIO_STATUS
[03:05:44.388477] [92] ATTITUDE_TARGET
[03:05:44.393109] [93] VFR_HUD
[03:05:44.843160] [94] VFR_HUD
[03:05:44.952240] [95] HEARTBEAT
[03:05:45.065225] [31] RADIO
[03:05:45.068139] [31] RADIO_STATUS
[03:05:45.640235] [96] VFR_HUD
[03:05:46.089335] [32] RADIO
[03:05:46.092386] [32] RADIO_STATUS
[03:05:47.015601] [100] HEARTBEAT
[03:05:47.134612] [33] RADIO
[03:05:47.137497] [33] RADIO_STATUS
[03:05:47.261575] [101] VFR_HUD
[03:05:48.158737] [34] RADIO
[03:05:48.161705] [34] RADIO_STATUS
[03:05:48.199755] [104] BATTERY_STATUS
[03:05:48.231044] [105] EXTENDED_SYS_STATE
[03:05:48.237797] [106] ATTITUDE_TARGET
[03:05:48.242774] [107] VFR_HUD
[03:05:48.246673] [108] SYSTEM_TIME
[03:05:48.974943] [109] VFR_HUD
[03:05:48.977842] [110] HEARTBEAT
[03:05:49.078901] [35] RADIO
[03:05:49.081946] [35] RADIO_STATUS
[03:05:49.659053] [111] VFR_HUD
[03:05:50.117087] [36] RADIO
[03:05:50.120163] [36] RADIO_STATUS
[03:05:50.364128] [114] VFR_HUD
[03:05:51.147185] [37] RADIO
[03:05:51.150160] [37] RADIO_STATUS
[03:05:51.268210] [116] VFR_HUD
[03:05:52.066340] [38] RADIO
[03:05:52.069317] [38] RADIO_STATUS
[03:05:53.216811] [39] RADIO
[03:05:53.219672] [39] RADIO_STATUS
[03:05:53.566577] [124] VFR_HUD
[03:05:54.135667] [40] RADIO
[03:05:54.138717] [40] RADIO_STATUS
[03:05:54.953032] [128] HEARTBEAT
[03:05:55.055818] [41] RADIO
[03:05:55.058835] [41] RADIO_STATUS
[03:05:55.175862] [129] VFR_HUD
[03:05:55.999055] [130] HEARTBEAT
[03:05:56.006094] [131] SYS_STATUS
[03:05:56.045011] [132] BATTERY_STATUS
[03:05:56.053045] [133] ATTITUDE_TARGET
[03:05:56.058007] [134] VFR_HUD
[03:05:56.096505] [42] RADIO
[03:05:56.098031] [42] RADIO_STATUS
[03:05:57.021219] [135] VFR_HUD
[03:05:57.024203] [136] HEARTBEAT
[03:05:57.125186] [43] RADIO
[03:05:57.128114] [43] RADIO_STATUS
[03:05:58.164384] [44] RADIO
[03:05:58.167628] [44] RADIO_STATUS
[03:05:58.395558] [140] VFR_HUD
[03:05:59.194643] [45] RADIO
[03:05:59.196627] [45] RADIO_STATUS
[03:05:59.233865] [142] VFR_HUD
[03:06:00.113665] [46] RADIO
[03:06:00.116639] [46] RADIO_STATUS
[03:06:01.049948] [148] VFR_HUD
[03:06:01.052846] [149] HEARTBEAT
[03:06:01.169852] [47] RADIO
[03:06:01.171903] [47] RADIO_STATUS
[03:06:01.613992] [150] VFR_HUD
[03:06:01.973042] [151] HEARTBEAT
[03:06:01.981037] [152] ATTITUDE_TARGET
[03:06:02.101008] [48] RADIO
[03:06:02.104432] [48] RADIO_STATUS
[03:06:02.998131] [154] HEARTBEAT
[03:06:03.104937] [49] RADIO
[03:06:03.106078] [49] RADIO_STATUS
[03:06:04.041762] [156] HEARTBEAT
[03:06:04.047424] [157] SYS_STATUS
[03:06:04.215724] [160] VFR_HUD
[03:06:04.231291] [50] RADIO
[03:06:04.234342] [50] RADIO_STATUS
[03:06:04.948776] [162] HEARTBEAT
[03:06:05.172557] [51] RADIO
[03:06:05.174704] [51] RADIO_STATUS
[03:06:06.211712] [52] RADIO
[03:06:06.214667] [52] RADIO_STATUS
[03:06:07.240948] [53] RADIO
[03:06:07.243993] [53] RADIO_STATUS
[03:06:07.279896] [168] VFR_HUD
[03:06:08.161068] [54] RADIO
[03:06:08.163093] [54] RADIO_STATUS
[03:06:09.205358] [55] RADIO
[03:06:09.208252] [55] RADIO_STATUS
[03:06:09.551286] [178] VFR_HUD
[03:06:10.020427] [179] HEARTBEAT
[03:06:10.027432] [180] ATTITUDE_TARGET
[03:06:10.147407] [56] RADIO
[03:06:10.150368] [56] RADIO_STATUS
[03:06:11.045640] [182] HEARTBEAT
[03:06:11.149612] [57] RADIO
[03:06:11.152638] [57] RADIO_STATUS
[03:06:11.955768] [184] HEARTBEAT
[03:06:11.975842] [185] SYS_STATUS
[03:06:12.089780] [186] BATTERY_STATUS
[03:06:12.299878] [58] RADIO
[03:06:12.301867] [58] RADIO_STATUS
[03:06:13.001049] [190] HEARTBEAT
[03:06:13.218974] [59] RADIO
[03:06:13.222084] [59] RADIO_STATUS
[03:06:13.570217] [191] VFR_HUD
[03:06:14.264399] [60] RADIO
[03:06:14.267274] [60] RADIO_STATUS
[03:06:14.384287] [194] VFR_HUD
[03:06:14.944513] [195] HEARTBEAT
[03:06:15.288421] [61] RADIO
[03:06:15.291444] [61] RADIO_STATUS
[03:06:16.208604] [62] RADIO
[03:06:16.211796] [62] RADIO_STATUS
[03:06:17.357818] [63] RADIO
[03:06:17.360846] [63] RADIO_STATUS
[03:06:17.605897] [204] VFR_HUD
[03:06:18.073086] [205] HEARTBEAT
[03:06:18.080900] [206] ATTITUDE_TARGET
[03:06:18.277977] [64] RADIO
[03:06:18.280971] [64] RADIO_STATUS
[03:06:18.979101] [208] HEARTBEAT
[03:06:19.197059] [65] RADIO
[03:06:19.200053] [65] RADIO_STATUS
[03:06:19.318083] [209] VFR_HUD
[03:06:20.015176] [210] HEARTBEAT
[03:06:20.022257] [211] SYS_STATUS
[03:06:20.142516] [212] BATTERY_STATUS
[03:06:20.264252] [66] RADIO
[03:06:20.267241] [66] RADIO_STATUS
[03:06:20.373517] [213] ATTITUDE_TARGET
[03:06:20.378222] [214] VFR_HUD
[03:06:21.048446] [216] HEARTBEAT
[03:06:21.266394] [67] RADIO
[03:06:21.269303] [67] RADIO_STATUS
[03:06:21.617523] [217] VFR_HUD
[03:06:22.185567] [68] RADIO
[03:06:22.188591] [68] RADIO_STATUS
[03:06:22.426691] [220] VFR_HUD
[03:06:23.001807] [221] HEARTBEAT
[03:06:23.340195] [69] RADIO
[03:06:23.340366] [69] RADIO_STATUS
[03:06:24.218000] [227] VFR_HUD
[03:06:24.234978] [70] RADIO
[03:06:24.236935] [70] RADIO_STATUS
[03:06:24.836438] [228] VFR_HUD
[03:06:24.951258] [229] HEARTBEAT
[03:06:25.295097] [71] RADIO
[03:06:25.298104] [71] RADIO_STATUS
[03:06:25.651178] [230] VFR_HUD
[03:06:26.114312] [231] HEARTBEAT
[03:06:26.122302] [232] ATTITUDE_TARGET
[03:06:26.324328] [72] RADIO
[03:06:26.327252] [72] RADIO_STATUS
[03:06:27.020453] [234] HEARTBEAT
[03:06:27.244433] [73] RADIO
[03:06:27.247570] [73] RADIO_STATUS
[03:06:27.282426] [235] VFR_HUD
[03:06:28.062592] [236] HEARTBEAT
[03:06:28.068606] [237] SYS_STATUS
[03:06:28.191547] [238] BATTERY_STATUS
[03:06:28.193572] [239] EXTENDED_SYS_STATE
[03:06:28.225605] [240] ATTITUDE_TARGET
[03:06:28.230611] [241] VFR_HUD
[03:06:28.233719] [242] SYSTEM_TIME
[03:06:28.283620] [74] RADIO
[03:06:28.286579] [74] RADIO_STATUS
[03:06:29.313683] [75] RADIO
[03:06:29.317391] [75] RADIO_STATUS
[03:06:30.353932] [248] VFR_HUD
[03:06:30.381331] [76] RADIO
[03:06:30.383890] [76] RADIO_STATUS
[03:06:31.049114] [249] HEARTBEAT
[03:06:31.383078] [77] RADIO
[03:06:31.386154] [77] RADIO_STATUS
[03:06:32.092184] [253] BATTERY_STATUS
[03:06:32.302323] [78] RADIO
[03:06:32.305809] [78] RADIO_STATUS
[03:06:32.778421] [0] VFR_HUD
[03:06:32.998428] [1] HEARTBEAT
[03:06:33.347350] [79] RADIO
[03:06:33.350577] [79] RADIO_STATUS
[03:06:34.161837] [3] HEARTBEAT
[03:06:34.169541] [4] ATTITUDE_TARGET
[03:06:34.371793] [80] RADIO
[03:06:34.374589] [80] RADIO_STATUS
[03:06:34.421576] [5] VFR_HUD
[03:06:34.947694] [6] HEARTBEAT
[03:06:35.297812] [81] RADIO
[03:06:35.297967] [81] RADIO_STATUS
[03:06:36.441074] [82] RADIO
[03:06:36.443912] [82] RADIO_STATUS
[03:06:36.510021] [10] BATTERY_STATUS
[03:06:36.517966] [11] ATTITUDE_TARGET
[03:06:36.525144] [12] VFR_HUD
[03:06:36.802951] [13] VFR_HUD
[03:06:37.361070] [83] RADIO
[03:06:37.363977] [83] RADIO_STATUS
[03:06:37.602151] [15] VFR_HUD
[03:06:38.281177] [84] RADIO
[03:06:38.284195] [84] RADIO_STATUS
[03:06:38.401241] [18] VFR_HUD
[03:06:38.982340] [19] HEARTBEAT
[03:06:39.430397] [85] RADIO
[03:06:39.433285] [85] RADIO_STATUS
[03:06:40.145528] [23] BATTERY_STATUS
[03:06:40.350617] [86] RADIO
[03:06:40.353510] [86] RADIO_STATUS
[03:06:40.820638] [26] VFR_HUD
[03:06:41.051622] [27] HEARTBEAT
[03:06:41.394725] [87] RADIO
[03:06:41.397653] [87] RADIO_STATUS
[03:06:41.984806] [29] HEARTBEAT
[03:06:41.992775] [30] ATTITUDE_TARGET
[03:06:42.309992] [88] RADIO
[03:06:42.313787] [88] RADIO_STATUS
[03:06:42.441794] [31] VFR_HUD
[03:06:42.995995] [32] HEARTBEAT
[03:06:43.240984] [33] VFR_HUD
[03:06:43.337949] [89] RADIO
[03:06:43.341084] [89] RADIO_STATUS
[03:06:44.378160] [90] RADIO
[03:06:44.381151] [90] RADIO_STATUS
[03:06:45.298368] [91] RADIO
[03:06:45.301291] [91] RADIO_STATUS
[03:06:45.653959] [41] VFR_HUD
[03:06:46.327518] [92] RADIO
[03:06:46.330501] [92] RADIO_STATUS
[03:06:46.447647] [44] VFR_HUD
[03:06:47.022813] [45] HEARTBEAT
[03:06:47.476751] [93] RADIO
[03:06:47.479702] [93] RADIO_STATUS
[03:06:47.942886] [47] HEARTBEAT
[03:06:47.962884] [48] SYS_STATUS
[03:06:48.000836] [49] BATTERY_STATUS
[03:06:48.002773] [50] EXTENDED_SYS_STATE
[03:06:48.010845] [51] ATTITUDE_TARGET
[03:06:48.016704] [52] VFR_HUD
[03:06:48.020334] [53] SYSTEM_TIME
[03:06:48.395905] [94] RADIO
[03:06:48.398906] [94] RADIO_STATUS
[03:06:48.867041] [54] VFR_HUD
[03:06:48.972080] [55] HEARTBEAT
[03:06:49.316065] [95] RADIO
[03:06:49.319077] [95] RADIO_STATUS
[03:06:50.025265] [57] HEARTBEAT
[03:06:50.033982] [58] ATTITUDE_TARGET
[03:06:50.356228] [59] VFR_HUD
[03:06:50.383201] [96] RADIO
[03:06:50.386166] [96] RADIO_STATUS
[03:06:51.041352] [60] HEARTBEAT
[03:06:51.171349] [61] VFR_HUD
[03:06:51.385399] [97] RADIO
[03:06:51.388358] [97] RADIO_STATUS
[03:06:52.212589] [65] ATTITUDE_TARGET
[03:06:52.216478] [66] VFR_HUD
[03:06:52.424560] [98] RADIO
[03:06:52.427539] [98] RADIO_STATUS
[03:06:53.349726] [99] RADIO
[03:06:53.352689] [99] RADIO_STATUS
[03:06:53.574769] [69] VFR_HUD
[03:06:54.373881] [100] RADIO
[03:06:54.376852] [100] RADIO_STATUS
[03:06:54.949980] [73] HEARTBEAT
[03:06:55.523018] [101] RADIO
[03:06:55.526055] [101] RADIO_STATUS
[03:06:56.001145] [75] HEARTBEAT
[03:06:56.008125] [76] SYS_STATUS
[03:06:56.176249] [79] VFR_HUD
[03:06:56.442208] [102] RADIO
[03:06:56.445128] [102] RADIO_STATUS
[03:06:56.793280] [80] VFR_HUD
[03:06:57.020105] [81] HEARTBEAT
[03:06:57.367344] [103] RADIO
[03:06:57.372419] [103] RADIO_STATUS
[03:06:57.943525] [83] HEARTBEAT
[03:06:57.966404] [84] ATTITUDE_TARGET
[03:06:58.511596] [104] RADIO
[03:06:58.514526] [104] RADIO_STATUS
[03:06:58.982650] [86] HEARTBEAT
[03:06:59.212674] [87] VFR_HUD
[03:06:59.431759] [105] RADIO
[03:06:59.434687] [105] RADIO_STATUS
[03:07:00.258863] [91] ATTITUDE_TARGET
[03:07:00.263842] [92] VFR_HUD
[03:07:00.503919] [106] RADIO
[03:07:00.506841] [106] RADIO_STATUS
[03:07:00.822179] [93] VFR_HUD
[03:07:01.396041] [107] RADIO
[03:07:01.399008] [107] RADIO_STATUS
[03:07:01.621106] [95] VFR_HUD
[03:07:02.420299] [108] RADIO
[03:07:02.423233] [108] RADIO_STATUS
[03:07:02.459270] [98] VFR_HUD
[03:07:03.006366] [99] HEARTBEAT
[03:07:03.244063] [100] VFR_HUD
[03:07:03.569534] [109] RADIO
[03:07:03.572652] [109] RADIO_STATUS
[03:07:04.052520] [101] HEARTBEAT
[03:07:04.059516] [102] SYS_STATUS
[03:07:04.098529] [103] BATTERY_STATUS
[03:07:04.106860] [104] ATTITUDE_TARGET
[03:07:04.111480] [105] VFR_HUD
[03:07:04.490595] [110] RADIO
[03:07:04.493551] [110] RADIO_STATUS
[03:07:04.843074] [106] VFR_HUD
[03:07:04.961658] [107] HEARTBEAT
[03:07:05.409713] [111] RADIO
[03:07:05.412664] [111] RADIO_STATUS
[03:07:05.999858] [109] HEARTBEAT
[03:07:06.007818] [110] ATTITUDE_TARGET
[03:07:06.559927] [112] RADIO
[03:07:06.562946] [112] RADIO_STATUS
[03:07:07.031206] [112] HEARTBEAT
[03:07:07.260142] [113] VFR_HUD
[03:07:07.479196] [113] RADIO
[03:07:07.482414] [113] RADIO_STATUS
[03:07:08.525125] [114] RADIO
[03:07:08.527204] [114] RADIO_STATUS
[03:07:08.869420] [121] VFR_HUD
[03:07:08.984388] [122] HEARTBEAT
[03:07:09.439410] [115] RADIO
[03:07:09.442364] [115] RADIO_STATUS
[03:07:09.564369] [123] VFR_HUD
[03:07:10.467553] [116] RADIO
[03:07:10.470490] [116] RADIO_STATUS
[03:07:11.053691] [127] HEARTBEAT
[03:07:11.173694] [128] VFR_HUD
[03:07:11.617759] [117] RADIO
[03:07:11.620710] [117] RADIO_STATUS
[03:07:12.096933] [131] BATTERY_STATUS
[03:07:12.536971] [118] RADIO
[03:07:12.539913] [118] RADIO_STATUS
[03:07:12.888005] [134] VFR_HUD
[03:07:13.003017] [135] HEARTBEAT
[03:07:13.588152] [136] VFR_HUD
[03:07:13.686263] [119] RADIO
[03:07:13.688237] [119] RADIO_STATUS
[03:07:14.046222] [137] HEARTBEAT
[03:07:14.053226] [138] ATTITUDE_TARGET
[03:07:14.386277] [139] VFR_HUD
[03:07:14.495345] [120] RADIO
[03:07:14.498426] [120] RADIO_STATUS
[03:07:15.186508] [141] VFR_HUD
[03:07:15.525514] [121] RADIO
[03:07:15.528464] [121] RADIO_STATUS
[03:07:16.674676] [122] RADIO
[03:07:16.677658] [122] RADIO_STATUS
[03:07:17.030971] [148] HEARTBEAT
[03:07:17.484804] [123] RADIO
[03:07:17.487831] [123] RADIO_STATUS
[03:07:17.604923] [149] VFR_HUD
[03:07:18.513966] [124] RADIO
[03:07:18.517015] [124] RADIO_STATUS
[03:07:18.980306] [153] HEARTBEAT
[03:07:19.215119] [154] VFR_HUD
[03:07:19.664195] [125] RADIO
[03:07:19.667142] [125] RADIO_STATUS
[03:07:20.143290] [157] BATTERY_STATUS
[03:07:20.506371] [126] RADIO
[03:07:20.509315] [126] RADIO_STATUS
[03:07:20.934047] [160] VFR_HUD
[03:07:20.946431] [161] HEARTBEAT
[03:07:21.502677] [127] RADIO
[03:07:21.505525] [127] RADIO_STATUS
[03:07:21.634501] [162] VFR_HUD
[03:07:22.437768] [165] VFR_HUD
[03:07:22.557666] [128] RADIO
[03:07:22.561053] [128] RADIO_STATUS
[03:07:23.231773] [167] VFR_HUD
[03:07:23.570872] [129] RADIO
[03:07:23.573849] [129] RADIO_STATUS
[03:07:24.720960] [130] RADIO
[03:07:24.723951] [130] RADIO_STATUS
[03:07:25.535092] [131] RADIO
[03:07:25.538080] [131] RADIO_STATUS
[03:07:25.651134] [175] VFR_HUD
[03:07:26.560260] [132] RADIO
[03:07:26.565126] [132] RADIO_STATUS
[03:07:27.031520] [179] HEARTBEAT
[03:07:27.709427] [133] RADIO
[03:07:27.712415] [133] RADIO_STATUS
[03:07:27.963683] [181] HEARTBEAT
[03:07:27.969530] [182] SYS_STATUS
[03:07:28.004554] [183] BATTERY_STATUS
[03:07:28.005490] [184] EXTENDED_SYS_STATE
[03:07:28.013520] [185] ATTITUDE_TARGET
[03:07:28.019335] [186] VFR_HUD
[03:07:28.022591] [187] SYSTEM_TIME
[03:07:28.629648] [134] RADIO
[03:07:28.632822] [134] RADIO_STATUS
[03:07:28.975800] [189] HEARTBEAT
[03:07:29.549743] [135] RADIO
[03:07:29.551701] [135] RADIO_STATUS
[03:07:29.598803] [190] VFR_HUD
[03:07:30.698987] [136] RADIO
[03:07:30.701963] [136] RADIO_STATUS
[03:07:31.279050] [195] VFR_HUD
[03:07:31.618135] [137] RADIO
[03:07:31.621084] [137] RADIO_STATUS
[03:07:32.768401] [138] RADIO
[03:07:32.770322] [138] RADIO_STATUS
[03:07:32.900370] [201] VFR_HUD
[03:07:33.012428] [202] HEARTBEAT
[03:07:33.577527] [203] VFR_HUD
[03:07:33.609535] [139] RADIO
[03:07:33.612610] [139] RADIO_STATUS
[03:07:34.171631] [204] HEARTBEAT
[03:07:34.179594] [205] ATTITUDE_TARGET
[03:07:34.606728] [140] RADIO
[03:07:34.609701] [140] RADIO_STATUS
[03:07:34.961752] [207] HEARTBEAT
[03:07:35.186752] [208] VFR_HUD
[03:07:35.755847] [141] RADIO
[03:07:35.758799] [141] RADIO_STATUS
[03:07:36.004101] [209] HEARTBEAT
[03:07:36.010904] [210] SYS_STATUS
[03:07:36.167938] [213] VFR_HUD
[03:07:36.675002] [142] RADIO
[03:07:36.677952] [142] RADIO_STATUS
[03:07:37.022147] [215] HEARTBEAT
[03:07:37.595171] [143] RADIO
[03:07:37.598145] [143] RADIO_STATUS
[03:07:37.716186] [216] VFR_HUD
[03:07:38.074270] [218] ATTITUDE_TARGET
[03:07:38.417272] [219] VFR_HUD
[03:07:38.635463] [144] RADIO
[03:07:38.638358] [144] RADIO_STATUS
[03:07:39.220778] [221] VFR_HUD
[03:07:39.664584] [145] RADIO
[03:07:39.667476] [145] RADIO_STATUS
[03:07:40.704729] [146] RADIO
[03:07:40.707679] [146] RADIO_STATUS
[03:07:40.934738] [227] VFR_HUD
[03:07:40.951681] [228] HEARTBEAT
[03:07:41.624893] [229] VFR_HUD
[03:07:41.651865] [147] RADIO
[03:07:41.654857] [147] RADIO_STATUS
[03:07:41.988973] [230] HEARTBEAT
[03:07:41.996936] [231] ATTITUDE_TARGET
[03:07:42.654021] [148] RADIO
[03:07:42.657019] [148] RADIO_STATUS
[03:07:43.001797] [233] HEARTBEAT
[03:07:43.234085] [234] VFR_HUD
[03:07:43.803330] [149] RADIO
[03:07:43.806257] [149] RADIO_STATUS
[03:07:44.051252] [235] HEARTBEAT
[03:07:44.058258] [236] SYS_STATUS
[03:07:44.722335] [150] RADIO
[03:07:44.725291] [150] RADIO_STATUS
[03:07:44.964418] [241] HEARTBEAT
[03:07:45.642505] [151] RADIO
[03:07:45.645491] [151] RADIO_STATUS
[03:07:46.452678] [245] VFR_HUD
[03:07:46.791733] [152] RADIO
[03:07:46.794702] [152] RADIO_STATUS
[03:07:47.711831] [153] RADIO
[03:07:47.713770] [153] RADIO_STATUS
[03:07:48.752249] [255] VFR_HUD
[03:07:48.779101] [154] RADIO
[03:07:48.781994] [154] RADIO_STATUS
[03:07:48.986082] [0] HEARTBEAT
[03:07:49.566175] [1] VFR_HUD
[03:07:49.682210] [155] RADIO
[03:07:49.685179] [155] RADIO_STATUS
[03:07:50.035232] [2] HEARTBEAT
[03:07:50.043255] [3] ATTITUDE_TARGET
[03:07:50.372275] [4] VFR_HUD
[03:07:50.699496] [156] RADIO
[03:07:50.702448] [156] RADIO_STATUS
[03:07:51.175420] [6] VFR_HUD
[03:07:51.848577] [157] RADIO
[03:07:51.851520] [157] RADIO_STATUS
[03:07:51.976570] [7] HEARTBEAT
[03:07:51.983546] [8] SYS_STATUS
[03:07:52.103834] [9] BATTERY_STATUS
[03:07:52.334626] [10] ATTITUDE_TARGET
[03:07:52.339650] [11] VFR_HUD
[03:07:52.767718] [158] RADIO
[03:07:52.771333] [158] RADIO_STATUS
[03:07:53.018853] [13] HEARTBEAT
[03:07:53.687979] [159] RADIO
[03:07:53.691065] [159] RADIO_STATUS
[03:07:54.387970] [17] VFR_HUD
[03:07:54.733037] [160] RADIO
[03:07:54.736131] [160] RADIO_STATUS
[03:07:54.954107] [18] HEARTBEAT
[03:07:55.757212] [161] RADIO
[03:07:55.760206] [161] RADIO_STATUS
[03:07:56.005301] [20] HEARTBEAT
[03:07:56.012270] [21] SYS_STATUS
[03:07:56.168404] [24] VFR_HUD
[03:07:56.676427] [162] RADIO
[03:07:56.679409] [162] RADIO_STATUS
[03:07:57.033694] [26] HEARTBEAT
[03:07:57.716529] [27] VFR_HUD
[03:07:57.732523] [163] RADIO
[03:07:57.735501] [163] RADIO_STATUS
[03:07:58.074649] [29] ATTITUDE_TARGET
[03:07:58.404665] [30] VFR_HUD
[03:07:58.744741] [164] RADIO
[03:07:58.747655] [164] RADIO_STATUS
[03:07:58.980750] [31] HEARTBEAT
[03:07:59.219855] [32] VFR_HUD
[03:07:59.893894] [165] RADIO
[03:07:59.896835] [165] RADIO_STATUS
[03:08:00.022040] [33] HEARTBEAT
[03:08:00.029023] [34] SYS_STATUS
[03:08:00.143978] [35] BATTERY_STATUS
[03:08:00.709089] [166] RADIO
[03:08:00.712165] [166] RADIO_STATUS
[03:08:01.635274] [40] VFR_HUD
[03:08:01.732282] [167] RADIO
[03:08:01.735220] [167] RADIO_STATUS
[03:08:02.433375] [43] VFR_HUD
[03:08:02.777461] [168] RADIO
[03:08:02.780418] [168] RADIO_STATUS
[03:08:02.998467] [44] HEARTBEAT
[03:08:03.802553] [169] RADIO
[03:08:03.805562] [169] RADIO_STATUS
[03:08:04.721924] [170] RADIO
[03:08:04.724819] [170] RADIO_STATUS
[03:08:04.760837] [51] VFR_HUD
[03:08:04.957765] [52] HEARTBEAT
[03:08:05.653963] [53] VFR_HUD
[03:08:05.761944] [171] RADIO
[03:08:05.764864] [171] RADIO_STATUS
[03:08:06.121159] [54] HEARTBEAT
[03:08:06.128993] [55] ATTITUDE_TARGET
[03:08:06.452058] [56] VFR_HUD
[03:08:06.791076] [172] RADIO
[03:08:06.794040] [172] RADIO_STATUS
[03:08:07.027247] [57] HEARTBEAT
[03:08:07.261182] [58] VFR_HUD
[03:08:07.941542] [173] RADIO
[03:08:07.943299] [173] RADIO_STATUS
[03:08:08.083378] [63] ATTITUDE_TARGET
[03:08:08.088720] [64] VFR_HUD
[03:08:08.092331] [65] SYSTEM_TIME
[03:08:08.751512] [66] VFR_HUD
[03:08:08.777526] [174] RADIO
[03:08:08.780483] [174] RADIO_STATUS
[03:08:09.565617] [68] VFR_HUD
[03:08:09.779591] [175] RADIO
[03:08:09.782606] [175] RADIO_STATUS
[03:08:10.360754] [71] VFR_HUD
[03:08:10.819899] [176] RADIO
[03:08:10.822848] [176] RADIO_STATUS
[03:08:10.941040] [72] HEARTBEAT
[03:08:11.851926] [177] RADIO
[03:08:11.854938] [177] RADIO_STATUS
[03:08:12.769035] [178] RADIO
[03:08:12.772063] [178] RADIO_STATUS
[03:08:12.889058] [79] VFR_HUD
[03:08:13.010310] [80] HEARTBEAT
[03:08:13.808253] [179] RADIO
[03:08:13.811887] [179] RADIO_STATUS
[03:08:14.173316] [82] HEARTBEAT
[03:08:14.180256] [83] ATTITUDE_TARGET
[03:08:14.388316] [84] VFR_HUD
[03:08:14.838367] [180] RADIO
[03:08:14.840365] [180] RADIO_STATUS
[03:08:14.954684] [85] HEARTBEAT
[03:08:15.188545] [86] VFR_HUD
[03:08:15.986631] [181] RADIO
[03:08:15.989604] [181] RADIO_STATUS
[03:08:16.123679] [90] ATTITUDE_TARGET
[03:08:16.128580] [91] VFR_HUD
[03:08:16.808741] [92] VFR_HUD
[03:08:16.905758] [182] RADIO
[03:08:16.908816] [182] RADIO_STATUS
[03:08:17.610855] [94] VFR_HUD
[03:08:17.824867] [183] RADIO
[03:08:17.827802] [183] RADIO_STATUS
[03:08:18.406039] [97] VFR_HUD
