[02:19:12.315706] [211] BATTERY_STATUS
[02:19:12.437685] [68] RADIO
[02:19:12.440664] [68] RADIO_STATUS
[02:19:12.546729] [212] ATTITUDE_TARGET
[02:19:12.551663] [213] VFR_HUD
[02:19:12.990737] [214] VFR_HUD
[02:19:13.105758] [215] HEARTBEAT
[02:19:13.441783] [69] RADIO
[02:19:13.442077] [69] RADIO_STATUS
[02:19:14.149012] [217] HEARTBEAT
[02:19:14.157062] [218] ATTITUDE_TARGET
[02:19:14.589047] [70] RADIO
[02:19:14.591974] [70] RADIO_STATUS
[02:19:14.709082] [219] VFR_HUD
[02:19:14.770313] JAMMING_START
[02:19:15.174185] [220] HEARTBEAT
[02:19:15.289092] [221] VFR_HUD
[02:19:15.398102] [71] RADIO
[02:19:15.401135] [71] RADIO_STATUS
[02:19:16.427282] [72] RADIO
[02:19:16.430488] [72] RADIO_STATUS
[02:19:17.007540] [227] VFR_HUD
[02:19:17.123371] [228] HEARTBEAT
[02:19:17.576491] [73] RADIO
[02:19:17.579452] [73] RADIO_STATUS
[02:19:17.708470] [229] VFR_HUD
[02:19:18.285735] [230] HEARTBEAT
[02:19:18.292570] [231] ATTITUDE_TARGET
[02:19:18.495633] [74] RADIO
[02:19:18.498721] [74] RADIO_STATUS
[02:19:18.545784] [232] VFR_HUD
[02:19:19.191716] [233] HEARTBEAT
[02:19:19.305904] [234] VFR_HUD
[02:19:19.414765] [75] RADIO
[02:19:19.417700] [75] RADIO_STATUS
[02:19:20.459906] [76] RADIO
[02:19:20.462909] [76] RADIO_STATUS
[02:19:21.484158] [77] RADIO
[02:19:21.487073] [77] RADIO_STATUS
[02:19:21.724191] [242] VFR_HUD
[02:19:22.193196] [243] HEARTBEAT
[02:19:22.201227] [244] ATTITUDE_TARGET
[02:19:22.633242] [78] RADIO
[02:19:22.636400] [78] RADIO_STATUS
[02:19:23.104378] [246] HEARTBEAT
[02:19:23.333369] [247] VFR_HUD
[02:19:23.448495] [79] RADIO
[02:19:23.450398] [79] RADIO_STATUS
[02:19:24.471622] [80] RADIO
[02:19:24.474585] [80] RADIO_STATUS
[02:19:24.526538] [251] ATTITUDE_TARGET
[02:19:24.531522] [252] VFR_HUD
[02:19:24.942652] [253] VFR_HUD
[02:19:25.172770] [254] HEARTBEAT
[02:19:25.517012] [81] RADIO
[02:19:25.519795] [81] RADIO_STATUS
[02:19:25.741791] [255] VFR_HUD
[02:19:26.539913] [82] RADIO
[02:19:26.542915] [82] RADIO_STATUS
[02:19:26.589894] [2] VFR_HUD
[02:19:27.459027] [83] RADIO
[02:19:27.462062] [83] RADIO_STATUS
[02:19:28.609224] [84] RADIO
[02:19:28.612219] [84] RADIO_STATUS
[02:19:28.959282] [12] VFR_HUD
[02:19:29.184480] [13] HEARTBEAT
[02:19:29.528308] [85] RADIO
[02:19:29.531396] [85] RADIO_STATUS
[02:19:29.773378] [14] VFR_HUD
[02:19:30.242578] [15] HEARTBEAT
[02:19:30.250710] [16] ATTITUDE_TARGET
[02:19:30.677507] [86] RADIO
[02:19:30.680472] [86] RADIO_STATUS
[02:19:31.148662] [18] HEARTBEAT
[02:19:31.377645] [19] VFR_HUD
[02:19:31.486601] [87] RADIO
[02:19:31.489645] [87] RADIO_STATUS
[02:19:32.515744] [88] RADIO
[02:19:32.519087] [88] RADIO_STATUS
[02:19:32.987083] [25] VFR_HUD
[02:19:33.101864] [26] HEARTBEAT
[02:19:33.554847] [89] RADIO
[02:19:33.557850] [89] RADIO_STATUS
[02:19:33.785948] [27] VFR_HUD
[02:19:34.585074] [90] RADIO
[02:19:34.587089] [90] RADIO_STATUS
[02:19:34.705103] [30] VFR_HUD
[02:19:35.290276] [32] VFR_HUD
[02:19:35.504226] [91] RADIO
[02:19:35.507174] [91] RADIO_STATUS
[02:19:36.213402] [35] BATTERY_STATUS
[02:19:36.543389] [92] RADIO
[02:19:36.546325] [92] RADIO_STATUS
[02:19:37.003461] [38] VFR_HUD
[02:19:37.118481] [39] HEARTBEAT
[02:19:37.571516] [93] RADIO
[02:19:37.574460] [93] RADIO_STATUS
[02:19:37.704506] [40] VFR_HUD
[02:19:38.280587] [41] HEARTBEAT
[02:19:38.288586] [42] ATTITUDE_TARGET
[02:19:38.507641] [43] VFR_HUD
[02:19:38.720704] [94] RADIO
[02:19:38.723651] [94] RADIO_STATUS
[02:19:39.186735] [44] HEARTBEAT
[02:19:39.301808] [45] VFR_HUD
[02:19:39.640777] [95] RADIO
[02:19:39.643686] [95] RADIO_STATUS
[02:19:40.117852] [46] HEARTBEAT
[02:19:40.124819] [47] SYS_STATUS
[02:19:40.559874] [96] RADIO
[02:19:40.562806] [96] RADIO_STATUS
[02:19:41.136309] [52] HEARTBEAT
[02:19:41.709039] [97] RADIO
[02:19:41.712067] [97] RADIO_STATUS
[02:19:42.628179] [98] RADIO
[02:19:42.631105] [98] RADIO_STATUS
[02:19:43.099326] [57] HEARTBEAT
[02:19:43.339274] [58] VFR_HUD
[02:19:43.547309] [99] RADIO
[02:19:43.550296] [99] RADIO_STATUS
[02:19:44.586504] [100] RADIO
[02:19:44.589417] [100] RADIO_STATUS
[02:19:45.162558] [65] HEARTBEAT
[02:19:45.615588] [101] RADIO
[02:19:45.618576] [101] RADIO_STATUS
[02:19:46.535883] [102] RADIO
[02:19:46.538734] [102] RADIO_STATUS
[02:19:46.573765] [69] VFR_HUD
[02:19:47.356912] [71] VFR_HUD
[02:19:47.580084] [103] RADIO
[02:19:47.582979] [103] RADIO_STATUS
[02:19:48.168137] [72] HEARTBEAT
[02:19:48.174046] [73] SYS_STATUS
[02:19:48.209022] [74] BATTERY_STATUS
[02:19:48.209994] [75] EXTENDED_SYS_STATE
[02:19:48.218054] [76] ATTITUDE_TARGET
[02:19:48.223037] [77] VFR_HUD
[02:19:48.226994] [78] SYSTEM_TIME
[02:19:48.604568] [104] RADIO
[02:19:48.609762] [104] RADIO_STATUS
[02:19:49.753403] [105] RADIO
[02:19:49.756220] [105] RADIO_STATUS
[02:19:49.873269] [81] VFR_HUD
[02:19:50.672472] [106] RADIO
[02:19:50.675415] [106] RADIO_STATUS
[02:19:51.153549] [85] HEARTBEAT
[02:19:51.372507] [86] VFR_HUD
[02:19:51.591522] [107] RADIO
[02:19:51.594460] [107] RADIO_STATUS
[02:19:52.740692] [108] RADIO
[02:19:52.743662] [108] RADIO_STATUS
[02:19:53.088895] [93] HEARTBEAT
[02:19:53.659786] [109] RADIO
[02:19:53.662734] [109] RADIO_STATUS
[02:19:54.578967] [110] RADIO
[02:19:54.582071] [110] RADIO_STATUS
[02:19:55.389093] [99] VFR_HUD
[02:19:55.619097] [111] RADIO
[02:19:55.622036] [111] RADIO_STATUS
[02:19:56.213183] [102] BATTERY_STATUS
[02:19:56.648235] [112] RADIO
[02:19:56.651186] [112] RADIO_STATUS
[02:19:56.888302] [105] VFR_HUD
[02:19:57.114339] [106] HEARTBEAT
[02:19:57.688394] [107] VFR_HUD
[02:19:57.720399] [113] RADIO
[02:19:57.723341] [113] RADIO_STATUS
[02:19:58.497550] [110] VFR_HUD
[02:19:58.716568] [114] RADIO
[02:19:58.719519] [114] RADIO_STATUS
[02:19:59.182857] [111] HEARTBEAT
[02:19:59.635823] [115] RADIO
[02:19:59.638756] [115] RADIO_STATUS
[02:20:00.113964] [113] HEARTBEAT
[02:20:00.120792] [114] SYS_STATUS
[02:20:00.288855] [117] VFR_HUD
[02:20:00.674819] [116] RADIO
[02:20:00.677837] [116] RADIO_STATUS
[02:20:01.130992] [119] HEARTBEAT
[02:20:01.704020] [117] RADIO
[02:20:01.706979] [117] RADIO_STATUS
[02:20:01.836223] [120] VFR_HUD
[02:20:02.623229] [118] RADIO
[02:20:02.626184] [118] RADIO_STATUS
[02:20:03.088412] [124] HEARTBEAT
[02:20:03.432352] [125] VFR_HUD
[02:20:03.661391] [119] RADIO
[02:20:03.664444] [119] RADIO_STATUS
[02:20:04.250750] [128] BATTERY_STATUS
[02:20:04.690575] [120] RADIO
[02:20:04.693502] [120] RADIO_STATUS
[02:20:04.937145] [131] VFR_HUD
[02:20:05.164644] [132] HEARTBEAT
[02:20:05.608780] [121] RADIO
[02:20:05.611720] [121] RADIO_STATUS
[02:20:06.757884] [122] RADIO
[02:20:06.760893] [122] RADIO_STATUS
[02:20:07.104002] [137] HEARTBEAT
[02:20:07.678053] [123] RADIO
[02:20:07.679992] [123] RADIO_STATUS
[02:20:08.155156] [139] HEARTBEAT
[02:20:08.162108] [140] SYS_STATUS
[02:20:08.717150] [124] RADIO
[02:20:08.720163] [124] RADIO_STATUS
[02:20:09.746400] [125] RADIO
[02:20:09.749505] [125] RADIO_STATUS
[02:20:10.556504] [151] VFR_HUD
[02:20:10.665645] [126] RADIO
[02:20:10.668481] [126] RADIO_STATUS
[02:20:11.136563] [152] HEARTBEAT
[02:20:11.709626] [127] RADIO
[02:20:11.712562] [127] RADIO_STATUS
[02:20:12.293768] [156] BATTERY_STATUS
[02:20:12.656781] [128] RADIO
[02:20:12.659840] [128] RADIO_STATUS
[02:20:12.985870] [159] VFR_HUD
[02:20:13.652956] [129] RADIO
[02:20:13.655928] [129] RADIO_STATUS
[02:20:13.702971] [161] VFR_HUD
[02:20:14.588186] [164] VFR_HUD
[02:20:14.802160] [130] RADIO
[02:20:14.805174] [130] RADIO_STATUS
[02:20:15.148201] [165] HEARTBEAT
[02:20:15.721277] [131] RADIO
[02:20:15.724248] [131] RADIO_STATUS
[02:20:16.205935] [167] HEARTBEAT
[02:20:16.211376] [168] SYS_STATUS
[02:20:16.251411] [169] BATTERY_STATUS
[02:20:16.259455] [170] ATTITUDE_TARGET
[02:20:16.264384] [171] VFR_HUD
[02:20:16.870484] [132] RADIO
[02:20:16.873854] [132] RADIO_STATUS
[02:20:17.790662] [133] RADIO
[02:20:17.793554] [133] RADIO_STATUS
[02:20:18.490769] [177] VFR_HUD
[02:20:18.709740] [134] RADIO
[02:20:18.712710] [134] RADIO_STATUS
[02:20:19.180868] [178] HEARTBEAT
[02:20:19.754023] [135] RADIO
[02:20:19.756955] [135] RADIO_STATUS
[02:20:20.778099] [136] RADIO
[02:20:20.781077] [136] RADIO_STATUS
[02:20:20.899147] [185] VFR_HUD
[02:20:21.697260] [137] RADIO
[02:20:21.700228] [137] RADIO_STATUS
[02:20:22.847462] [138] RADIO
[02:20:22.850470] [138] RADIO_STATUS
[02:20:23.083578] [191] HEARTBEAT
[02:20:23.766615] [139] RADIO
[02:20:23.769567] [139] RADIO_STATUS
[02:20:24.245723] [195] BATTERY_STATUS
[02:20:24.805772] [140] RADIO
[02:20:24.808983] [140] RADIO_STATUS
[02:20:24.931785] [198] VFR_HUD
[02:20:25.160807] [199] HEARTBEAT
[02:20:25.834867] [141] RADIO
[02:20:25.837888] [141] RADIO_STATUS
[02:20:26.085111] [201] HEARTBEAT
[02:20:26.112009] [202] ATTITUDE_TARGET
[02:20:26.534985] [203] VFR_HUD
[02:20:26.755267] [142] RADIO
[02:20:26.758003] [142] RADIO_STATUS
[02:20:27.110090] [204] HEARTBEAT
[02:20:27.794159] [143] RADIO
[02:20:27.797173] [143] RADIO_STATUS
[02:20:28.823389] [144] RADIO
[02:20:28.826345] [144] RADIO_STATUS
[02:20:28.943442] [213] VFR_HUD
[02:20:29.741499] [145] RADIO
[02:20:29.744464] [145] RADIO_STATUS
[02:20:29.862495] [215] VFR_HUD
[02:20:30.220641] [216] HEARTBEAT
[02:20:30.228603] [217] ATTITUDE_TARGET
[02:20:30.563643] [218] VFR_HUD
[02:20:30.890710] [146] RADIO
[02:20:30.893681] [146] RADIO_STATUS
[02:20:31.126784] [219] HEARTBEAT
[02:20:31.360788] [220] VFR_HUD
[02:20:31.809947] [147] RADIO
[02:20:31.812813] [147] RADIO_STATUS
[02:20:32.290013] [223] BATTERY_STATUS
[02:20:32.849067] [148] RADIO
[02:20:32.852028] [148] RADIO_STATUS
[02:20:32.975148] [226] VFR_HUD
[02:20:33.879342] [149] RADIO
[02:20:33.882294] [149] RADIO_STATUS
[02:20:34.134367] [229] HEARTBEAT
[02:20:34.141300] [230] ATTITUDE_TARGET
[02:20:34.584443] [231] VFR_HUD
[02:20:34.798415] [150] RADIO
[02:20:34.801468] [150] RADIO_STATUS
[02:20:35.144500] [232] HEARTBEAT
[02:20:35.947604] [151] RADIO
[02:20:35.950593] [151] RADIO_STATUS
[02:20:36.866755] [152] RADIO
[02:20:36.869684] [152] RADIO_STATUS
[02:20:38.015923] [153] RADIO
[02:20:38.019034] [153] RADIO_STATUS
[02:20:38.935118] [154] RADIO
[02:20:38.938067] [154] RADIO_STATUS
[02:20:39.176127] [245] HEARTBEAT
[02:20:39.854247] [155] RADIO
[02:20:39.857195] [155] RADIO_STATUS
[02:20:40.902481] [156] RADIO
[02:20:40.905456] [156] RADIO_STATUS
[02:20:41.709595] [254] VFR_HUD
[02:20:41.922555] [157] RADIO
[02:20:41.925626] [157] RADIO_STATUS
[02:20:42.177818] [255] HEARTBEAT
[02:20:42.185904] [0] ATTITUDE_TARGET
[02:20:42.842654] [158] RADIO
[02:20:42.845669] [158] RADIO_STATUS
[02:20:43.087767] [2] HEARTBEAT
[02:20:43.317766] [3] VFR_HUD
[02:20:43.991927] [159] RADIO
[02:20:43.994845] [159] RADIO_STATUS
[02:20:44.910998] [160] RADIO
[02:20:44.913950] [160] RADIO_STATUS
[02:20:45.042990] [9] VFR_HUD
[02:20:45.156048] [10] HEARTBEAT
[02:20:45.954414] [161] RADIO
[02:20:45.957144] [161] RADIO_STATUS
[02:20:46.541618] [14] VFR_HUD
[02:20:46.978336] [162] RADIO
[02:20:46.981348] [162] RADIO_STATUS
[02:20:47.104418] [15] HEARTBEAT
[02:20:47.340516] [16] VFR_HUD
[02:20:47.897559] [163] RADIO
[02:20:47.900544] [163] RADIO_STATUS
[02:20:48.937735] [24] VFR_HUD
[02:20:48.970740] [164] RADIO
[02:20:48.973988] [164] RADIO_STATUS
[02:20:49.758882] [26] VFR_HUD
[02:20:49.966906] [165] RADIO
[02:20:49.969843] [165] RADIO_STATUS
[02:20:50.215920] [27] HEARTBEAT
[02:20:50.223892] [28] ATTITUDE_TARGET
[02:20:50.557970] [29] VFR_HUD
[02:20:50.886043] [166] RADIO
[02:20:50.889032] [166] RADIO_STATUS
[02:20:51.122068] [30] HEARTBEAT
[02:20:51.362092] [31] VFR_HUD
[02:20:51.931344] [167] RADIO
[02:20:51.934188] [167] RADIO_STATUS
[02:20:52.955464] [168] RADIO
[02:20:52.958289] [168] RADIO_STATUS
[02:20:52.993369] [37] VFR_HUD
[02:20:53.086395] [38] HEARTBEAT
[02:20:54.103536] [169] RADIO
[02:20:54.106477] [169] RADIO_STATUS
[02:20:54.353768] [40] HEARTBEAT
[02:20:54.360563] [41] ATTITUDE_TARGET
[02:20:54.683571] [42] VFR_HUD
[02:20:55.022651] [170] RADIO
[02:20:55.025646] [170] RADIO_STATUS
[02:20:55.138722] [43] HEARTBEAT
[02:20:55.372642] [44] VFR_HUD
[02:20:55.944746] [171] RADIO
[02:20:55.947746] [171] RADIO_STATUS
[02:20:56.352840] [49] VFR_HUD
[02:20:57.008910] [172] RADIO
[02:20:57.011874] [172] RADIO_STATUS
[02:20:57.102962] [51] HEARTBEAT
[02:20:57.803126] [52] VFR_HUD
[02:20:58.010129] [173] RADIO
[02:20:58.013191] [173] RADIO_STATUS
[02:20:58.260264] [53] HEARTBEAT
[02:20:58.267174] [54] ATTITUDE_TARGET
[02:20:58.486263] [55] VFR_HUD
[02:20:58.930288] [174] RADIO
[02:20:58.933320] [174] RADIO_STATUS
[02:20:59.180315] [56] HEARTBEAT
[02:20:59.969559] [175] RADIO
[02:20:59.972441] [175] RADIO_STATUS
[02:21:00.999644] [176] RADIO
[02:21:01.002610] [176] RADIO_STATUS
[02:21:01.704726] [65] VFR_HUD
[02:21:02.038764] [177] RADIO
[02:21:02.042022] [177] RADIO_STATUS
[02:21:02.173825] [66] HEARTBEAT
[02:21:02.181795] [67] ATTITUDE_TARGET
[02:21:03.067941] [178] RADIO
[02:21:03.070942] [178] RADIO_STATUS
[02:21:03.111958] [69] HEARTBEAT
[02:21:03.309008] [70] VFR_HUD
[02:21:03.987063] [179] RADIO
[02:21:03.990019] [179] RADIO_STATUS
[02:21:04.918268] [76] VFR_HUD
[02:21:05.136239] [180] RADIO
[02:21:05.139330] [180] RADIO_STATUS
[02:21:05.170327] [77] HEARTBEAT
[02:21:05.717368] [78] VFR_HUD
[02:21:06.055399] [181] RADIO
[02:21:06.058374] [181] RADIO_STATUS
[02:21:06.310513] [79] HEARTBEAT
[02:21:06.317496] [80] ATTITUDE_TARGET
[02:21:06.974607] [182] RADIO
[02:21:06.977554] [182] RADIO_STATUS
[02:21:08.019805] [183] RADIO
[02:21:08.022810] [183] RADIO_STATUS
[02:21:08.933941] [91] VFR_HUD
[02:21:08.966886] [184] RADIO
[02:21:08.970108] [184] RADIO_STATUS
[02:21:09.160001] [92] HEARTBEAT
[02:21:09.749046] [93] VFR_HUD
[02:21:10.193060] [185] RADIO
[02:21:10.196064] [185] RADIO_STATUS
[02:21:11.112190] [186] RADIO
[02:21:11.115214] [186] RADIO_STATUS
[02:21:11.228291] [97] HEARTBEAT
[02:21:11.357694] [98] VFR_HUD
[02:21:12.030357] [187] RADIO
[02:21:12.033327] [187] RADIO_STATUS
[02:21:12.965528] [104] VFR_HUD
[02:21:13.077532] [105] HEARTBEAT
[02:21:13.179603] [188] RADIO
[02:21:13.182497] [188] RADIO_STATUS
[02:21:13.760667] [106] VFR_HUD
[02:21:14.098663] [189] RADIO
[02:21:14.101985] [189] RADIO_STATUS
[02:21:14.353792] [107] HEARTBEAT
[02:21:14.361713] [108] ATTITUDE_TARGET
[02:21:14.580769] [109] VFR_HUD
[02:21:15.018992] [190] RADIO
[02:21:15.021793] [190] RADIO_STATUS
[02:21:15.380032] [111] VFR_HUD
[02:21:16.062048] [191] RADIO
[02:21:16.065046] [191] RADIO_STATUS
[02:21:16.977321] [117] VFR_HUD
[02:21:17.086205] [192] RADIO
[02:21:17.089174] [192] RADIO_STATUS
[02:21:17.120195] [118] HEARTBEAT
[02:21:17.786332] [119] VFR_HUD
[02:21:18.153415] [193] RADIO
[02:21:18.156603] [193] RADIO_STATUS
[02:21:18.254639] [120] HEARTBEAT
[02:21:18.262499] [121] ATTITUDE_TARGET
[02:21:18.484148] [122] VFR_HUD
[02:21:19.154607] [194] RADIO
[02:21:19.157577] [194] RADIO_STATUS
[02:21:19.270602] [123] HEARTBEAT
[02:21:19.293594] [124] VFR_HUD
[02:21:20.073737] [195] RADIO
[02:21:20.076646] [195] RADIO_STATUS
[02:21:20.159762] [128] ATTITUDE_TARGET
[02:21:20.164692] [129] VFR_HUD
[02:21:21.108915] [131] HEARTBEAT
[02:21:21.140858] [196] RADIO
[02:21:21.143820] [196] RADIO_STATUS
[02:21:21.697930] [132] VFR_HUD
[02:21:22.142003] [197] RADIO
[02:21:22.144988] [197] RADIO_STATUS
[02:21:23.061161] [198] RADIO
[02:21:23.064200] [198] RADIO_STATUS
[02:21:23.095229] [136] HEARTBEAT
[02:21:23.313218] [137] VFR_HUD
[02:21:24.210344] [199] RADIO
[02:21:24.213342] [199] RADIO_STATUS
[02:21:25.129545] [200] RADIO
[02:21:25.132498] [200] RADIO_STATUS
[02:21:25.174546] [143] VFR_HUD
[02:21:25.177569] [144] HEARTBEAT
[02:21:26.052566] [201] RADIO
[02:21:26.055568] [201] RADIO_STATUS
[02:21:26.531799] [148] VFR_HUD
[02:21:27.198901] [202] RADIO
[02:21:27.201814] [202] RADIO_STATUS
[02:21:28.118000] [203] RADIO
[02:21:28.120947] [203] RADIO_STATUS
[02:21:28.182034] [151] HEARTBEAT
[02:21:28.188994] [152] SYS_STATUS
[02:21:28.197162] [153] BATTERY_STATUS
[02:21:28.197956] [154] EXTENDED_SYS_STATE
[02:21:28.215015] [155] ATTITUDE_TARGET
[02:21:28.220002] [156] VFR_HUD
[02:21:28.222938] [157] SYSTEM_TIME
[02:21:29.154178] [159] HEARTBEAT
[02:21:29.268449] [204] RADIO
[02:21:29.271134] [204] RADIO_STATUS
[02:21:29.743289] [160] VFR_HUD
[02:21:30.187340] [205] RADIO
[02:21:30.190343] [205] RADIO_STATUS
[02:21:31.107506] [206] RADIO
[02:21:31.109500] [206] RADIO_STATUS
[02:21:31.457657] [165] VFR_HUD
[02:21:32.255694] [207] RADIO
[02:21:32.258656] [207] RADIO_STATUS
[02:21:33.104919] [172] HEARTBEAT
[02:21:33.118104] [208] RADIO
[02:21:33.120910] [208] RADIO_STATUS
[02:21:33.756904] [173] VFR_HUD
[02:21:34.096005] [209] RADIO
[02:21:34.098960] [209] RADIO_STATUS
[02:21:34.350051] [174] HEARTBEAT
[02:21:34.358048] [175] ATTITUDE_TARGET
[02:21:34.578180] [176] VFR_HUD
[02:21:35.245150] [210] RADIO
[02:21:35.247187] [210] RADIO_STATUS
[02:21:35.294198] [178] VFR_HUD
[02:21:36.164361] [211] RADIO
[02:21:36.167330] [211] RADIO_STATUS
[02:21:37.089622] [185] HEARTBEAT
[02:21:37.313553] [212] RADIO
[02:21:37.316495] [212] RADIO_STATUS
[02:21:37.783645] [186] VFR_HUD
[02:21:38.232669] [213] RADIO
[02:21:38.236061] [213] RADIO_STATUS
[02:21:38.478686] [189] VFR_HUD
[02:21:39.151792] [214] RADIO
[02:21:39.154867] [214] RADIO_STATUS
[02:21:40.094948] [192] HEARTBEAT
[02:21:40.101933] [193] SYS_STATUS
[02:21:40.140948] [194] BATTERY_STATUS
[02:21:40.149066] [195] ATTITUDE_TARGET
[02:21:40.153970] [196] VFR_HUD
[02:21:40.196046] [215] RADIO
[02:21:40.198928] [215] RADIO_STATUS
[02:21:41.221563] [216] RADIO
[02:21:41.223039] [216] RADIO_STATUS
[02:21:41.346140] [197] VFR_HUD
[02:21:41.349098] [198] HEARTBEAT
[02:21:41.690241] [199] VFR_HUD
[02:21:42.139337] [217] RADIO
[02:21:42.141212] [217] RADIO_STATUS
[02:21:42.388362] [200] HEARTBEAT
[02:21:42.396351] [201] ATTITUDE_TARGET
[02:21:42.489486] [202] VFR_HUD
[02:21:43.069509] [203] HEARTBEAT
[02:21:43.288553] [218] RADIO
[02:21:43.291584] [218] RADIO_STATUS
[02:21:43.408471] [204] VFR_HUD
[02:21:44.207631] [219] RADIO
[02:21:44.210649] [219] RADIO_STATUS
[02:21:44.248721] [207] BATTERY_STATUS
[02:21:44.275662] [208] ATTITUDE_TARGET
[02:21:44.279907] [209] VFR_HUD
[02:21:44.907830] [210] VFR_HUD
[02:21:45.132819] [220] RADIO
[02:21:45.134797] [220] RADIO_STATUS
[02:21:45.170878] [211] HEARTBEAT
[02:21:46.276007] [221] RADIO
[02:21:46.278999] [221] RADIO_STATUS
[02:21:46.522096] [215] VFR_HUD
[02:21:47.091168] [216] HEARTBEAT
[02:21:47.195146] [222] RADIO
[02:21:47.198129] [222] RADIO_STATUS
[02:21:48.138431] [218] HEARTBEAT
[02:21:48.145312] [219] SYS_STATUS
[02:21:48.179316] [220] BATTERY_STATUS
[02:21:48.181319] [221] EXTENDED_SYS_STATE
[02:21:48.189358] [222] ATTITUDE_TARGET
[02:21:48.194320] [223] VFR_HUD
[02:21:48.197304] [224] SYSTEM_TIME
[02:21:48.240454] [223] RADIO
[02:21:48.243327] [223] RADIO_STATUS
[02:21:49.150570] [226] HEARTBEAT
[02:21:49.264484] [224] RADIO
[02:21:49.267485] [224] RADIO_STATUS
[02:21:49.739701] [227] VFR_HUD
[02:21:50.183688] [225] RADIO
[02:21:50.186620] [225] RADIO_STATUS
[02:21:50.229719] [229] ATTITUDE_TARGET
[02:21:51.114893] [231] HEARTBEAT
[02:21:51.332853] [226] RADIO
[02:21:51.335873] [226] RADIO_STATUS
[02:21:52.251996] [227] RADIO
[02:21:52.255100] [227] RADIO_STATUS
[02:21:52.322056] [235] BATTERY_STATUS
[02:21:52.330030] [236] ATTITUDE_TARGET
[02:21:52.334087] [237] VFR_HUD
[02:21:53.178250] [228] RADIO
[02:21:53.181143] [228] RADIO_STATUS
[02:21:53.754283] [240] VFR_HUD
[02:21:54.322397] [229] RADIO
[02:21:54.325335] [229] RADIO_STATUS
[02:21:54.563422] [243] VFR_HUD
[02:21:55.138542] [244] HEARTBEAT
[02:21:55.242819] [230] RADIO
[02:21:55.245558] [230] RADIO_STATUS
[02:21:55.292556] [245] VFR_HUD
[02:21:56.179702] [246] HEARTBEAT
[02:21:56.186704] [247] SYS_STATUS
[02:21:56.354790] [250] VFR_HUD
[02:21:56.390746] [231] RADIO
[02:21:56.393678] [231] RADIO_STATUS
[02:21:57.086903] [252] HEARTBEAT
[02:21:57.309954] [232] RADIO
[02:21:57.312946] [232] RADIO_STATUS
[02:21:57.785923] [253] VFR_HUD
[02:21:58.228999] [233] RADIO
[02:21:58.232016] [233] RADIO_STATUS
[02:21:58.591109] [0] VFR_HUD
[02:21:59.155181] [1] HEARTBEAT
[02:21:59.378182] [234] RADIO
[02:21:59.381325] [234] RADIO_STATUS
[02:22:00.277387] [235] RADIO
[02:22:00.279401] [235] RADIO_STATUS
[02:22:00.889440] [8] VFR_HUD
[02:22:01.336529] [236] RADIO
[02:22:01.339481] [236] RADIO_STATUS
[02:22:01.686582] [10] VFR_HUD
[02:22:02.365690] [237] RADIO
[02:22:02.368655] [237] RADIO_STATUS
[02:22:02.485740] [13] VFR_HUD
[02:22:03.066815] [14] HEARTBEAT
[02:22:03.284810] [238] RADIO
[02:22:03.287761] [238] RADIO_STATUS
[02:22:04.224141] [18] BATTERY_STATUS
[02:22:04.433981] [239] RADIO
[02:22:04.436971] [239] RADIO_STATUS
[02:22:04.910064] [21] VFR_HUD
[02:22:05.130129] [22] HEARTBEAT
[02:22:05.353110] [240] RADIO
[02:22:05.356109] [240] RADIO_STATUS
[02:22:06.273265] [241] RADIO
[02:22:06.276248] [241] RADIO_STATUS
[02:22:06.518380] [26] VFR_HUD
[02:22:07.425803] [242] RADIO
[02:22:07.425971] [242] RADIO_STATUS
[02:22:08.341694] [243] RADIO
[02:22:08.344622] [243] RADIO_STATUS
[02:22:08.921773] [36] VFR_HUD
[02:22:09.385856] [244] RADIO
[02:22:09.388916] [244] RADIO_STATUS
[02:22:10.068786] [39] HEARTBEAT
[02:22:10.410032] [245] RADIO
[02:22:10.412966] [245] RADIO_STATUS
[02:22:11.111207] [42] HEARTBEAT
[02:22:11.329186] [246] RADIO
[02:22:11.332188] [246] RADIO_STATUS
[02:22:12.274318] [46] BATTERY_STATUS
[02:22:12.425326] [247] RADIO
[02:22:12.428304] [247] RADIO_STATUS
[02:22:12.949492] [49] VFR_HUD
[02:22:13.179451] [50] HEARTBEAT
[02:22:13.288497] [248] RADIO
[02:22:13.290452] [248] RADIO_STATUS
[02:22:14.112628] [52] HEARTBEAT
[02:22:14.120584] [53] ATTITUDE_TARGET
[02:22:14.317621] [249] RADIO
[02:22:14.320614] [249] RADIO_STATUS
[02:22:14.557719] [54] VFR_HUD
[02:22:15.132801] [55] HEARTBEAT
[02:22:15.466778] [250] RADIO
[02:22:15.469769] [250] RADIO_STATUS
[02:22:16.385928] [251] RADIO
[02:22:16.388915] [251] RADIO_STATUS
[02:22:17.305182] [252] RADIO
[02:22:17.308054] [252] RADIO_STATUS
[02:22:17.885236] [64] VFR_HUD
[02:22:18.454328] [253] RADIO
[02:22:18.457270] [253] RADIO_STATUS
[02:22:18.585355] [67] VFR_HUD
[02:22:19.149567] [68] HEARTBEAT
[02:22:19.372545] [254] RADIO
[02:22:19.375553] [254] RADIO_STATUS
[02:22:20.317637] [72] BATTERY_STATUS
[02:22:20.440719] [255] RADIO
[02:22:20.443675] [255] RADIO_STATUS
[02:22:20.884925] [75] VFR_HUD
[02:22:21.330740] [0] RADIO
[02:22:21.333736] [0] RADIO_STATUS
[02:22:21.681894] [77] VFR_HUD
[02:22:22.150963] [78] HEARTBEAT
[02:22:22.158890] [79] ATTITUDE_TARGET
[02:22:22.360018] [1] RADIO
[02:22:22.362968] [1] RADIO_STATUS
[02:22:22.480918] [80] VFR_HUD
[02:22:23.166041] [81] HEARTBEAT
[02:22:23.510688] [2] RADIO
[02:22:23.513945] [2] RADIO_STATUS
[02:22:24.429226] [3] RADIO
[02:22:24.432184] [3] RADIO_STATUS
[02:22:24.483306] [86] ATTITUDE_TARGET
[02:22:24.488387] [87] VFR_HUD
[02:22:24.904319] [88] VFR_HUD
[02:22:25.125342] [89] HEARTBEAT
[02:22:25.348492] [4] RADIO
[02:22:25.351425] [4] RADIO_STATUS
[02:22:26.497610] [5] RADIO
[02:22:26.500549] [5] RADIO_STATUS
[02:22:26.547606] [93] VFR_HUD
[02:22:27.083717] [94] HEARTBEAT
[02:22:27.319770] [95] VFR_HUD
[02:22:27.417772] [6] RADIO
[02:22:27.420697] [6] RADIO_STATUS
[02:22:28.456926] [7] RADIO
[02:22:28.459869] [7] RADIO_STATUS
[02:22:28.917063] [103] VFR_HUD
[02:22:29.376126] [8] RADIO
[02:22:29.379114] [8] RADIO_STATUS
[02:22:29.738170] [105] VFR_HUD
[02:22:30.195238] [106] HEARTBEAT
[02:22:30.203255] [107] ATTITUDE_TARGET
[02:22:30.405274] [9] RADIO
[02:22:30.408257] [9] RADIO_STATUS
[02:22:31.117176] [109] HEARTBEAT
[02:22:31.335423] [110] VFR_HUD
[02:22:31.554752] [10] RADIO
[02:22:31.557412] [10] RADIO_STATUS
[02:22:32.420687] [11] RADIO
[02:22:32.423570] [11] RADIO_STATUS
[02:22:32.944726] [116] VFR_HUD
[02:22:33.175688] [117] HEARTBEAT
[02:22:33.393742] [12] RADIO
[02:22:33.396715] [12] RADIO_STATUS
[02:22:34.107868] [119] HEARTBEAT
[02:22:34.115826] [120] ATTITUDE_TARGET
[02:22:34.542873] [13] RADIO
[02:22:34.545861] [13] RADIO_STATUS
[02:22:34.580842] [121] VFR_HUD
[02:22:35.118965] [122] HEARTBEAT
[02:22:35.352949] [123] VFR_HUD
[02:22:35.384935] [14] RADIO
[02:22:35.387926] [14] RADIO_STATUS
[02:22:36.381083] [15] RADIO
[02:22:36.384122] [15] RADIO_STATUS
[02:22:37.092312] [129] VFR_HUD
[02:22:37.095509] [130] HEARTBEAT
[02:22:37.426326] [16] RADIO
[02:22:37.429827] [16] RADIO_STATUS
[02:22:38.244576] [132] HEARTBEAT
[02:22:38.252622] [133] ATTITUDE_TARGET
[02:22:38.450849] [17] RADIO
[02:22:38.453461] [17] RADIO_STATUS
[02:22:38.570516] [134] VFR_HUD
[02:22:39.151829] [135] HEARTBEAT
[02:22:39.380647] [136] VFR_HUD
[02:22:39.599703] [18] RADIO
[02:22:39.602678] [18] RADIO_STATUS
[02:22:40.518844] [19] RADIO
[02:22:40.521813] [19] RADIO_STATUS
[02:22:40.868918] [142] VFR_HUD
[02:22:41.094992] [143] HEARTBEAT
[02:22:41.438124] [20] RADIO
[02:22:41.440948] [20] RADIO_STATUS
[02:22:41.684540] [144] VFR_HUD
[02:22:42.148177] [145] HEARTBEAT
[02:22:42.155265] [146] ATTITUDE_TARGET
[02:22:42.587257] [21] RADIO
[02:22:42.590204] [21] RADIO_STATUS
[02:22:43.163356] [148] HEARTBEAT
[02:22:43.292295] [149] VFR_HUD
[02:22:43.506324] [22] RADIO
[02:22:43.509296] [22] RADIO_STATUS
[02:22:44.426482] [23] RADIO
[02:22:44.428400] [23] RADIO_STATUS
[02:22:44.480474] [153] ATTITUDE_TARGET
[02:22:44.485532] [154] VFR_HUD
[02:22:44.901539] [155] VFR_HUD
[02:22:45.121583] [156] HEARTBEAT
[02:22:45.574655] [24] RADIO
[02:22:45.577723] [24] RADIO_STATUS
[02:22:46.493809] [25] RADIO
[02:22:46.496715] [25] RADIO_STATUS
[02:22:47.304157] [162] VFR_HUD
[02:22:47.642986] [26] RADIO
[02:22:47.645935] [26] RADIO_STATUS
[02:22:48.121011] [163] HEARTBEAT
[02:22:48.128052] [164] SYS_STATUS
[02:22:48.453045] [27] RADIO
[02:22:48.456054] [27] RADIO_STATUS
[02:22:49.139249] [171] HEARTBEAT
[02:22:49.482255] [28] RADIO
[02:22:49.485198] [28] RADIO_STATUS
[02:22:49.722234] [172] VFR_HUD
[02:22:50.191441] [173] HEARTBEAT
[02:22:50.199361] [174] ATTITUDE_TARGET
[02:22:50.631510] [29] RADIO
[02:22:50.634466] [29] RADIO_STATUS
[02:22:51.097661] [176] HEARTBEAT
[02:22:51.331526] [177] VFR_HUD
[02:22:51.440517] [30] RADIO
[02:22:51.443546] [30] RADIO_STATUS
[02:22:52.260732] [180] BATTERY_STATUS
[02:22:52.470759] [31] RADIO
[02:22:52.472724] [31] RADIO_STATUS
[02:22:53.165887] [184] HEARTBEAT
[02:22:53.509905] [32] RADIO
[02:22:53.512872] [32] RADIO_STATUS
[02:22:53.739968] [185] VFR_HUD
[02:22:54.539193] [33] RADIO
[02:22:54.542045] [33] RADIO_STATUS
[02:22:54.589130] [188] VFR_HUD
[02:22:55.458248] [34] RADIO
[02:22:55.461288] [34] RADIO_STATUS
[02:22:56.608370] [35] RADIO
[02:22:56.611347] [35] RADIO_STATUS
[02:22:56.677458] [193] BATTERY_STATUS
[02:22:56.685416] [194] ATTITUDE_TARGET
[02:22:56.690516] [195] VFR_HUD
[02:22:57.081568] [197] HEARTBEAT
[02:22:57.529558] [36] RADIO
[02:22:57.532570] [36] RADIO_STATUS
[02:22:57.770639] [198] VFR_HUD
[02:22:58.243717] [199] HEARTBEAT
[02:22:58.251714] [200] ATTITUDE_TARGET
[02:22:58.678757] [37] RADIO
[02:22:58.681812] [37] RADIO_STATUS
[02:22:59.149947] [202] HEARTBEAT
[02:22:59.378960] [203] VFR_HUD
[02:22:59.493936] [38] RADIO
[02:22:59.496875] [38] RADIO_STATUS
[02:23:00.070047] [204] HEARTBEAT
[02:23:00.518139] [39] RADIO
[02:23:00.521073] [39] RADIO_STATUS
[02:23:00.988183] [209] VFR_HUD
[02:23:01.103202] [210] HEARTBEAT
[02:23:01.562240] [40] RADIO
[02:23:01.565195] [40] RADIO_STATUS
[02:23:01.682313] [211] VFR_HUD
[02:23:02.586488] [41] RADIO
[02:23:02.589426] [41] RADIO_STATUS
[02:23:03.291601] [216] VFR_HUD
[02:23:03.505609] [42] RADIO
[02:23:03.508544] [42] RADIO_STATUS
[02:23:04.549816] [43] RADIO
[02:23:04.552782] [43] RADIO_STATUS
[02:23:04.894826] [222] VFR_HUD
[02:23:05.120019] [223] HEARTBEAT
[02:23:05.573997] [44] RADIO
[02:23:05.577011] [44] RADIO_STATUS
[02:23:05.693933] [224] VFR_HUD
[02:23:06.288069] [225] HEARTBEAT
[02:23:06.296048] [226] ATTITUDE_TARGET
[02:23:06.723123] [45] RADIO
[02:23:06.726054] [45] RADIO_STATUS
[02:23:07.642209] [46] RADIO
[02:23:07.645214] [46] RADIO_STATUS
[02:23:08.120325] [230] HEARTBEAT
[02:23:08.127629] [231] SYS_STATUS
[02:23:08.562408] [47] RADIO
[02:23:08.565359] [47] RADIO_STATUS
[02:23:09.137563] [238] HEARTBEAT
[02:23:09.606581] [48] RADIO
[02:23:09.609594] [48] RADIO_STATUS
[02:23:09.721587] [239] VFR_HUD
[02:23:10.630792] [49] RADIO
[02:23:10.633773] [49] RADIO_STATUS
[02:23:11.096870] [243] HEARTBEAT
[02:23:11.550072] [50] RADIO
[02:23:11.552865] [50] RADIO_STATUS
[02:23:12.617250] [51] RADIO
[02:23:12.620078] [51] RADIO_STATUS
[02:23:12.945101] [250] VFR_HUD
[02:23:13.165168] [251] HEARTBEAT
[02:23:13.618468] [52] RADIO
[02:23:13.621352] [52] RADIO_STATUS
[02:23:14.767547] [53] RADIO
[02:23:14.770371] [53] RADIO_STATUS
[02:23:15.347545] [1] VFR_HUD
[02:23:15.576621] [54] RADIO
[02:23:15.579799] [54] RADIO_STATUS
[02:23:16.164619] [2] HEARTBEAT
[02:23:16.171639] [3] SYS_STATUS
[02:23:16.606658] [55] RADIO
[02:23:16.609608] [55] RADIO_STATUS
[02:23:17.077782] [8] HEARTBEAT
[02:23:17.645873] [56] RADIO
[02:23:17.648858] [56] RADIO_STATUS
[02:23:17.766989] [9] VFR_HUD
[02:23:18.675007] [57] RADIO
[02:23:18.677971] [57] RADIO_STATUS
[02:23:19.146121] [13] HEARTBEAT
[02:23:19.375143] [14] VFR_HUD
[02:23:19.594161] [58] RADIO
[02:23:19.597102] [58] RADIO_STATUS
[02:23:20.303516] [17] BATTERY_STATUS
[02:23:20.633286] [59] RADIO
[02:23:20.637976] [59] RADIO_STATUS
[02:23:20.995383] [20] VFR_HUD
[02:23:21.089363] [21] HEARTBEAT
[02:23:21.662570] [60] RADIO
[02:23:21.665510] [60] RADIO_STATUS
[02:23:21.712524] [22] VFR_HUD
[02:23:22.811616] [61] RADIO
[02:23:22.814596] [61] RADIO_STATUS
[02:23:23.282750] [27] VFR_HUD
[02:23:23.621778] [62] RADIO
[02:23:23.624751] [62] RADIO_STATUS
[02:23:24.215895] [30] BATTERY_STATUS
[02:23:24.650994] [63] RADIO
[02:23:24.653982] [63] RADIO_STATUS
[02:23:24.891025] [33] VFR_HUD
[02:23:25.718154] [64] RADIO
[02:23:25.721972] [64] RADIO_STATUS
[02:23:26.500346] [38] VFR_HUD
[02:23:26.719272] [65] RADIO
[02:23:26.722270] [65] RADIO_STATUS
[02:23:27.075369] [39] HEARTBEAT
[02:23:27.638435] [66] RADIO
[02:23:27.641472] [66] RADIO_STATUS
[02:23:28.116635] [41] HEARTBEAT
[02:23:28.123564] [42] SYS_STATUS
[02:23:28.683661] [67] RADIO
[02:23:28.686618] [67] RADIO_STATUS
[02:23:29.143779] [49] HEARTBEAT
[02:23:29.706842] [68] RADIO
[02:23:29.709782] [68] RADIO_STATUS
[02:23:29.745822] [50] VFR_HUD
[02:23:30.528989] [53] VFR_HUD
[02:23:30.856080] [69] RADIO
[02:23:30.859009] [69] RADIO_STATUS
[02:23:31.092085] [54] HEARTBEAT
[02:23:31.332102] [55] VFR_HUD
[02:23:31.671201] [70] RADIO
[02:23:31.674205] [70] RADIO_STATUS
[02:23:32.695452] [71] RADIO
[02:23:32.698337] [71] RADIO_STATUS
[02:23:33.161589] [62] HEARTBEAT
[02:23:33.746794] [63] VFR_HUD
[02:23:33.767571] [72] RADIO
[02:23:33.770559] [72] RADIO_STATUS
[02:23:34.544776] [66] VFR_HUD
[02:23:34.763715] [73] RADIO
[02:23:34.766677] [73] RADIO_STATUS
[02:23:35.109821] [67] HEARTBEAT
[02:23:35.683910] [74] RADIO
[02:23:35.686886] [74] RADIO_STATUS
[02:23:36.161016] [69] HEARTBEAT
[02:23:36.167982] [70] SYS_STATUS
[02:23:36.833385] [75] RADIO
[02:23:36.836223] [75] RADIO_STATUS
[02:23:36.871148] [74] VFR_HUD
[02:23:37.078166] [75] HEARTBEAT
[02:23:37.752250] [76] RADIO
[02:23:37.755262] [76] RADIO_STATUS
[02:23:37.884312] [76] VFR_HUD
[02:23:38.562409] [79] VFR_HUD
[02:23:38.901456] [77] RADIO
[02:23:38.904401] [77] RADIO_STATUS
[02:23:39.137603] [80] HEARTBEAT
[02:23:39.383556] [81] VFR_HUD
[02:23:39.820666] [78] RADIO
[02:23:39.823625] [78] RADIO_STATUS
[02:23:40.299740] [84] BATTERY_STATUS
[02:23:40.739772] [79] RADIO
[02:23:40.742727] [79] RADIO_STATUS
[02:23:41.779896] [80] RADIO
[02:23:41.781882] [80] RADIO_STATUS
[02:23:42.145282] [90] HEARTBEAT
[02:23:42.151999] [91] ATTITUDE_TARGET
[02:23:42.486080] [92] VFR_HUD
[02:23:42.808026] [81] RADIO
[02:23:42.811087] [81] RADIO_STATUS
[02:23:43.164133] [93] HEARTBEAT
[02:23:43.727232] [82] RADIO
[02:23:43.730185] [82] RADIO_STATUS
[02:23:44.212312] [97] BATTERY_STATUS
[02:23:44.766325] [83] RADIO
[02:23:44.769366] [83] RADIO_STATUS
[02:23:44.887537] [100] VFR_HUD
[02:23:45.118422] [101] HEARTBEAT
[02:23:45.796628] [84] RADIO
[02:23:45.798517] [84] RADIO_STATUS
[02:23:46.496684] [105] VFR_HUD
[02:23:46.944713] [85] RADIO
[02:23:46.947689] [85] RADIO_STATUS
[02:23:47.060867] [106] HEARTBEAT
[02:23:47.753915] [86] RADIO
[02:23:47.756902] [86] RADIO_STATUS
[02:23:48.784151] [87] RADIO
[02:23:48.787066] [87] RADIO_STATUS
[02:23:48.905192] [115] VFR_HUD
[02:23:49.719285] [117] VFR_HUD
[02:23:49.834318] [88] RADIO
[02:23:49.837896] [88] RADIO_STATUS
[02:23:50.852455] [89] RADIO
[02:23:50.855436] [89] RADIO_STATUS
[02:23:51.088691] [121] HEARTBEAT
[02:23:51.771594] [90] RADIO
[02:23:51.774600] [90] RADIO_STATUS
[02:23:52.256709] [125] BATTERY_STATUS
[02:23:52.487927] [126] ATTITUDE_TARGET
[02:23:52.492824] [127] VFR_HUD
[02:23:52.810840] [91] RADIO
[02:23:52.813797] [91] RADIO_STATUS
[02:23:52.932057] [128] VFR_HUD
[02:23:53.166942] [129] HEARTBEAT
[02:23:53.841104] [92] RADIO
[02:23:53.842979] [92] RADIO_STATUS
[02:23:54.090109] [131] HEARTBEAT
[02:23:54.098124] [132] ATTITUDE_TARGET
[02:23:54.541136] [133] VFR_HUD
[02:23:54.765186] [93] RADIO
[02:23:54.768243] [93] RADIO_STATUS
[02:23:55.115277] [134] HEARTBEAT
[02:23:55.804329] [94] RADIO
[02:23:55.807295] [94] RADIO_STATUS
[02:23:56.161539] [136] HEARTBEAT
[02:23:56.828561] [95] RADIO
[02:23:56.831490] [95] RADIO_STATUS
[02:23:57.064695] [142] HEARTBEAT
[02:23:57.769686] [143] VFR_HUD
[02:23:57.872690] [96] RADIO
[02:23:57.875733] [96] RADIO_STATUS
[02:23:58.569824] [146] VFR_HUD
[02:23:58.895939] [97] RADIO
[02:23:58.898855] [97] RADIO_STATUS
[02:23:59.132001] [147] HEARTBEAT
[02:23:59.371911] [148] VFR_HUD
[02:23:59.815025] [98] RADIO
[02:23:59.817969] [98] RADIO_STATUS
[02:24:00.294111] [151] BATTERY_STATUS
[02:24:00.859153] [99] RADIO
[02:24:00.862091] [99] RADIO_STATUS
[02:24:00.980173] [154] VFR_HUD
[02:24:01.883288] [100] RADIO
[02:24:01.886264] [100] RADIO_STATUS
[02:24:02.133376] [157] HEARTBEAT
[02:24:02.141294] [158] ATTITUDE_TARGET
[02:24:02.589393] [159] VFR_HUD
[02:24:02.802436] [101] RADIO
[02:24:02.805470] [101] RADIO_STATUS
[02:24:03.148578] [160] HEARTBEAT
[02:24:03.273575] [161] VFR_HUD
[02:24:03.846724] [102] RADIO
[02:24:03.849642] [102] RADIO_STATUS
[02:24:04.870869] [103] RADIO
[02:24:04.874052] [103] RADIO_STATUS
[02:24:04.991894] [167] VFR_HUD
[02:24:05.121914] [168] HEARTBEAT
[02:24:06.020058] [104] RADIO
[02:24:06.023083] [104] RADIO_STATUS
[02:24:06.939210] [105] RADIO
[02:24:06.942151] [105] RADIO_STATUS
[02:24:07.070435] [173] HEARTBEAT
[02:24:07.290233] [174] VFR_HUD
[02:24:07.858353] [106] RADIO
[02:24:07.861432] [106] RADIO_STATUS
[02:24:09.007493] [107] RADIO
[02:24:09.010506] [107] RADIO_STATUS
[02:24:09.926680] [108] RADIO
[02:24:09.929630] [108] RADIO_STATUS
[02:24:10.181742] [185] HEARTBEAT
[02:24:10.190354] [186] ATTITUDE_TARGET
[02:24:10.506848] [187] VFR_HUD
[02:24:11.078983] [109] RADIO
[02:24:11.081962] [109] RADIO_STATUS
[02:24:11.114903] [188] HEARTBEAT
[02:24:11.316894] [189] VFR_HUD
[02:24:11.885020] [110] RADIO
[02:24:11.888000] [110] RADIO_STATUS
[02:24:12.482163] [193] ATTITUDE_TARGET
[02:24:12.487108] [194] VFR_HUD
[02:24:12.915185] [111] RADIO
[02:24:12.918148] [111] RADIO_STATUS
[02:24:13.035175] [195] VFR_HUD
[02:24:13.155241] [196] HEARTBEAT
[02:24:13.953428] [112] RADIO
[02:24:13.956298] [112] RADIO_STATUS
[02:24:14.069410] [198] HEARTBEAT
[02:24:14.092480] [199] ATTITUDE_TARGET
[02:24:14.982585] [113] RADIO
[02:24:14.985526] [113] RADIO_STATUS
[02:24:15.101817] [201] HEARTBEAT
[02:24:15.901723] [114] RADIO
[02:24:15.904676] [114] RADIO_STATUS
[02:24:16.324766] [207] VFR_HUD
[02:24:16.941891] [208] VFR_HUD
[02:24:16.968877] [115] RADIO
[02:24:16.971810] [115] RADIO_STATUS
[02:24:17.756119] [210] VFR_HUD
[02:24:17.970088] [116] RADIO
[02:24:17.973018] [116] RADIO_STATUS
[02:24:18.225187] [211] HEARTBEAT
[02:24:18.234021] [212] ATTITUDE_TARGET
[02:24:19.119343] [117] RADIO
[02:24:19.122317] [117] RADIO_STATUS
[02:24:19.235408] [214] HEARTBEAT
[02:24:19.365353] [215] VFR_HUD
[02:24:19.928526] [118] RADIO
[02:24:19.931403] [118] RADIO_STATUS
[02:24:20.293513] [218] BATTERY_STATUS
[02:24:20.525571] [219] ATTITUDE_TARGET
[02:24:20.529522] [220] VFR_HUD
[02:24:20.961792] [119] RADIO
[02:24:20.961929] [119] RADIO_STATUS
[02:24:20.996624] [221] VFR_HUD
[02:24:21.083614] [222] HEARTBEAT
[02:24:21.997745] [120] RADIO
[02:24:22.000769] [120] RADIO_STATUS
[02:24:22.127792] [224] HEARTBEAT
[02:24:22.134772] [225] ATTITUDE_TARGET
[02:24:22.588824] [226] VFR_HUD
[02:24:23.026918] [121] RADIO
[02:24:23.029892] [121] RADIO_STATUS
[02:24:23.153140] [227] HEARTBEAT
[02:24:23.389000] [228] VFR_HUD
[02:24:23.946041] [122] RADIO
[02:24:23.949062] [122] RADIO_STATUS
[02:24:24.986248] [234] VFR_HUD
[02:24:25.095167] [123] RADIO
[02:24:25.098133] [123] RADIO_STATUS
[02:24:25.686392] [236] VFR_HUD
[02:24:26.016368] [124] RADIO
[02:24:26.019432] [124] RADIO_STATUS
[02:24:26.262433] [237] HEARTBEAT
[02:24:26.270404] [238] ATTITUDE_TARGET
[02:24:26.488418] [239] VFR_HUD
[02:24:27.162583] [125] RADIO
[02:24:27.165556] [125] RADIO_STATUS
[02:24:27.287554] [240] HEARTBEAT
[02:24:27.292516] [241] VFR_HUD
[02:24:27.976706] [126] RADIO
[02:24:27.979680] [126] RADIO_STATUS
[02:24:28.104694] [242] HEARTBEAT
[02:24:28.111710] [243] SYS_STATUS
[02:24:28.157737] [247] VFR_HUD
[02:24:28.161666] [248] SYSTEM_TIME
[02:24:28.902901] [249] VFR_HUD
[02:24:29.000930] [127] RADIO
[02:24:29.003890] [127] RADIO_STATUS
[02:24:29.117493] [250] HEARTBEAT
[02:24:29.700979] [251] VFR_HUD
[02:24:30.045063] [128] RADIO
[02:24:30.048097] [128] RADIO_STATUS
[02:24:30.175097] [252] HEARTBEAT
[02:24:30.183126] [253] ATTITUDE_TARGET
[02:24:31.069731] [129] RADIO
[02:24:31.072275] [129] RADIO_STATUS
[02:24:31.103267] [255] HEARTBEAT
[02:24:31.310241] [0] VFR_HUD
[02:24:31.988350] [130] RADIO
[02:24:31.991340] [130] RADIO_STATUS
[02:24:32.475437] [4] ATTITUDE_TARGET
[02:24:32.480415] [5] VFR_HUD
[02:24:32.918494] [6] VFR_HUD
[02:24:33.137568] [131] RADIO
[02:24:33.140461] [131] RADIO_STATUS
[02:24:33.171664] [7] HEARTBEAT
[02:24:33.717611] [8] VFR_HUD
[02:24:34.056633] [132] RADIO
[02:24:34.059596] [132] RADIO_STATUS
[02:24:34.538791] [11] VFR_HUD
[02:24:34.975862] [133] RADIO
[02:24:34.978864] [133] RADIO_STATUS
[02:24:35.337973] [13] VFR_HUD
[02:24:36.124039] [134] RADIO
[02:24:36.126976] [134] RADIO_STATUS
[02:24:36.935201] [19] VFR_HUD
[02:24:37.044139] [135] RADIO
[02:24:37.047104] [135] RADIO_STATUS
[02:24:37.169327] [20] HEARTBEAT
[02:24:37.749320] [21] VFR_HUD
[02:24:38.113757] [136] RADIO
[02:24:38.114305] [136] RADIO_STATUS
[02:24:38.217629] [22] HEARTBEAT
[02:24:38.225544] [23] ATTITUDE_TARGET
[02:24:39.112603] [137] RADIO
[02:24:39.115529] [137] RADIO_STATUS
[02:24:39.146945] [25] HEARTBEAT
[02:24:39.353224] [26] VFR_HUD
[02:24:40.031727] [138] RADIO
[02:24:40.034623] [138] RADIO_STATUS
[02:24:40.517795] [30] ATTITUDE_TARGET
[02:24:40.522797] [31] VFR_HUD
[02:24:41.087874] [139] RADIO
[02:24:41.090838] [139] RADIO_STATUS
[02:24:41.201840] [32] VFR_HUD
[02:24:41.204818] [33] HEARTBEAT
[02:24:42.100059] [140] RADIO
[02:24:42.103018] [140] RADIO_STATUS
[02:24:42.354608] [35] HEARTBEAT
[02:24:42.362061] [36] ATTITUDE_TARGET
[02:24:42.575203] [37] VFR_HUD
[02:24:43.249227] [141] RADIO
[02:24:43.252165] [141] RADIO_STATUS
[02:24:43.289344] [39] VFR_HUD
[02:24:44.058313] [142] RADIO
[02:24:44.061331] [142] RADIO_STATUS
[02:24:45.088499] [143] RADIO
[02:24:45.092277] [143] RADIO_STATUS
[02:24:45.213638] [46] HEARTBEAT
[02:24:45.668593] [47] VFR_HUD
[02:24:46.236665] [144] RADIO
[02:24:46.239615] [144] RADIO_STATUS
[02:24:46.482800] [50] VFR_HUD
[02:24:47.155819] [145] RADIO
[02:24:47.159189] [145] RADIO_STATUS
[02:24:47.404891] [51] HEARTBEAT
[02:24:47.409864] [52] VFR_HUD
[02:24:48.075986] [146] RADIO
[02:24:48.077911] [146] RADIO_STATUS
[02:24:49.111387] [61] HEARTBEAT
[02:24:49.224193] [147] RADIO
[02:24:49.227105] [147] RADIO_STATUS
[02:24:49.695236] [62] VFR_HUD
[02:24:50.144277] [148] RADIO
[02:24:50.147269] [148] RADIO_STATUS
[02:24:50.398341] [63] HEARTBEAT
[02:24:50.406320] [64] ATTITUDE_TARGET
[02:24:51.075514] [66] HEARTBEAT
[02:24:51.293569] [149] RADIO
[02:24:51.296480] [149] RADIO_STATUS
[02:24:51.414473] [67] VFR_HUD
[02:24:52.212608] [150] RADIO
[02:24:52.215655] [150] RADIO_STATUS
[02:24:53.131747] [151] RADIO
[02:24:53.134722] [151] RADIO_STATUS
[02:24:53.165815] [74] HEARTBEAT
[02:24:54.280922] [152] RADIO
[02:24:54.287259] [152] RADIO_STATUS
[02:24:54.526995] [78] VFR_HUD
[02:24:55.200115] [153] RADIO
[02:24:55.203016] [153] RADIO_STATUS
[02:24:55.332108] [80] VFR_HUD
[02:24:56.122211] [154] RADIO
[02:24:56.124186] [154] RADIO_STATUS
[02:24:56.183364] [81] HEARTBEAT
[02:24:56.190241] [82] SYS_STATUS
[02:24:56.197231] [83] BATTERY_STATUS
[02:24:56.210259] [84] ATTITUDE_TARGET
[02:24:56.215209] [85] VFR_HUD
[02:24:57.163495] [87] HEARTBEAT
[02:24:57.267418] [155] RADIO
[02:24:57.270431] [155] RADIO_STATUS
[02:24:57.743566] [88] VFR_HUD
[02:24:58.186782] [156] RADIO
[02:24:58.189634] [156] RADIO_STATUS
[02:24:59.117882] [92] HEARTBEAT
[02:24:59.336747] [157] RADIO
[02:24:59.338737] [157] RADIO_STATUS
[02:24:59.467899] [93] VFR_HUD
[02:25:00.172898] [158] RADIO
[02:25:00.175917] [158] RADIO_STATUS
[02:25:00.966118] [99] VFR_HUD
[02:25:01.060125] [100] HEARTBEAT
[02:25:01.174073] [159] RADIO
[02:25:01.177009] [159] RADIO_STATUS
[02:25:02.241272] [160] RADIO
[02:25:02.244240] [160] RADIO_STATUS
[02:25:02.563303] [104] VFR_HUD
[02:25:03.242426] [161] RADIO
[02:25:03.245493] [161] RADIO_STATUS
[02:25:03.281550] [106] VFR_HUD
[02:25:04.161757] [162] RADIO
[02:25:04.164520] [162] RADIO_STATUS
[02:25:04.221599] [107] HEARTBEAT
[02:25:04.228595] [108] SYS_STATUS
[02:25:04.235574] [109] BATTERY_STATUS
[02:25:04.248582] [110] ATTITUDE_TARGET
[02:25:04.253563] [111] VFR_HUD
[02:25:05.096731] [113] HEARTBEAT
[02:25:05.206749] [163] RADIO
[02:25:05.212035] [163] RADIO_STATUS
[02:25:05.786815] [114] VFR_HUD
[02:25:06.229917] [164] RADIO
[02:25:06.232911] [164] RADIO_STATUS
[02:25:06.470920] [117] VFR_HUD
[02:25:07.169802] [118] HEARTBEAT
[02:25:07.379024] [165] RADIO
[02:25:07.381998] [165] RADIO_STATUS
[02:25:08.087221] [120] HEARTBEAT
[02:25:08.094104] [121] SYS_STATUS
[02:25:08.299215] [166] RADIO
[02:25:08.302194] [166] RADIO_STATUS
[02:25:09.114326] [128] HEARTBEAT
[02:25:09.218448] [167] RADIO
[02:25:09.221447] [167] RADIO_STATUS
[02:25:09.699360] [129] VFR_HUD
[02:25:10.367526] [168] RADIO
[02:25:10.370431] [168] RADIO_STATUS
[02:25:10.499494] [132] VFR_HUD
[02:25:11.063623] [133] HEARTBEAT
[02:25:11.286782] [169] RADIO
[02:25:11.289703] [169] RADIO_STATUS
[02:25:12.205786] [170] RADIO
[02:25:12.208846] [170] RADIO_STATUS
[02:25:12.246879] [137] BATTERY_STATUS
[02:25:12.273803] [138] ATTITUDE_TARGET
[02:25:12.279065] [139] VFR_HUD
[02:25:12.911895] [140] VFR_HUD
[02:25:13.141010] [141] HEARTBEAT
[02:25:13.245007] [171] RADIO
[02:25:13.247979] [171] RADIO_STATUS
[02:25:14.274123] [172] RADIO
[02:25:14.277048] [172] RADIO_STATUS
[02:25:14.520224] [145] VFR_HUD
[02:25:15.080268] [146] HEARTBEAT
[02:25:15.423337] [173] RADIO
[02:25:15.426469] [173] RADIO_STATUS
[02:25:16.136485] [148] HEARTBEAT
[02:25:16.143423] [149] SYS_STATUS
[02:25:16.183455] [150] BATTERY_STATUS
[02:25:16.190463] [151] ATTITUDE_TARGET
[02:25:16.195394] [152] VFR_HUD
[02:25:16.233479] [174] RADIO
[02:25:16.236418] [174] RADIO_STATUS
[02:25:17.262644] [175] RADIO
[02:25:17.265619] [175] RADIO_STATUS
[02:25:17.743785] [155] VFR_HUD
[02:25:18.301908] [176] RADIO
[02:25:18.304788] [176] RADIO_STATUS
[02:25:18.543888] [158] VFR_HUD
[02:25:19.112906] [159] HEARTBEAT
[02:25:19.330988] [177] RADIO
[02:25:19.333993] [177] RADIO_STATUS
[02:25:19.462963] [160] VFR_HUD
[02:25:20.250325] [178] RADIO
[02:25:20.253122] [178] RADIO_STATUS
[02:25:20.290167] [163] BATTERY_STATUS
[02:25:20.318250] [164] ATTITUDE_TARGET
[02:25:20.322315] [165] VFR_HUD
[02:25:20.961279] [166] VFR_HUD
[02:25:21.399344] [179] RADIO
[02:25:21.402359] [179] RADIO_STATUS
[02:25:21.760385] [168] VFR_HUD
[02:25:22.318497] [180] RADIO
[02:25:22.321433] [180] RADIO_STATUS
[02:25:22.563530] [171] VFR_HUD
[02:25:23.123612] [172] HEARTBEAT
[02:25:23.242643] [181] RADIO
[02:25:23.245705] [181] RADIO_STATUS
[02:25:23.275875] [173] VFR_HUD
[02:25:24.179823] [174] HEARTBEAT
[02:25:24.186817] [175] SYS_STATUS
[02:25:24.226769] [176] BATTERY_STATUS
[02:25:24.233813] [177] ATTITUDE_TARGET
[02:25:24.238860] [178] VFR_HUD
[02:25:24.281813] [182] RADIO
[02:25:24.284816] [182] RADIO_STATUS
[02:25:25.305921] [183] RADIO
[02:25:25.308915] [183] RADIO_STATUS
[02:25:26.345075] [184] RADIO
[02:25:26.348065] [184] RADIO_STATUS
[02:25:26.466117] [184] VFR_HUD
[02:25:27.156741] [185] HEARTBEAT
[02:25:27.374224] [185] RADIO
[02:25:27.377238] [185] RADIO_STATUS
[02:25:28.293414] [186] RADIO
[02:25:28.296357] [186] RADIO_STATUS
[02:25:28.874486] [194] VFR_HUD
[02:25:29.442583] [187] RADIO
[02:25:29.445589] [187] RADIO_STATUS
[02:25:30.362717] [188] RADIO
[02:25:30.364673] [188] RADIO_STATUS
[02:25:31.057936] [200] HEARTBEAT
[02:25:31.281771] [189] RADIO
[02:25:31.284776] [189] RADIO_STATUS
[02:25:31.319829] [201] VFR_HUD
[02:25:32.221085] [204] BATTERY_STATUS
[02:25:32.377007] [190] RADIO
[02:25:32.379988] [190] RADIO_STATUS
[02:25:32.907137] [207] VFR_HUD
[02:25:33.136229] [208] HEARTBEAT
[02:25:33.350199] [191] RADIO
[02:25:33.353267] [191] RADIO_STATUS
[02:25:34.394362] [192] RADIO
[02:25:34.397544] [192] RADIO_STATUS
[02:25:34.515401] [212] VFR_HUD
[02:25:35.084507] [213] HEARTBEAT
[02:25:35.418585] [193] RADIO
[02:25:35.425753] [193] RADIO_STATUS
[02:25:36.289697] [219] VFR_HUD
[02:25:36.312687] [194] RADIO
[02:25:36.315674] [194] RADIO_STATUS
[02:25:36.918853] [220] VFR_HUD
[02:25:37.376908] [195] RADIO
[02:25:37.379922] [195] RADIO_STATUS
[02:25:37.739109] [222] VFR_HUD
[02:25:38.406115] [196] RADIO
[02:25:38.409022] [196] RADIO_STATUS
[02:25:38.538318] [225] VFR_HUD
[02:25:39.107278] [226] HEARTBEAT
[02:25:39.325327] [197] RADIO
[02:25:39.328278] [197] RADIO_STATUS
[02:25:40.264431] [230] BATTERY_STATUS
[02:25:40.392433] [198] RADIO
[02:25:40.395444] [198] RADIO_STATUS
[02:25:40.950647] [233] VFR_HUD
[02:25:41.394638] [199] RADIO
[02:25:41.397645] [199] RADIO_STATUS
[02:25:42.108776] [236] HEARTBEAT
[02:25:42.116735] [237] ATTITUDE_TARGET
[02:25:42.433852] [200] RADIO
[02:25:42.436749] [200] RADIO_STATUS
[02:25:42.559814] [238] VFR_HUD
[02:25:43.118918] [239] HEARTBEAT
[02:25:43.462928] [201] RADIO
[02:25:43.465924] [201] RADIO_STATUS
[02:25:44.382065] [202] RADIO
[02:25:44.385072] [202] RADIO_STATUS
[02:25:45.421427] [203] RADIO
[02:25:45.424219] [203] RADIO_STATUS
[02:25:45.772535] [248] VFR_HUD
[02:25:46.450483] [204] RADIO
[02:25:46.453404] [204] RADIO_STATUS
[02:25:46.570523] [251] VFR_HUD
[02:25:47.150615] [252] HEARTBEAT
[02:25:47.369665] [205] RADIO
[02:25:47.372588] [205] RADIO_STATUS
[02:25:48.065841] [254] HEARTBEAT
[02:25:48.408827] [206] RADIO
[02:25:48.411793] [206] RADIO_STATUS
[02:25:48.868930] [5] VFR_HUD
[02:25:49.437910] [207] RADIO
[02:25:49.440945] [207] RADIO_STATUS
[02:25:49.684042] [7] VFR_HUD
[02:25:50.153049] [8] HEARTBEAT
[02:25:50.161117] [9] ATTITUDE_TARGET
[02:25:50.490120] [10] VFR_HUD
[02:25:50.505117] [208] RADIO
[02:25:50.508077] [208] RADIO_STATUS
[02:25:51.163213] [11] HEARTBEAT
[02:25:51.293178] [12] VFR_HUD
[02:25:51.507268] [209] RADIO
[02:25:51.510236] [209] RADIO_STATUS
[02:25:52.372436] [210] RADIO
[02:25:52.375357] [210] RADIO_STATUS
[02:25:52.902515] [18] VFR_HUD
[02:25:53.131536] [19] HEARTBEAT
[02:25:53.471575] [211] RADIO
[02:25:53.473560] [211] RADIO_STATUS
[02:25:54.494787] [212] RADIO
[02:25:54.497704] [212] RADIO_STATUS
[02:25:55.071044] [24] HEARTBEAT
[02:25:55.304946] [25] VFR_HUD
[02:25:55.413949] [213] RADIO
[02:25:55.416983] [213] RADIO_STATUS
[02:25:56.458096] [214] RADIO
[02:25:56.461081] [214] RADIO_STATUS
[02:25:57.482322] [215] RADIO
[02:25:57.485357] [215] RADIO_STATUS
[02:25:57.723426] [33] VFR_HUD
[02:25:58.407478] [216] RADIO
[02:25:58.410422] [216] RADIO_STATUS
[02:25:58.522518] [36] VFR_HUD
[02:25:59.097648] [37] HEARTBEAT
[02:25:59.337925] [38] VFR_HUD
[02:25:59.550633] [217] RADIO
[02:25:59.554068] [217] RADIO_STATUS
[02:26:00.259828] [41] BATTERY_STATUS
[02:26:00.469800] [218] RADIO
[02:26:00.472766] [218] RADIO_STATUS
[02:26:00.523855] [42] ATTITUDE_TARGET
[02:26:00.528865] [43] VFR_HUD
[02:26:00.944899] [44] VFR_HUD
[02:26:01.066015] [45] HEARTBEAT
[02:26:01.619013] [219] RADIO
[02:26:01.622031] [219] RADIO_STATUS
[02:26:02.104151] [47] HEARTBEAT
[02:26:02.111091] [48] ATTITUDE_TARGET
[02:26:02.538134] [220] RADIO
[02:26:02.541183] [220] RADIO_STATUS
[02:26:02.588249] [49] VFR_HUD
[02:26:03.113266] [50] HEARTBEAT
[02:26:03.456364] [221] RADIO
[02:26:03.459232] [221] RADIO_STATUS
[02:26:04.606476] [222] RADIO
[02:26:04.609396] [222] RADIO_STATUS
[02:26:05.077562] [58] HEARTBEAT
[02:26:05.525614] [223] RADIO
[02:26:05.528602] [223] RADIO_STATUS
[02:26:05.766699] [59] VFR_HUD
[02:26:06.234780] [60] HEARTBEAT
[02:26:06.242746] [61] ATTITUDE_TARGET
[02:26:06.444806] [224] RADIO
[02:26:06.447761] [224] RADIO_STATUS
[02:26:06.483790] [62] VFR_HUD
[02:26:07.145989] [63] HEARTBEAT
[02:26:07.374960] [64] VFR_HUD
[02:26:07.594996] [225] RADIO
[02:26:07.597007] [225] RADIO_STATUS
[02:26:08.066149] [65] HEARTBEAT
[02:26:08.514099] [226] RADIO
[02:26:08.517099] [226] RADIO_STATUS
[02:26:09.099254] [73] HEARTBEAT
[02:26:09.553247] [227] RADIO
[02:26:09.556189] [227] RADIO_STATUS
[02:26:09.679239] [74] VFR_HUD
[02:26:10.147469] [75] HEARTBEAT
[02:26:10.155329] [76] ATTITUDE_TARGET
[02:26:10.581462] [228] RADIO
[02:26:10.584389] [228] RADIO_STATUS
[02:26:11.063543] [78] HEARTBEAT
[02:26:11.286496] [79] VFR_HUD
[02:26:11.500753] [229] RADIO
[02:26:11.503683] [229] RADIO_STATUS
[02:26:12.539955] [230] RADIO
[02:26:12.542714] [230] RADIO_STATUS
[02:26:12.901865] [85] VFR_HUD
[02:26:13.120873] [86] HEARTBEAT
[02:26:13.568891] [231] RADIO
[02:26:13.571872] [231] RADIO_STATUS
[02:26:13.700882] [87] VFR_HUD
[02:26:14.489378] [232] RADIO
[02:26:14.492061] [232] RADIO_STATUS
[02:26:14.621072] [90] VFR_HUD
[02:26:15.637231] [233] RADIO
[02:26:15.640258] [233] RADIO_STATUS
[02:26:16.556403] [234] RADIO
[02:26:16.559380] [234] RADIO_STATUS
[02:26:16.918426] [98] VFR_HUD
[02:26:17.132550] [99] HEARTBEAT
[02:26:17.705613] [235] RADIO
[02:26:17.708618] [235] RADIO_STATUS
[02:26:17.744594] [100] VFR_HUD
[02:26:18.185685] [101] HEARTBEAT
[02:26:18.192668] [102] ATTITUDE_TARGET
[02:26:18.624740] [236] RADIO
[02:26:18.627700] [236] RADIO_STATUS
[02:26:19.099878] [104] HEARTBEAT
[02:26:19.330864] [105] VFR_HUD
[02:26:19.543969] [237] RADIO
[02:26:19.546936] [237] RADIO_STATUS
[02:26:20.583299] [238] RADIO
[02:26:20.586127] [238] RADIO_STATUS
[02:26:21.051234] [112] HEARTBEAT
[02:26:21.613323] [239] RADIO
[02:26:21.616318] [239] RADIO_STATUS
[02:26:21.733331] [113] VFR_HUD
[02:26:22.531440] [240] RADIO
[02:26:22.534462] [240] RADIO_STATUS
[02:26:22.652504] [116] VFR_HUD
[02:26:23.353647] [118] VFR_HUD
[02:26:23.680610] [241] RADIO
[02:26:23.683624] [241] RADIO_STATUS
[02:26:24.601298] [242] RADIO
[02:26:24.602732] [242] RADIO_STATUS
[02:26:25.071129] [125] HEARTBEAT
[02:26:25.643963] [243] RADIO
[02:26:25.646944] [243] RADIO_STATUS
[02:26:25.759957] [126] VFR_HUD
[02:26:26.228126] [127] HEARTBEAT
[02:26:26.236113] [128] ATTITUDE_TARGET
[02:26:26.668244] [244] RADIO
[02:26:26.671237] [244] RADIO_STATUS
[02:26:27.134246] [130] HEARTBEAT
[02:26:27.368303] [131] VFR_HUD
[02:26:27.587345] [245] RADIO
[02:26:27.590468] [245] RADIO_STATUS
[02:26:28.059441] [132] HEARTBEAT
[02:26:28.737958] [246] RADIO
[02:26:28.739730] [246] RADIO_STATUS
[02:26:28.982530] [139] VFR_HUD
[02:26:29.094627] [140] HEARTBEAT
[02:26:29.655827] [247] RADIO
[02:26:29.658654] [247] RADIO_STATUS
[02:26:29.694618] [141] VFR_HUD
[02:26:30.574865] [248] RADIO
[02:26:30.577766] [248] RADIO_STATUS
[02:26:31.286975] [146] VFR_HUD
[02:26:31.724914] [249] RADIO
[02:26:31.727309] [249] RADIO_STATUS
[02:26:32.209178] [149] BATTERY_STATUS
[02:26:32.644100] [250] RADIO
[02:26:32.647069] [250] RADIO_STATUS
[02:26:32.884251] [152] VFR_HUD
[02:26:33.114256] [153] HEARTBEAT
[02:26:33.683332] [154] VFR_HUD
[02:26:33.715260] [251] RADIO
[02:26:33.718253] [251] RADIO_STATUS
[02:26:34.276466] [155] HEARTBEAT
[02:26:34.285090] [156] ATTITUDE_TARGET
[02:26:34.711548] [252] RADIO
[02:26:34.714427] [252] RADIO_STATUS
[02:26:35.630714] [253] RADIO
[02:26:35.634216] [253] RADIO_STATUS
[02:26:36.113794] [160] HEARTBEAT
[02:26:36.120819] [161] SYS_STATUS
[02:26:36.670794] [254] RADIO
[02:26:36.673777] [254] RADIO_STATUS
[02:26:37.261908] [165] VFR_HUD
[02:26:37.264886] [166] HEARTBEAT
[02:26:37.589980] [255] RADIO
[02:26:37.592956] [255] RADIO_STATUS
[02:26:37.716000] [167] VFR_HUD
[02:26:38.619242] [0] RADIO
[02:26:38.622295] [0] RADIO_STATUS
[02:26:39.094285] [171] HEARTBEAT
[02:26:39.429395] [172] VFR_HUD
[02:26:39.658520] [1] RADIO
[02:26:39.661318] [1] RADIO_STATUS
[02:26:40.687374] [2] RADIO
[02:26:40.690342] [2] RADIO_STATUS
[02:26:40.928626] [178] VFR_HUD
[02:26:41.170503] [179] HEARTBEAT
[02:26:41.727751] [180] VFR_HUD
[02:26:41.754608] [3] RADIO
[02:26:41.757574] [3] RADIO_STATUS
[02:26:42.547754] [183] VFR_HUD
[02:26:42.755692] [4] RADIO
[02:26:42.758676] [4] RADIO_STATUS
[02:26:43.347873] [185] VFR_HUD
[02:26:43.673832] [5] RADIO
[02:26:43.676801] [5] RADIO_STATUS
[02:26:44.152098] [186] HEARTBEAT
[02:26:44.159260] [187] SYS_STATUS
[02:26:44.713000] [6] RADIO
[02:26:44.716010] [6] RADIO_STATUS
[02:26:45.060085] [192] HEARTBEAT
[02:26:45.743178] [7] RADIO
[02:26:45.746189] [7] RADIO_STATUS
[02:26:45.863225] [193] VFR_HUD
[02:26:46.662308] [8] RADIO
[02:26:46.665301] [8] RADIO_STATUS
[02:26:47.127599] [197] HEARTBEAT
[02:26:47.810546] [9] RADIO
[02:26:47.813585] [9] RADIO_STATUS
[02:26:48.729695] [10] RADIO
[02:26:48.732718] [10] RADIO_STATUS
[02:26:48.975780] [206] VFR_HUD
[02:26:49.087731] [207] HEARTBEAT
[02:26:49.649828] [11] RADIO
[02:26:49.652735] [11] RADIO_STATUS
[02:26:50.799029] [12] RADIO
[02:26:50.801980] [12] RADIO_STATUS
[02:26:51.718150] [13] RADIO
[02:26:51.721108] [13] RADIO_STATUS
[02:26:52.197269] [216] BATTERY_STATUS
[02:26:52.762287] [14] RADIO
[02:26:52.765250] [14] RADIO_STATUS
[02:26:52.877402] [219] VFR_HUD
[02:26:53.108514] [220] HEARTBEAT
[02:26:53.677485] [221] VFR_HUD
[02:26:53.709446] [15] RADIO
[02:26:53.712628] [15] RADIO_STATUS
[02:26:54.486732] [224] VFR_HUD
[02:26:54.705635] [16] RADIO
[02:26:54.708685] [16] RADIO_STATUS
[02:26:55.051760] [225] HEARTBEAT
[02:26:55.854845] [17] RADIO
[02:26:55.857794] [17] RADIO_STATUS
[02:26:56.696998] [18] RADIO
[02:26:56.699920] [18] RADIO_STATUS
[02:26:57.120160] [233] HEARTBEAT
[02:26:57.693392] [19] RADIO
[02:26:57.696157] [19] RADIO_STATUS
[02:26:58.504279] [237] VFR_HUD
[02:26:58.843300] [20] RADIO
[02:26:58.846299] [20] RADIO_STATUS
[02:26:59.079428] [238] HEARTBEAT
[02:26:59.423449] [239] VFR_HUD
[02:26:59.762511] [21] RADIO
[02:26:59.765462] [21] RADIO_STATUS
[02:27:00.247671] [242] BATTERY_STATUS
[02:27:00.807655] [22] RADIO
[02:27:00.810359] [22] RADIO_STATUS
[02:27:00.922669] [245] VFR_HUD
[02:27:01.152713] [246] HEARTBEAT
[02:27:01.721851] [247] VFR_HUD
[02:27:01.748810] [23] RADIO
[02:27:01.751833] [23] RADIO_STATUS
[02:27:02.531050] [250] VFR_HUD
[02:27:02.750596] [24] RADIO
[02:27:02.753086] [24] RADIO_STATUS
[02:27:03.105140] [251] HEARTBEAT
[02:27:03.899254] [25] RADIO
[02:27:03.902281] [25] RADIO_STATUS
[02:27:04.147364] [253] HEARTBEAT
[02:27:04.154512] [254] SYS_STATUS
[02:27:04.322341] [1] VFR_HUD
[02:27:04.818526] [26] RADIO
[02:27:04.820333] [26] RADIO_STATUS
[02:27:05.054456] [3] HEARTBEAT
[02:27:05.738031] [27] RADIO
[02:27:05.740579] [27] RADIO_STATUS
[02:27:05.787593] [4] VFR_HUD
[02:27:06.886776] [28] RADIO
[02:27:06.889752] [28] RADIO_STATUS
[02:27:07.122811] [8] HEARTBEAT
[02:27:07.466958] [9] VFR_HUD
[02:27:07.804907] [29] RADIO
[02:27:07.807971] [29] RADIO_STATUS
[02:27:08.288070] [12] BATTERY_STATUS
[02:27:08.289001] [13] EXTENDED_SYS_STATE
[02:27:08.844131] [30] RADIO
[02:27:08.847066] [30] RADIO_STATUS
[02:27:08.970162] [17] VFR_HUD
[02:27:09.791733] [31] RADIO
[02:27:09.794259] [31] RADIO_STATUS
[02:27:10.574429] [22] VFR_HUD
[02:27:10.793394] [32] RADIO
[02:27:10.796342] [32] RADIO_STATUS
[02:27:11.148476] [23] HEARTBEAT
[02:27:11.942550] [33] RADIO
[02:27:11.945610] [33] RADIO_STATUS
[02:27:12.861761] [34] RADIO
[02:27:12.864690] [34] RADIO_STATUS
[02:27:12.930762] [27] BATTERY_STATUS
[02:27:12.938745] [28] ATTITUDE_TARGET
[02:27:12.943730] [29] VFR_HUD
[02:27:12.948701] [30] VFR_HUD
[02:27:13.097783] [31] HEARTBEAT
[02:27:13.780981] [35] RADIO
[02:27:13.783872] [35] RADIO_STATUS
[02:27:14.487113] [35] VFR_HUD
[02:27:14.930069] [36] RADIO
[02:27:14.933018] [36] RADIO_STATUS
[02:27:15.166179] [36] HEARTBEAT
[02:27:15.850311] [37] RADIO
[02:27:15.852205] [37] RADIO_STATUS
[02:27:16.888428] [38] RADIO
[02:27:16.891395] [38] RADIO_STATUS
[02:27:17.824659] [39] RADIO
[02:27:17.827582] [39] RADIO_STATUS
[02:27:18.498658] [48] VFR_HUD
[02:27:18.837818] [40] RADIO
[02:27:18.840714] [40] RADIO_STATUS
[02:27:19.078857] [49] HEARTBEAT
[02:27:19.318785] [50] VFR_HUD
[02:27:19.986915] [41] RADIO
[02:27:19.989878] [41] RADIO_STATUS
[02:27:20.241993] [53] BATTERY_STATUS
[02:27:20.906014] [42] RADIO
[02:27:20.909003] [42] RADIO_STATUS
[02:27:21.147090] [57] HEARTBEAT
[02:27:21.825232] [43] RADIO
[02:27:21.828201] [43] RADIO_STATUS
[02:27:22.062275] [59] HEARTBEAT
[02:27:22.084304] [60] ATTITUDE_TARGET
[02:27:22.525487] [61] VFR_HUD
[02:27:22.974458] [44] RADIO
[02:27:22.977421] [44] RADIO_STATUS
[02:27:23.893642] [45] RADIO
[02:27:23.896595] [45] RADIO_STATUS
[02:27:24.939761] [46] RADIO
[02:27:24.942734] [46] RADIO_STATUS
[02:27:25.749970] [71] VFR_HUD
[02:27:25.870022] [47] RADIO
[02:27:25.872899] [47] RADIO_STATUS
[02:27:26.883088] [48] RADIO
[02:27:26.885074] [48] RADIO_STATUS
[02:27:27.119122] [75] HEARTBEAT
[02:27:28.031243] [49] RADIO
[02:27:28.034214] [49] RADIO_STATUS
[02:27:28.289346] [79] BATTERY_STATUS
[02:27:28.291260] [80] EXTENDED_SYS_STATE
[02:27:28.323330] [81] ATTITUDE_TARGET
[02:27:28.328299] [82] VFR_HUD
[02:27:28.331261] [83] SYSTEM_TIME
[02:27:28.951360] [50] RADIO
[02:27:28.953568] [50] RADIO_STATUS
[02:27:29.870585] [51] RADIO
[02:27:29.873791] [51] RADIO_STATUS
[02:27:30.120669] [87] HEARTBEAT
[02:27:30.128655] [88] ATTITUDE_TARGET
[02:27:30.570645] [89] VFR_HUD
[02:27:31.019847] [52] RADIO
[02:27:31.022759] [52] RADIO_STATUS
[02:27:31.145764] [90] HEARTBEAT
[02:27:31.260843] [91] VFR_HUD
[02:27:31.938933] [53] RADIO
[02:27:31.941931] [53] RADIO_STATUS
[02:27:32.978209] [54] RADIO
[02:27:32.981048] [54] RADIO_STATUS
[02:27:33.898180] [55] RADIO
[02:27:33.901163] [55] RADIO_STATUS
[02:27:34.927323] [56] RADIO
[02:27:34.930336] [56] RADIO_STATUS
[02:27:35.058439] [103] HEARTBEAT
[02:27:35.277395] [104] VFR_HUD
[02:27:36.076541] [57] RADIO
[02:27:36.079590] [57] RADIO_STATUS
[02:27:36.898859] [110] VFR_HUD
[02:27:36.994682] [58] RADIO
[02:27:36.997693] [58] RADIO_STATUS
[02:27:37.695742] [112] VFR_HUD
[02:27:37.920353] [59] RADIO
[02:27:37.922934] [59] RADIO_STATUS
[02:27:38.164853] [113] HEARTBEAT
[02:27:38.172497] [114] ATTITUDE_TARGET
[02:27:38.494902] [115] VFR_HUD
[02:27:39.064025] [60] RADIO
[02:27:39.067180] [60] RADIO_STATUS
[02:27:39.107210] [116] HEARTBEAT
[02:27:39.304409] [117] VFR_HUD
[02:27:39.983158] [61] RADIO
[02:27:39.986105] [61] RADIO_STATUS
[02:27:40.913306] [123] VFR_HUD
[02:27:41.136373] [62] RADIO
[02:27:41.138338] [62] RADIO_STATUS
[02:27:41.171343] [124] HEARTBEAT
[02:27:42.052455] [63] RADIO
[02:27:42.054435] [63] RADIO_STATUS
[02:27:42.099550] [126] HEARTBEAT
[02:27:42.107633] [127] ATTITUDE_TARGET
[02:27:42.527597] [128] VFR_HUD
[02:27:42.970632] [64] RADIO
[02:27:42.973728] [64] RADIO_STATUS
[02:27:43.098635] [129] HEARTBEAT
[02:27:43.332638] [130] VFR_HUD
[02:27:44.119984] [65] RADIO
[02:27:44.122924] [65] RADIO_STATUS
[02:27:44.929944] [136] VFR_HUD
[02:27:44.963008] [66] RADIO
[02:27:44.964913] [66] RADIO_STATUS
[02:27:45.745052] [138] VFR_HUD
[02:27:45.959150] [67] RADIO
[02:27:45.962233] [67] RADIO_STATUS
[02:27:46.213124] [139] HEARTBEAT
[02:27:46.221170] [140] ATTITUDE_TARGET
[02:27:47.108286] [68] RADIO
[02:27:47.111241] [68] RADIO_STATUS
[02:27:47.142318] [142] HEARTBEAT
[02:27:47.348299] [143] VFR_HUD
[02:27:48.027426] [69] RADIO
[02:27:48.030365] [69] RADIO_STATUS
[02:27:48.957779] [151] VFR_HUD
