[00:54:14.409825] [199] RADIO
[00:54:14.410032] [199] RADIO_STATUS
[00:54:14.728628] [40] VFR_HUD
[00:54:14.840630] [41] HEARTBEAT
[00:54:15.402702] [200] RADIO
[00:54:15.405677] [200] RADIO_STATUS
[00:54:15.523558] [42] VFR_HUD
[00:54:15.882759] [43] HEARTBEAT
[00:54:15.889716] [44] ATTITUDE_TARGET
[00:54:16.337889] [45] VFR_HUD
[00:54:16.458745] [201] RADIO
[00:54:16.461721] [201] RADIO_STATUS
[00:54:16.897851] [46] HEARTBEAT
[00:54:17.022800] [47] VFR_HUD
[00:54:17.471843] [202] RADIO
[00:54:17.474772] [202] RADIO_STATUS
[00:54:17.829857] [48] HEARTBEAT
[00:54:17.835940] [49] SYS_STATUS
[00:54:17.950837] [50] BATTERY_STATUS
[00:54:18.068934] [51] ATTITUDE_TARGET
[00:54:18.073045] [52] VFR_HUD
[00:54:18.390963] [203] RADIO
[00:54:18.393883] [203] RADIO_STATUS
[00:54:18.745935] [53] VFR_HUD
[00:54:18.861994] [54] HEARTBEAT
[00:54:19.431055] [55] VFR_HUD
[00:54:19.458086] [204] RADIO
[00:54:19.461076] [204] RADIO_STATUS
[00:54:19.900112] [56] HEARTBEAT
[00:54:19.908101] [57] ATTITUDE_TARGET
[00:54:20.246123] [58] VFR_HUD
[00:54:20.459143] [205] RADIO
[00:54:20.462167] [205] RADIO_STATUS
[00:54:20.930168] [59] HEARTBEAT
[00:54:21.040187] [60] VFR_HUD
[00:54:21.384208] [206] RADIO
[00:54:21.387184] [206] RADIO_STATUS
[00:54:21.862318] [61] HEARTBEAT
[00:54:21.868295] [62] SYS_STATUS
[00:54:21.908303] [63] BATTERY_STATUS
[00:54:21.916306] [64] ATTITUDE_TARGET
[00:54:21.921233] [65] VFR_HUD
[00:54:22.420339] [207] RADIO
[00:54:22.422330] [207] RADIO_STATUS
[00:54:22.886455] [66] VFR_HUD
[00:54:22.888510] [67] HEARTBEAT
[00:54:23.449485] [208] RADIO
[00:54:23.452444] [208] RADIO_STATUS
[00:54:23.487535] [68] VFR_HUD
[00:54:23.934586] [69] HEARTBEAT
[00:54:23.941584] [70] ATTITUDE_TARGET
[00:54:24.488634] [209] RADIO
[00:54:24.491578] [209] RADIO_STATUS
[00:54:24.839685] [72] HEARTBEAT
[00:54:25.068722] [73] VFR_HUD
[00:54:25.517888] [210] RADIO
[00:54:25.520869] [210] RADIO_STATUS
[00:54:25.875806] [74] HEARTBEAT
[00:54:25.882775] [75] SYS_STATUS
[00:54:26.002740] [76] BATTERY_STATUS
[00:54:26.114838] [77] ATTITUDE_TARGET
[00:54:26.119794] [78] VFR_HUD
[00:54:26.437909] [211] RADIO
[00:54:26.440903] [211] RADIO_STATUS
[00:54:26.677833] [79] VFR_HUD
[00:54:26.908910] [80] HEARTBEAT
[00:54:27.477976] [81] VFR_HUD
[00:54:27.504940] [212] RADIO
[00:54:27.507926] [212] RADIO_STATUS
[00:54:27.837101] [82] HEARTBEAT
[00:54:27.845015] [83] ATTITUDE_TARGET
[00:54:28.287099] [84] VFR_HUD
[00:54:28.507194] [213] RADIO
[00:54:28.510110] [213] RADIO_STATUS
[00:54:29.087155] [86] VFR_HUD
[00:54:29.426216] [214] RADIO
[00:54:29.429193] [214] RADIO_STATUS
[00:54:29.904377] [87] HEARTBEAT
[00:54:29.911310] [88] SYS_STATUS
[00:54:30.471308] [215] RADIO
[00:54:30.474323] [215] RADIO_STATUS
[00:54:30.696335] [94] VFR_HUD
[00:54:30.812290] [95] HEARTBEAT
[00:54:31.495416] [216] RADIO
[00:54:31.498545] [216] RADIO_STATUS
[00:54:31.533374] [96] VFR_HUD
[00:54:31.855514] [97] HEARTBEAT
[00:54:31.863420] [98] ATTITUDE_TARGET
[00:54:32.534459] [217] RADIO
[00:54:32.537430] [217] RADIO_STATUS
[00:54:32.880576] [100] HEARTBEAT
[00:54:33.120575] [101] VFR_HUD
[00:54:33.564557] [218] RADIO
[00:54:33.569726] [218] RADIO_STATUS
[00:54:33.922718] [102] HEARTBEAT
[00:54:33.929659] [103] SYS_STATUS
[00:54:34.048627] [104] BATTERY_STATUS
[00:54:34.161669] [105] ATTITUDE_TARGET
[00:54:34.165619] [106] VFR_HUD
[00:54:34.483667] [219] RADIO
[00:54:34.486691] [219] RADIO_STATUS
[00:54:34.729712] [107] VFR_HUD
[00:54:34.841788] [108] HEARTBEAT
[00:54:35.523808] [109] VFR_HUD
[00:54:35.556783] [220] RADIO
[00:54:35.558793] [220] RADIO_STATUS
[00:54:35.882843] [110] HEARTBEAT
[00:54:35.890892] [111] ATTITUDE_TARGET
[00:54:36.333909] [112] VFR_HUD
[00:54:36.447978] [221] RADIO
[00:54:36.450912] [221] RADIO_STATUS
[00:54:37.022997] [114] VFR_HUD
[00:54:37.472213] [222] RADIO
[00:54:37.475108] [222] RADIO_STATUS
[00:54:37.831130] [115] HEARTBEAT
[00:54:37.837066] [116] SYS_STATUS
[00:54:37.953762] [117] BATTERY_STATUS
[00:54:38.517136] [223] RADIO
[00:54:38.520091] [223] RADIO_STATUS
[00:54:38.638128] [120] VFR_HUD
[00:54:38.858220] [121] HEARTBEAT
[00:54:39.432317] [122] VFR_HUD
[00:54:39.459238] [224] RADIO
[00:54:39.462363] [224] RADIO_STATUS
[00:54:39.905822] [123] HEARTBEAT
[00:54:39.909325] [124] ATTITUDE_TARGET
[00:54:40.247560] [125] VFR_HUD
[00:54:40.460493] [225] RADIO
[00:54:40.463375] [225] RADIO_STATUS
[00:54:40.926543] [126] HEARTBEAT
[00:54:41.041436] [127] VFR_HUD
[00:54:41.610479] [226] RADIO
[00:54:41.613512] [226] RADIO_STATUS
[00:54:41.863525] [128] HEARTBEAT
[00:54:41.869670] [129] SYS_STATUS
[00:54:41.909487] [130] BATTERY_STATUS
[00:54:41.917624] [131] ATTITUDE_TARGET
[00:54:41.922454] [132] VFR_HUD
[00:54:42.529559] [227] RADIO
[00:54:42.532525] [227] RADIO_STATUS
[00:54:42.885654] [133] VFR_HUD
[00:54:42.888546] [134] HEARTBEAT
[00:54:43.459594] [135] VFR_HUD
[00:54:43.568588] [228] RADIO
[00:54:43.571554] [228] RADIO_STATUS
[00:54:43.933848] [136] HEARTBEAT
[00:54:43.941685] [137] ATTITUDE_TARGET
[00:54:44.258729] [138] VFR_HUD
[00:54:44.487787] [229] RADIO
[00:54:44.490793] [229] RADIO_STATUS
[00:54:44.839842] [139] HEARTBEAT
[00:54:45.068816] [140] VFR_HUD
[00:54:45.517900] [230] RADIO
[00:54:45.521019] [230] RADIO_STATUS
[00:54:45.876053] [141] HEARTBEAT
[00:54:45.882986] [142] SYS_STATUS
[00:54:46.001989] [143] BATTERY_STATUS
[00:54:46.233976] [144] ATTITUDE_TARGET
[00:54:46.238935] [145] VFR_HUD
[00:54:46.557042] [231] RADIO
[00:54:46.560212] [231] RADIO_STATUS
[00:54:46.678049] [146] VFR_HUD
[00:54:46.908119] [147] HEARTBEAT
[00:54:47.477126] [148] VFR_HUD
[00:54:47.504073] [232] RADIO
[00:54:47.507001] [232] RADIO_STATUS
[00:54:47.841245] [149] HEARTBEAT
[00:54:47.849958] [150] ATTITUDE_TARGET
[00:54:48.287350] [151] VFR_HUD
[00:54:48.506340] [233] RADIO
[00:54:48.509293] [233] RADIO_STATUS
[00:54:48.852329] [152] HEARTBEAT
[00:54:49.086289] [153] VFR_HUD
[00:54:49.545335] [234] RADIO
[00:54:49.548296] [234] RADIO_STATUS
[00:54:49.912835] [154] HEARTBEAT
[00:54:49.915421] [155] SYS_STATUS
[00:54:49.949458] [156] BATTERY_STATUS
[00:54:49.951360] [157] EXTENDED_SYS_STATE
[00:54:49.959454] [158] ATTITUDE_TARGET
[00:54:49.964612] [159] VFR_HUD
[00:54:49.967402] [160] SYSTEM_TIME
[00:54:50.575617] [235] RADIO
[00:54:50.578483] [235] RADIO_STATUS
[00:54:50.695459] [161] VFR_HUD
[00:54:50.811594] [162] HEARTBEAT
[00:54:51.510598] [163] VFR_HUD
[00:54:51.625603] [236] RADIO
[00:54:51.628561] [236] RADIO_STATUS
[00:54:51.854639] [164] HEARTBEAT
[00:54:51.861708] [165] ATTITUDE_TARGET
[00:54:52.304625] [166] VFR_HUD
[00:54:52.533822] [237] RADIO
[00:54:52.536676] [237] RADIO_STATUS
[00:54:52.879757] [167] HEARTBEAT
[00:54:53.119889] [168] VFR_HUD
[00:54:53.563790] [238] RADIO
[00:54:53.566808] [238] RADIO_STATUS
[00:54:53.921881] [169] HEARTBEAT
[00:54:53.928891] [170] SYS_STATUS
[00:54:54.049005] [171] BATTERY_STATUS
[00:54:54.160899] [172] ATTITUDE_TARGET
[00:54:54.165809] [173] VFR_HUD
[00:54:54.602956] [239] RADIO
[00:54:54.605952] [239] RADIO_STATUS
[00:54:54.723940] [174] VFR_HUD
[00:54:54.829035] [175] HEARTBEAT
[00:54:55.524060] [176] VFR_HUD
[00:54:55.556091] [240] RADIO
[00:54:55.559106] [240] RADIO_STATUS
[00:54:55.883228] [177] HEARTBEAT
[00:54:55.890098] [178] ATTITUDE_TARGET
[00:54:56.333147] [179] VFR_HUD
[00:54:56.552311] [241] RADIO
[00:54:56.555169] [241] RADIO_STATUS
[00:54:56.898246] [180] HEARTBEAT
[00:54:57.028215] [181] VFR_HUD
[00:54:57.597277] [242] RADIO
[00:54:57.600341] [242] RADIO_STATUS
[00:54:57.818464] [182] HEARTBEAT
[00:54:57.838323] [183] SYS_STATUS
[00:54:57.951330] [184] BATTERY_STATUS
[00:54:58.069373] [185] ATTITUDE_TARGET
[00:54:58.074343] [186] VFR_HUD
[00:54:58.621524] [243] RADIO
[00:54:58.624354] [243] RADIO_STATUS
[00:54:58.660394] [187] VFR_HUD
[00:54:58.857514] [188] HEARTBEAT
[00:54:59.432609] [189] VFR_HUD
[00:54:59.661657] [244] RADIO
[00:54:59.664749] [244] RADIO_STATUS
[00:54:59.901657] [190] HEARTBEAT
[00:54:59.908569] [191] ATTITUDE_TARGET
[00:55:00.246613] [192] VFR_HUD
[00:55:00.585743] [245] RADIO
[00:55:00.588650] [245] RADIO_STATUS
[00:55:00.806713] [193] HEARTBEAT
[00:55:01.041723] [194] VFR_HUD
[00:55:01.610849] [246] RADIO
[00:55:01.613728] [246] RADIO_STATUS
[00:55:01.858813] [195] HEARTBEAT
[00:55:01.864800] [196] SYS_STATUS
[00:55:01.983834] [197] BATTERY_STATUS
[00:55:01.991849] [198] ATTITUDE_TARGET
[00:55:02.021804] [199] VFR_HUD
[00:55:02.650936] [200] VFR_HUD
[00:55:02.682899] [247] RADIO
[00:55:02.685932] [247] RADIO_STATUS
[00:55:02.876038] [201] HEARTBEAT
[00:55:03.460051] [202] VFR_HUD
[00:55:03.575118] [248] RADIO
[00:55:03.577993] [248] RADIO_STATUS
[00:55:03.929233] [203] HEARTBEAT
[00:55:03.937199] [204] ATTITUDE_TARGET
[00:55:04.260137] [205] VFR_HUD
[00:55:04.599326] [249] RADIO
[00:55:04.602295] [249] RADIO_STATUS
[00:55:04.840219] [206] HEARTBEAT
[00:55:05.070251] [207] VFR_HUD
[00:55:05.644284] [250] RADIO
[00:55:05.646241] [250] RADIO_STATUS
[00:55:05.876272] [208] HEARTBEAT
[00:55:05.883433] [209] SYS_STATUS
[00:55:05.998318] [210] BATTERY_STATUS
[00:55:06.115465] [211] ATTITUDE_TARGET
[00:55:06.120397] [212] VFR_HUD
[00:55:06.668471] [251] RADIO
[00:55:06.671353] [251] RADIO_STATUS
[00:55:06.788474] [213] VFR_HUD
[00:55:06.817497] [214] HEARTBEAT
[00:55:07.478511] [215] VFR_HUD
[00:55:07.712617] [252] RADIO
[00:55:07.715591] [252] RADIO_STATUS
[00:55:07.845961] [216] HEARTBEAT
[00:55:07.850610] [217] ATTITUDE_TARGET
[00:55:08.293625] [218] VFR_HUD
[00:55:08.626691] [253] RADIO
[00:55:08.629602] [253] RADIO_STATUS
[00:55:08.853688] [219] HEARTBEAT
[00:55:09.087874] [220] VFR_HUD
[00:55:09.656849] [254] RADIO
[00:55:09.659972] [254] RADIO_STATUS
[00:55:09.910034] [221] HEARTBEAT
[00:55:09.916826] [222] SYS_STATUS
[00:55:09.950846] [223] BATTERY_STATUS
[00:55:09.952802] [224] EXTENDED_SYS_STATE
[00:55:09.960953] [225] ATTITUDE_TARGET
[00:55:09.964814] [226] VFR_HUD
[00:55:09.968819] [227] SYSTEM_TIME
[00:55:10.696927] [228] VFR_HUD
[00:55:10.724028] [255] RADIO
[00:55:10.726928] [255] RADIO_STATUS
[00:55:10.816947] [229] HEARTBEAT
[00:55:11.512156] [230] VFR_HUD
[00:55:11.627007] [0] RADIO
[00:55:11.630011] [0] RADIO_STATUS
[00:55:11.855205] [231] HEARTBEAT
[00:55:11.863126] [232] ATTITUDE_TARGET
[00:55:12.306065] [233] VFR_HUD
[00:55:12.645176] [1] RADIO
[00:55:12.648123] [1] RADIO_STATUS
[00:55:12.886185] [234] HEARTBEAT
[00:55:13.115304] [235] VFR_HUD
[00:55:13.684286] [2] RADIO
[00:55:13.687247] [2] RADIO_STATUS
[00:55:13.922323] [236] HEARTBEAT
[00:55:13.929344] [237] SYS_STATUS
[00:55:14.049357] [238] BATTERY_STATUS
[00:55:14.161364] [239] ATTITUDE_TARGET
[00:55:14.166327] [240] VFR_HUD
[00:55:14.714397] [3] RADIO
[00:55:14.716347] [3] RADIO_STATUS
[00:55:14.840472] [241] VFR_HUD
[00:55:14.843481] [242] HEARTBEAT
[00:55:15.524544] [243] VFR_HUD
[00:55:15.633494] [4] RADIO
[00:55:15.636449] [4] RADIO_STATUS
[00:55:15.883679] [244] HEARTBEAT
[00:55:15.890654] [245] ATTITUDE_TARGET
[00:55:16.213659] [246] VFR_HUD
[00:55:16.672744] [5] RADIO
[00:55:16.675687] [5] RADIO_STATUS
[00:55:16.899637] [247] HEARTBEAT
[00:55:17.028648] [248] VFR_HUD
[00:55:17.702833] [6] RADIO
[00:55:17.705681] [6] RADIO_STATUS
[00:55:17.831282] [249] HEARTBEAT
[00:55:17.837852] [250] SYS_STATUS
[00:55:17.951834] [251] BATTERY_STATUS
[00:55:18.069807] [252] ATTITUDE_TARGET
[00:55:18.074847] [253] VFR_HUD
[00:55:18.637878] [254] VFR_HUD
[00:55:18.756871] [7] RADIO
[00:55:18.759889] [7] RADIO_STATUS
[00:55:18.858226] [255] HEARTBEAT
[00:55:19.431919] [0] VFR_HUD
[00:55:19.660965] [8] RADIO
[00:55:19.664059] [8] RADIO_STATUS
[00:55:19.901051] [1] HEARTBEAT
[00:55:19.908986] [2] ATTITUDE_TARGET
[00:55:20.242421] [3] VFR_HUD
[00:55:20.691226] [9] RADIO
[00:55:20.696459] [9] RADIO_STATUS
[00:55:20.807195] [4] HEARTBEAT
[00:55:21.041132] [5] VFR_HUD
[00:55:21.730357] [10] RADIO
[00:55:21.733205] [10] RADIO_STATUS
[00:55:21.858262] [6] HEARTBEAT
[00:55:21.865240] [7] SYS_STATUS
[00:55:21.984213] [8] BATTERY_STATUS
[00:55:21.991262] [9] ATTITUDE_TARGET
[00:55:22.022271] [10] VFR_HUD
[00:55:22.651309] [11] VFR_HUD
[00:55:22.683318] [11] RADIO
[00:55:22.686284] [11] RADIO_STATUS
[00:55:22.876409] [12] HEARTBEAT
[00:55:23.460381] [13] VFR_HUD
[00:55:23.679422] [12] RADIO
[00:55:23.682352] [12] RADIO_STATUS
[00:55:23.929551] [14] HEARTBEAT
[00:55:23.937496] [15] ATTITUDE_TARGET
[00:55:24.259547] [16] VFR_HUD
[00:55:24.724685] [13] RADIO
[00:55:24.727626] [13] RADIO_STATUS
[00:55:24.835721] [17] HEARTBEAT
[00:55:25.069596] [18] VFR_HUD
[00:55:25.748798] [14] RADIO
[00:55:25.751685] [14] RADIO_STATUS
[00:55:25.876766] [19] HEARTBEAT
[00:55:25.883710] [20] SYS_STATUS
[00:55:25.998726] [21] BATTERY_STATUS
[00:55:26.115727] [22] ATTITUDE_TARGET
[00:55:26.120697] [23] VFR_HUD
[00:55:26.683840] [24] VFR_HUD
[00:55:26.804763] [15] RADIO
[00:55:26.807759] [15] RADIO_STATUS
[00:55:26.903791] [25] HEARTBEAT
[00:55:27.478854] [26] VFR_HUD
[00:55:27.712857] [16] RADIO
[00:55:27.715860] [16] RADIO_STATUS
[00:55:27.843992] [27] HEARTBEAT
[00:55:27.850900] [28] ATTITUDE_TARGET
[00:55:28.293278] [29] VFR_HUD
[00:55:28.737048] [17] RADIO
[00:55:28.739913] [17] RADIO_STATUS
[00:55:28.852977] [30] HEARTBEAT
[00:55:29.088010] [31] VFR_HUD
[00:55:29.782083] [18] RADIO
[00:55:29.784037] [18] RADIO_STATUS
[00:55:29.910182] [32] HEARTBEAT
[00:55:29.916126] [33] SYS_STATUS
[00:55:29.951075] [34] BATTERY_STATUS
[00:55:29.953048] [35] EXTENDED_SYS_STATE
[00:55:29.960102] [36] ATTITUDE_TARGET
[00:55:29.965117] [37] VFR_HUD
[00:55:29.969111] [38] SYSTEM_TIME
[00:55:30.697346] [39] VFR_HUD
[00:55:30.724233] [19] RADIO
[00:55:30.727258] [19] RADIO_STATUS
[00:55:30.817368] [40] HEARTBEAT
[00:55:31.506423] [41] VFR_HUD
[00:55:31.725356] [20] RADIO
[00:55:31.728272] [20] RADIO_STATUS
[00:55:31.855415] [42] HEARTBEAT
[00:55:31.863428] [43] ATTITUDE_TARGET
[00:55:32.306400] [44] VFR_HUD
[00:55:32.765410] [21] RADIO
[00:55:32.768350] [21] RADIO_STATUS
[00:55:32.886484] [45] HEARTBEAT
[00:55:33.115615] [46] VFR_HUD
[00:55:33.794653] [22] RADIO
[00:55:33.797565] [22] RADIO_STATUS
[00:55:33.854591] [47] HEARTBEAT
[00:55:33.861634] [48] SYS_STATUS
[00:55:33.869606] [49] BATTERY_STATUS
[00:55:33.881628] [50] ATTITUDE_TARGET
[00:55:33.886545] [51] VFR_HUD
[00:55:34.724721] [52] VFR_HUD
[00:55:34.830738] [53] HEARTBEAT
[00:55:34.862833] [23] RADIO
[00:55:34.864784] [23] RADIO_STATUS
[00:55:35.419763] [54] VFR_HUD
[00:55:35.753933] [24] RADIO
[00:55:35.756802] [24] RADIO_STATUS
[00:55:35.888861] [55] HEARTBEAT
[00:55:35.896877] [56] ATTITUDE_TARGET
[00:55:36.334944] [57] VFR_HUD
[00:55:36.783922] [25] RADIO
[00:55:36.786995] [25] RADIO_STATUS
[00:55:36.899973] [58] HEARTBEAT
[00:55:37.029957] [59] VFR_HUD
[00:55:37.832076] [60] HEARTBEAT
[00:55:37.838036] [61] SYS_STATUS
[00:55:37.933095] [26] RADIO
[00:55:37.936008] [26] RADIO_STATUS
[00:55:38.003051] [62] BATTERY_STATUS
[00:55:38.011089] [63] ATTITUDE_TARGET
[00:55:38.015016] [64] VFR_HUD
[00:55:38.743166] [27] RADIO
[00:55:38.746176] [27] RADIO_STATUS
[00:55:38.869221] [65] VFR_HUD
[00:55:38.872320] [66] HEARTBEAT
[00:55:39.433539] [67] VFR_HUD
[00:55:39.772367] [28] RADIO
[00:55:39.775677] [28] RADIO_STATUS
[00:55:39.902449] [68] HEARTBEAT
[00:55:39.910336] [69] ATTITUDE_TARGET
[00:55:40.242383] [70] VFR_HUD
[00:55:40.811483] [29] RADIO
[00:55:40.814443] [29] RADIO_STATUS
[00:55:40.927464] [71] HEARTBEAT
[00:55:41.042441] [72] VFR_HUD
[00:55:41.841596] [30] RADIO
[00:55:41.843600] [30] RADIO_STATUS
[00:55:41.969722] [73] HEARTBEAT
[00:55:41.976718] [74] SYS_STATUS
[00:55:42.095638] [75] BATTERY_STATUS
[00:55:42.208644] [76] ATTITUDE_TARGET
[00:55:42.212646] [77] VFR_HUD
[00:55:42.651643] [78] VFR_HUD
[00:55:42.760677] [31] RADIO
[00:55:42.763615] [31] RADIO_STATUS
[00:55:42.876670] [79] HEARTBEAT
[00:55:43.460744] [80] VFR_HUD
[00:55:43.799934] [32] RADIO
[00:55:43.802764] [32] RADIO_STATUS
[00:55:43.929935] [81] HEARTBEAT
[00:55:43.937895] [82] ATTITUDE_TARGET
[00:55:44.260836] [83] VFR_HUD
[00:55:44.829942] [33] RADIO
[00:55:44.833021] [33] RADIO_STATUS
[00:55:44.946041] [84] HEARTBEAT
[00:55:45.074961] [85] VFR_HUD
[00:55:45.877014] [86] HEARTBEAT
[00:55:45.884057] [87] SYS_STATUS
[00:55:45.979051] [34] RADIO
[00:55:45.982133] [34] RADIO_STATUS
[00:55:46.020854] [88] BATTERY_STATUS
[00:55:46.047146] [89] ATTITUDE_TARGET
[00:55:46.051129] [90] VFR_HUD
[00:55:46.684181] [91] VFR_HUD
[00:55:46.805145] [35] RADIO
[00:55:46.808119] [35] RADIO_STATUS
[00:55:46.904205] [92] HEARTBEAT
[00:55:47.479214] [93] VFR_HUD
[00:55:47.818347] [36] RADIO
[00:55:47.821293] [36] RADIO_STATUS
[00:55:47.948371] [94] HEARTBEAT
[00:55:47.955362] [95] ATTITUDE_TARGET
[00:55:48.293438] [96] VFR_HUD
[00:55:48.853545] [97] HEARTBEAT
[00:55:48.885524] [37] RADIO
[00:55:48.888433] [37] RADIO_STATUS
[00:55:49.088464] [98] VFR_HUD
[00:55:49.886683] [38] RADIO
[00:55:49.889603] [38] RADIO_STATUS
[00:55:50.015664] [99] HEARTBEAT
[00:55:50.022090] [100] SYS_STATUS
[00:55:50.139653] [101] BATTERY_STATUS
[00:55:50.141640] [102] EXTENDED_SYS_STATE
[00:55:50.260646] [103] ATTITUDE_TARGET
[00:55:50.265586] [104] VFR_HUD
[00:55:50.269651] [105] SYSTEM_TIME
[00:55:50.697674] [106] VFR_HUD
[00:55:50.806691] [39] RADIO
[00:55:50.809706] [39] RADIO_STATUS
[00:55:50.840752] [107] HEARTBEAT
[00:55:51.506720] [108] VFR_HUD
[00:55:51.856862] [109] HEARTBEAT
[00:55:51.863737] [110] ATTITUDE_TARGET
[00:55:51.873739] [40] RADIO
[00:55:51.876710] [40] RADIO_STATUS
[00:55:52.306815] [111] VFR_HUD
[00:55:52.875844] [41] RADIO
[00:55:52.878848] [41] RADIO_STATUS
[00:55:52.909948] [112] HEARTBEAT
[00:55:53.116934] [113] VFR_HUD
[00:55:53.807010] [114] HEARTBEAT
[00:55:53.936030] [115] SYS_STATUS
[00:55:53.944018] [116] BATTERY_STATUS
[00:55:53.946978] [42] RADIO
[00:55:53.949962] [42] RADIO_STATUS
[00:55:54.053000] [117] ATTITUDE_TARGET
[00:55:54.058023] [118] VFR_HUD
[00:55:54.726074] [119] VFR_HUD
[00:55:54.832119] [120] HEARTBEAT
[00:55:54.863126] [43] RADIO
[00:55:54.866061] [43] RADIO_STATUS
[00:55:55.421323] [121] VFR_HUD
[00:55:55.865221] [44] RADIO
[00:55:55.868214] [44] RADIO_STATUS
[00:55:55.913278] [122] HEARTBEAT
[00:55:55.920329] [123] ATTITUDE_TARGET
[00:55:56.341338] [124] VFR_HUD
[00:55:56.901395] [125] HEARTBEAT
[00:55:56.932364] [45] RADIO
[00:55:56.935304] [45] RADIO_STATUS
[00:55:57.025423] [126] VFR_HUD
[00:55:57.833468] [127] HEARTBEAT
[00:55:57.839455] [128] SYS_STATUS
[00:55:57.852531] [46] RADIO
[00:55:57.855500] [46] RADIO_STATUS
[00:55:57.959518] [129] BATTERY_STATUS
[00:55:58.071561] [130] ATTITUDE_TARGET
[00:55:58.076593] [131] VFR_HUD
[00:55:58.634625] [132] VFR_HUD
[00:55:58.854736] [47] RADIO
[00:55:58.856611] [47] RADIO_STATUS
[00:55:58.888613] [133] HEARTBEAT
[00:55:59.434622] [134] VFR_HUD
[00:55:59.903855] [135] HEARTBEAT
[00:55:59.911848] [136] ATTITUDE_TARGET
[00:55:59.921678] [48] RADIO
[00:55:59.924703] [48] RADIO_STATUS
[00:56:00.244754] [137] VFR_HUD
[00:56:00.923874] [49] RADIO
[00:56:00.926771] [49] RADIO_STATUS
[00:56:00.957836] [138] HEARTBEAT
[00:56:01.043909] [139] VFR_HUD
[00:56:01.860964] [140] HEARTBEAT
[00:56:01.868175] [141] SYS_STATUS
[00:56:01.987039] [142] BATTERY_STATUS
[00:56:01.994916] [143] ATTITUDE_TARGET
[00:56:02.024955] [144] VFR_HUD
[00:56:02.052005] [50] RADIO
[00:56:02.054880] [50] RADIO_STATUS
[00:56:02.654159] [145] VFR_HUD
[00:56:02.879104] [146] HEARTBEAT
[00:56:02.993028] [51] RADIO
[00:56:02.995964] [51] RADIO_STATUS
[00:56:03.468097] [147] VFR_HUD
[00:56:03.912234] [52] RADIO
[00:56:03.915042] [52] RADIO_STATUS
[00:56:03.960172] [148] HEARTBEAT
[00:56:03.968175] [149] ATTITUDE_TARGET
[00:56:04.263163] [150] VFR_HUD
[00:56:04.838282] [151] HEARTBEAT
[00:56:04.951267] [53] RADIO
[00:56:04.954353] [53] RADIO_STATUS
[00:56:05.077324] [152] VFR_HUD
[00:56:05.879449] [153] HEARTBEAT
[00:56:05.886384] [154] SYS_STATUS
[00:56:05.981391] [54] RADIO
[00:56:05.983338] [54] RADIO_STATUS
[00:56:06.050482] [155] BATTERY_STATUS
[00:56:06.058401] [156] ATTITUDE_TARGET
[00:56:06.063406] [157] VFR_HUD
[00:56:06.900545] [55] RADIO
[00:56:06.903417] [55] RADIO_STATUS
[00:56:07.026504] [158] VFR_HUD
[00:56:07.029536] [159] HEARTBEAT
[00:56:07.480618] [160] VFR_HUD
[00:56:07.839681] [161] HEARTBEAT
[00:56:07.847702] [162] ATTITUDE_TARGET
[00:56:08.049716] [56] RADIO
[00:56:08.052709] [56] RADIO_STATUS
[00:56:08.289666] [163] VFR_HUD
[00:56:08.855820] [164] HEARTBEAT
[00:56:08.968890] [57] RADIO
[00:56:08.971747] [57] RADIO_STATUS
[00:56:09.089822] [165] VFR_HUD
[00:56:09.906927] [166] HEARTBEAT
[00:56:09.913840] [167] SYS_STATUS
[00:56:10.034864] [168] BATTERY_STATUS
[00:56:10.036772] [169] EXTENDED_SYS_STATE
[00:56:10.044923] [170] ATTITUDE_TARGET
[00:56:10.049814] [171] VFR_HUD
[00:56:10.052797] [172] SYSTEM_TIME
[00:56:10.075856] [58] RADIO
[00:56:10.078810] [58] RADIO_STATUS
[00:56:10.699835] [173] VFR_HUD
[00:56:10.813954] [174] HEARTBEAT
[00:56:10.928061] [59] RADIO
[00:56:10.931037] [59] RADIO_STATUS
[00:56:11.508103] [175] VFR_HUD
[00:56:11.857258] [176] HEARTBEAT
[00:56:11.865176] [177] ATTITUDE_TARGET
[00:56:11.957088] [60] RADIO
[00:56:11.960066] [60] RADIO_STATUS
[00:56:12.308234] [178] VFR_HUD
[00:56:12.883384] [179] HEARTBEAT
[00:56:12.996231] [61] RADIO
[00:56:12.999302] [61] RADIO_STATUS
[00:56:13.117358] [180] VFR_HUD
[00:56:13.807398] [181] HEARTBEAT
[00:56:13.937447] [182] SYS_STATUS
[00:56:13.944347] [183] BATTERY_STATUS
[00:56:13.947287] [62] RADIO
[00:56:13.950411] [62] RADIO_STATUS
[00:56:14.053357] [184] ATTITUDE_TARGET
[00:56:14.058371] [185] VFR_HUD
[00:56:14.732369] [186] VFR_HUD
[00:56:14.843534] [187] HEARTBEAT
[00:56:14.945551] [63] RADIO
[00:56:14.948429] [63] RADIO_STATUS
[00:56:15.416723] [188] VFR_HUD
[00:56:15.890572] [189] HEARTBEAT
[00:56:15.898615] [190] ATTITUDE_TARGET
[00:56:15.990617] [64] RADIO
[00:56:15.993591] [64] RADIO_STATUS
[00:56:16.341731] [191] VFR_HUD
[00:56:16.901673] [192] HEARTBEAT
[00:56:17.015667] [65] RADIO
[00:56:17.017682] [65] RADIO_STATUS
[00:56:17.135726] [193] VFR_HUD
[00:56:17.832738] [194] HEARTBEAT
[00:56:17.839726] [195] SYS_STATUS
[00:56:17.959749] [196] BATTERY_STATUS
[00:56:18.071782] [197] ATTITUDE_TARGET
[00:56:18.076758] [198] VFR_HUD
[00:56:18.082794] [66] RADIO
[00:56:18.084722] [66] RADIO_STATUS
[00:56:18.634916] [199] VFR_HUD
[00:56:18.865885] [200] HEARTBEAT
[00:56:18.979033] [67] RADIO
[00:56:18.981798] [67] RADIO_STATUS
[00:56:19.434931] [201] VFR_HUD
[00:56:19.904020] [202] HEARTBEAT
[00:56:19.912075] [203] ATTITUDE_TARGET
[00:56:20.004111] [68] RADIO
[00:56:20.006979] [68] RADIO_STATUS
[00:56:20.244078] [204] VFR_HUD
[00:56:20.935246] [205] HEARTBEAT
[00:56:21.047560] [206] VFR_HUD
[00:56:21.076229] [69] RADIO
[00:56:21.079073] [69] RADIO_STATUS
[00:56:21.866377] [207] HEARTBEAT
[00:56:21.873198] [208] SYS_STATUS
[00:56:21.912328] [209] BATTERY_STATUS
[00:56:21.920341] [210] ATTITUDE_TARGET
[00:56:21.925268] [211] VFR_HUD
[00:56:21.968216] [70] RADIO
[00:56:21.971230] [70] RADIO_STATUS
[00:56:22.889365] [212] VFR_HUD
[00:56:22.892334] [213] HEARTBEAT
[00:56:22.992372] [71] RADIO
[00:56:22.995336] [71] RADIO_STATUS
[00:56:23.468507] [214] VFR_HUD
[00:56:23.936485] [215] HEARTBEAT
[00:56:23.944456] [216] ATTITUDE_TARGET
[00:56:24.036496] [72] RADIO
[00:56:24.039552] [72] RADIO_STATUS
[00:56:24.262583] [217] VFR_HUD
[00:56:24.837638] [218] HEARTBEAT
[00:56:25.061878] [73] RADIO
[00:56:25.063579] [73] RADIO_STATUS
[00:56:25.099618] [219] VFR_HUD
[00:56:25.878699] [220] HEARTBEAT
[00:56:25.885757] [221] SYS_STATUS
[00:56:25.985818] [74] RADIO
[00:56:25.988690] [74] RADIO_STATUS
[00:56:26.049859] [222] BATTERY_STATUS
[00:56:26.057720] [223] ATTITUDE_TARGET
[00:56:26.062676] [224] VFR_HUD
[00:56:26.916795] [225] VFR_HUD
[00:56:26.919758] [226] HEARTBEAT
[00:56:27.129853] [75] RADIO
[00:56:27.132768] [75] RADIO_STATUS
[00:56:27.480901] [227] VFR_HUD
[00:56:27.839982] [228] HEARTBEAT
[00:56:27.847972] [229] ATTITUDE_TARGET
[00:56:28.050004] [76] RADIO
[00:56:28.053012] [76] RADIO_STATUS
[00:56:28.290008] [230] VFR_HUD
[00:56:28.855085] [231] HEARTBEAT
[00:56:29.089096] [232] VFR_HUD
[00:56:29.122121] [77] RADIO
[00:56:29.126810] [77] RADIO_STATUS
[00:56:29.906215] [233] HEARTBEAT
[00:56:29.913205] [234] SYS_STATUS
[00:56:30.035201] [235] BATTERY_STATUS
[00:56:30.037252] [236] EXTENDED_SYS_STATE
[00:56:30.044145] [237] ATTITUDE_TARGET
[00:56:30.049156] [238] VFR_HUD
[00:56:30.053149] [239] SYSTEM_TIME
[00:56:30.075392] [78] RADIO
[00:56:30.078260] [78] RADIO_STATUS
[00:56:30.699353] [240] VFR_HUD
[00:56:30.814423] [241] HEARTBEAT
[00:56:31.038323] [79] RADIO
[00:56:31.041325] [79] RADIO_STATUS
[00:56:31.508320] [242] VFR_HUD
[00:56:31.857401] [243] HEARTBEAT
[00:56:31.865376] [244] ATTITUDE_TARGET
[00:56:32.077397] [80] RADIO
[00:56:32.080387] [80] RADIO_STATUS
[00:56:32.309542] [245] VFR_HUD
[00:56:32.883610] [246] HEARTBEAT
[00:56:33.107620] [81] RADIO
[00:56:33.110537] [81] RADIO_STATUS
[00:56:33.145548] [247] VFR_HUD
[00:56:33.803668] [248] HEARTBEAT
[00:56:33.823641] [249] SYS_STATUS
[00:56:33.866641] [250] BATTERY_STATUS
[00:56:33.875042] [251] ATTITUDE_TARGET
[00:56:33.879633] [252] VFR_HUD
[00:56:34.146666] [82] RADIO
[00:56:34.149642] [82] RADIO_STATUS
[00:56:34.842800] [253] VFR_HUD
[00:56:34.845748] [254] HEARTBEAT
[00:56:35.066858] [83] RADIO
[00:56:35.069726] [83] RADIO_STATUS
[00:56:35.416846] [255] VFR_HUD
[00:56:35.887961] [0] HEARTBEAT
[00:56:35.894667] [1] ATTITUDE_TARGET
[00:56:36.095878] [84] RADIO
[00:56:36.098833] [84] RADIO_STATUS
[00:56:36.216845] [2] VFR_HUD
[00:56:36.901967] [3] HEARTBEAT
[00:56:37.026950] [4] VFR_HUD
[00:56:37.136110] [85] RADIO
[00:56:37.138937] [85] RADIO_STATUS
[00:56:37.834163] [5] HEARTBEAT
[00:56:37.841072] [6] SYS_STATUS
[00:56:37.955076] [7] BATTERY_STATUS
[00:56:38.073071] [8] ATTITUDE_TARGET
[00:56:38.078176] [9] VFR_HUD
[00:56:38.084051] [86] RADIO
[00:56:38.087040] [86] RADIO_STATUS
[00:56:38.636130] [10] VFR_HUD
[00:56:38.867292] [11] HEARTBEAT
[00:56:39.085213] [87] RADIO
[00:56:39.088135] [87] RADIO_STATUS
[00:56:39.435207] [12] VFR_HUD
[00:56:39.904276] [13] HEARTBEAT
[00:56:39.912322] [14] ATTITUDE_TARGET
[00:56:40.127163] [88] RADIO
[00:56:40.127484] [88] RADIO_STATUS
[00:56:40.250391] [15] VFR_HUD
[00:56:40.810500] [16] HEARTBEAT
[00:56:41.044508] [17] VFR_HUD
[00:56:41.078725] [89] RADIO
[00:56:41.080398] [89] RADIO_STATUS
[00:56:41.866523] [18] HEARTBEAT
[00:56:41.873492] [19] SYS_STATUS
[00:56:41.913527] [20] BATTERY_STATUS
[00:56:41.921571] [21] ATTITUDE_TARGET
[00:56:41.925459] [22] VFR_HUD
[00:56:42.193661] [90] RADIO
[00:56:42.196569] [90] RADIO_STATUS
[00:56:42.889629] [23] VFR_HUD
[00:56:42.892611] [24] HEARTBEAT
[00:56:43.118674] [91] RADIO
[00:56:43.121674] [91] RADIO_STATUS
[00:56:43.468690] [25] VFR_HUD
[00:56:43.937813] [26] HEARTBEAT
[00:56:43.945726] [27] ATTITUDE_TARGET
[00:56:44.142749] [92] RADIO
[00:56:44.145699] [92] RADIO_STATUS
[00:56:44.263789] [28] VFR_HUD
[00:56:44.843853] [29] HEARTBEAT
[00:56:45.072834] [30] VFR_HUD
[00:56:45.181952] [93] RADIO
[00:56:45.184939] [93] RADIO_STATUS
[00:56:45.879971] [31] HEARTBEAT
[00:56:45.886958] [32] SYS_STATUS
[00:56:46.006953] [33] BATTERY_STATUS
[00:56:46.119032] [34] ATTITUDE_TARGET
[00:56:46.124082] [35] VFR_HUD
[00:56:46.158126] [94] RADIO
[00:56:46.160941] [94] RADIO_STATUS
[00:56:46.682199] [36] VFR_HUD
[00:56:46.913101] [37] HEARTBEAT
[00:56:47.131051] [95] RADIO
[00:56:47.134120] [95] RADIO_STATUS
[00:56:47.482227] [38] VFR_HUD
[00:56:47.841248] [39] HEARTBEAT
[00:56:47.848214] [40] ATTITUDE_TARGET
[00:56:48.176216] [96] RADIO
[00:56:48.179242] [96] RADIO_STATUS
[00:56:48.291269] [41] VFR_HUD
[00:56:48.856301] [42] HEARTBEAT
[00:56:49.090291] [43] VFR_HUD
[00:56:49.123354] [97] RADIO
[00:56:49.126765] [97] RADIO_STATUS
[00:56:49.908554] [44] HEARTBEAT
[00:56:49.914419] [45] SYS_STATUS
[00:56:50.036478] [46] BATTERY_STATUS
[00:56:50.038389] [47] EXTENDED_SYS_STATE
[00:56:50.046430] [48] ATTITUDE_TARGET
[00:56:50.050395] [49] VFR_HUD
[00:56:50.054412] [50] SYSTEM_TIME
[00:56:50.124463] [98] RADIO
[00:56:50.127809] [98] RADIO_STATUS
[00:56:50.700485] [51] VFR_HUD
[00:56:50.815664] [52] HEARTBEAT
[00:56:51.164701] [99] RADIO
[00:56:51.167663] [99] RADIO_STATUS
[00:56:51.514652] [53] VFR_HUD
[00:56:51.858658] [54] HEARTBEAT
[00:56:51.866649] [55] ATTITUDE_TARGET
[00:56:52.188672] [100] RADIO
[00:56:52.191664] [100] RADIO_STATUS
[00:56:52.227683] [56] VFR_HUD
[00:56:52.884823] [57] HEARTBEAT
[00:56:53.123746] [58] VFR_HUD
[00:56:53.244875] [101] RADIO
[00:56:53.247776] [101] RADIO_STATUS
[00:56:53.803916] [59] HEARTBEAT
[00:56:53.823918] [60] SYS_STATUS
[00:56:53.867890] [61] BATTERY_STATUS
[00:56:53.875936] [62] ATTITUDE_TARGET
[00:56:53.879880] [63] VFR_HUD
[00:56:54.147934] [102] RADIO
[00:56:54.150911] [102] RADIO_STATUS
[00:56:54.844050] [64] VFR_HUD
[00:56:54.847073] [65] HEARTBEAT
[00:56:55.177103] [103] RADIO
[00:56:55.180072] [103] RADIO_STATUS
[00:56:55.418336] [66] VFR_HUD
[00:56:55.887261] [67] HEARTBEAT
[00:56:55.894165] [68] ATTITUDE_TARGET
[00:56:56.217210] [69] VFR_HUD
[00:56:56.250155] [104] RADIO
[00:56:56.252232] [104] RADIO_STATUS
[00:56:56.903361] [70] HEARTBEAT
[00:56:57.027329] [71] VFR_HUD
[00:56:57.246287] [105] RADIO
[00:56:57.249278] [105] RADIO_STATUS
[00:56:57.834404] [72] HEARTBEAT
[00:56:57.841442] [73] SYS_STATUS
[00:56:57.955409] [74] BATTERY_STATUS
[00:56:58.073408] [75] ATTITUDE_TARGET
[00:56:58.078367] [76] VFR_HUD
[00:56:58.166378] [106] RADIO
[00:56:58.169448] [106] RADIO_STATUS
[00:56:58.641560] [77] VFR_HUD
[00:56:58.861600] [78] HEARTBEAT
[00:56:59.205562] [107] RADIO
[00:56:59.208548] [107] RADIO_STATUS
[00:56:59.436571] [79] VFR_HUD
[00:56:59.905664] [80] HEARTBEAT
[00:56:59.912650] [81] ATTITUDE_TARGET
[00:57:00.235664] [108] RADIO
[00:57:00.237664] [108] RADIO_STATUS
[00:57:00.273626] [82] VFR_HUD
[00:57:00.811192] [83] HEARTBEAT
[00:57:01.045690] [84] VFR_HUD
[00:57:01.274737] [109] RADIO
[00:57:01.277705] [109] RADIO_STATUS
[00:57:01.867778] [85] HEARTBEAT
[00:57:01.879441] [86] SYS_STATUS
[00:57:01.913804] [87] BATTERY_STATUS
[00:57:01.921784] [88] ATTITUDE_TARGET
[00:57:01.926806] [89] VFR_HUD
[00:57:02.193806] [110] RADIO
[00:57:02.196732] [110] RADIO_STATUS
[00:57:02.889957] [90] VFR_HUD
[00:57:02.892953] [91] HEARTBEAT
[00:57:03.223948] [111] RADIO
[00:57:03.226942] [111] RADIO_STATUS
[00:57:03.463948] [92] VFR_HUD
[00:57:03.800064] [93] HEARTBEAT
[00:57:03.938024] [94] ATTITUDE_TARGET
[00:57:04.264076] [95] VFR_HUD
[00:57:04.291045] [112] RADIO
[00:57:04.294058] [112] RADIO_STATUS
[00:57:04.844175] [96] HEARTBEAT
[00:57:05.073198] [97] VFR_HUD
[00:57:05.292256] [113] RADIO
[00:57:05.295187] [113] RADIO_STATUS
[00:57:05.880292] [98] HEARTBEAT
[00:57:05.887246] [99] SYS_STATUS
[00:57:06.007252] [100] BATTERY_STATUS
[00:57:06.119411] [101] ATTITUDE_TARGET
[00:57:06.124265] [102] VFR_HUD
[00:57:06.212393] [114] RADIO
[00:57:06.215372] [114] RADIO_STATUS
[00:57:06.682346] [103] VFR_HUD
[00:57:06.913456] [104] HEARTBEAT
[00:57:07.251441] [115] RADIO
[00:57:07.254389] [115] RADIO_STATUS
[00:57:07.482516] [105] VFR_HUD
[00:57:07.846511] [106] HEARTBEAT
[00:57:07.854604] [107] ATTITUDE_TARGET
[00:57:08.281622] [116] RADIO
[00:57:08.284467] [116] RADIO_STATUS
[00:57:08.401511] [108] VFR_HUD
[00:57:08.856764] [109] HEARTBEAT
[00:57:09.091630] [110] VFR_HUD
[00:57:09.200662] [117] RADIO
[00:57:09.203641] [117] RADIO_STATUS
[00:57:09.913705] [111] HEARTBEAT
[00:57:09.920785] [112] SYS_STATUS
[00:57:09.954696] [113] BATTERY_STATUS
[00:57:09.956717] [114] EXTENDED_SYS_STATE
[00:57:09.964719] [115] ATTITUDE_TARGET
[00:57:09.969690] [116] VFR_HUD
[00:57:09.972674] [117] SYSTEM_TIME
[00:57:10.239829] [118] RADIO
[00:57:10.242682] [118] RADIO_STATUS
[00:57:10.700811] [118] VFR_HUD
[00:57:10.815791] [119] HEARTBEAT
[00:57:11.269803] [119] RADIO
[00:57:11.272843] [119] RADIO_STATUS
[00:57:11.514874] [120] VFR_HUD
[00:57:11.859212] [121] HEARTBEAT
[00:57:11.866904] [122] ATTITUDE_TARGET
[00:57:12.309977] [123] VFR_HUD
[00:57:12.336960] [120] RADIO
[00:57:12.339911] [120] RADIO_STATUS
[00:57:12.885904] [124] HEARTBEAT
[00:57:13.125097] [125] VFR_HUD
[00:57:13.245014] [121] RADIO
[00:57:13.248011] [121] RADIO_STATUS
[00:57:13.817179] [126] HEARTBEAT
[00:57:13.823163] [127] SYS_STATUS
[00:57:13.943109] [128] BATTERY_STATUS
[00:57:13.950210] [129] ATTITUDE_TARGET
[00:57:13.980299] [130] VFR_HUD
[00:57:14.258255] [122] RADIO
[00:57:14.261185] [122] RADIO_STATUS
[00:57:14.609322] [131] VFR_HUD
[00:57:14.834300] [132] HEARTBEAT
[00:57:15.303432] [123] RADIO
[00:57:15.306429] [123] RADIO_STATUS
[00:57:15.418384] [133] VFR_HUD
[00:57:15.887542] [134] HEARTBEAT
[00:57:15.895438] [135] ATTITUDE_TARGET
[00:57:16.218621] [136] VFR_HUD
[00:57:16.250599] [124] RADIO
[00:57:16.253429] [124] RADIO_STATUS
[00:57:16.903666] [137] HEARTBEAT
[00:57:17.032605] [138] VFR_HUD
[00:57:17.246777] [125] RADIO
[00:57:17.249696] [125] RADIO_STATUS
[00:57:17.834752] [139] HEARTBEAT
[00:57:17.841750] [140] SYS_STATUS
[00:57:17.955747] [141] BATTERY_STATUS
[00:57:18.073817] [142] ATTITUDE_TARGET
[00:57:18.078895] [143] VFR_HUD
[00:57:18.318912] [126] RADIO
[00:57:18.321792] [126] RADIO_STATUS
[00:57:18.641832] [144] VFR_HUD
[00:57:18.864323] [145] HEARTBEAT
[00:57:19.316005] [127] RADIO
[00:57:19.318869] [127] RADIO_STATUS
[00:57:19.436044] [146] VFR_HUD
[00:57:19.905111] [147] HEARTBEAT
[00:57:19.912980] [148] ATTITUDE_TARGET
[00:57:20.251110] [149] VFR_HUD
[00:57:20.372058] [128] RADIO
[00:57:20.375061] [128] RADIO_STATUS
[00:57:20.811156] [150] HEARTBEAT
[00:57:21.046137] [151] VFR_HUD
[00:57:21.280156] [129] RADIO
[00:57:21.283147] [129] RADIO_STATUS
[00:57:21.862367] [152] HEARTBEAT
[00:57:21.869459] [153] SYS_STATUS
[00:57:21.988306] [154] BATTERY_STATUS
[00:57:21.996232] [155] ATTITUDE_TARGET
[00:57:22.026375] [156] VFR_HUD
[00:57:22.304252] [130] RADIO
[00:57:22.307222] [130] RADIO_STATUS
[00:57:22.655441] [157] VFR_HUD
[00:57:22.880385] [158] HEARTBEAT
[00:57:23.349481] [131] RADIO
[00:57:23.352381] [131] RADIO_STATUS
[00:57:23.464431] [159] VFR_HUD
[00:57:23.933502] [160] HEARTBEAT
[00:57:23.941482] [161] ATTITUDE_TARGET
[00:57:24.264512] [162] VFR_HUD
[00:57:24.291884] [132] RADIO
[00:57:24.294477] [132] RADIO_STATUS
[00:57:24.844638] [163] HEARTBEAT
[00:57:25.073637] [164] VFR_HUD
[00:57:25.292705] [133] RADIO
[00:57:25.295612] [133] RADIO_STATUS
[00:57:25.880678] [165] HEARTBEAT
[00:57:25.887643] [166] SYS_STATUS
[00:57:26.002835] [167] BATTERY_STATUS
[00:57:26.119721] [168] ATTITUDE_TARGET
[00:57:26.124706] [169] VFR_HUD
[00:57:26.359774] [134] RADIO
[00:57:26.362884] [134] RADIO_STATUS
[00:57:26.682888] [170] VFR_HUD
[00:57:26.913973] [171] HEARTBEAT
[00:57:27.361887] [135] RADIO
[00:57:27.364939] [135] RADIO_STATUS
[00:57:27.483006] [172] VFR_HUD
[00:57:27.846980] [173] HEARTBEAT
[00:57:27.854971] [174] ATTITUDE_TARGET
[00:57:28.297014] [175] VFR_HUD
[00:57:28.418000] [136] RADIO
[00:57:28.420966] [136] RADIO_STATUS
[00:57:28.858108] [176] HEARTBEAT
[00:57:29.092116] [177] VFR_HUD
[00:57:29.321199] [137] RADIO
[00:57:29.324056] [137] RADIO_STATUS
[00:57:29.914174] [178] HEARTBEAT
[00:57:29.921123] [179] SYS_STATUS
[00:57:29.955193] [180] BATTERY_STATUS
[00:57:29.957178] [181] EXTENDED_SYS_STATE
[00:57:29.965203] [182] ATTITUDE_TARGET
[00:57:29.970170] [183] VFR_HUD
[00:57:29.973151] [184] SYSTEM_TIME
[00:57:30.350306] [138] RADIO
[00:57:30.353166] [138] RADIO_STATUS
[00:57:30.701384] [185] VFR_HUD
[00:57:30.821310] [186] HEARTBEAT
[00:57:31.390272] [139] RADIO
[00:57:31.393273] [139] RADIO_STATUS
[00:57:31.516345] [187] VFR_HUD
[00:57:31.859700] [188] HEARTBEAT
[00:57:31.867375] [189] ATTITUDE_TARGET
[00:57:32.310473] [190] VFR_HUD
[00:57:32.337422] [140] RADIO
[00:57:32.340379] [140] RADIO_STATUS
[00:57:32.890659] [191] HEARTBEAT
[00:57:33.119509] [192] VFR_HUD
[00:57:33.338511] [141] RADIO
[00:57:33.341485] [141] RADIO_STATUS
[00:57:33.926687] [193] HEARTBEAT
[00:57:33.933688] [194] SYS_STATUS
[00:57:34.053672] [195] BATTERY_STATUS
[00:57:34.165692] [196] ATTITUDE_TARGET
[00:57:34.170828] [197] VFR_HUD
[00:57:34.378683] [142] RADIO
[00:57:34.381650] [142] RADIO_STATUS
[00:57:34.609838] [198] VFR_HUD
[00:57:34.833757] [199] HEARTBEAT
[00:57:35.407809] [143] RADIO
[00:57:35.410788] [143] RADIO_STATUS
[00:57:35.445803] [200] VFR_HUD
[00:57:35.887948] [201] HEARTBEAT
[00:57:35.894902] [202] ATTITUDE_TARGET
[00:57:36.217902] [203] VFR_HUD
[00:57:36.326948] [144] RADIO
[00:57:36.330012] [144] RADIO_STATUS
[00:57:36.903122] [204] HEARTBEAT
[00:57:37.033001] [205] VFR_HUD
[00:57:37.367045] [145] RADIO
[00:57:37.369994] [145] RADIO_STATUS
[00:57:37.835166] [206] HEARTBEAT
[00:57:37.842098] [207] SYS_STATUS
[00:57:37.956105] [208] BATTERY_STATUS
[00:57:38.074172] [209] ATTITUDE_TARGET
[00:57:38.079162] [210] VFR_HUD
[00:57:38.396180] [146] RADIO
[00:57:38.399234] [146] RADIO_STATUS
[00:57:38.642177] [211] VFR_HUD
[00:57:38.862312] [212] HEARTBEAT
[00:57:39.436249] [213] VFR_HUD
[00:57:39.463243] [147] RADIO
[00:57:39.466199] [147] RADIO_STATUS
[00:57:39.905447] [214] HEARTBEAT
[00:57:39.913324] [215] ATTITUDE_TARGET
[00:57:40.246414] [216] VFR_HUD
[00:57:40.360387] [148] RADIO
[00:57:40.363326] [148] RADIO_STATUS
[00:57:40.811411] [217] HEARTBEAT
[00:57:41.045617] [218] VFR_HUD
[00:57:41.384545] [149] RADIO
[00:57:41.387504] [149] RADIO_STATUS
[00:57:41.862586] [219] HEARTBEAT
[00:57:41.869714] [220] SYS_STATUS
[00:57:41.988639] [221] BATTERY_STATUS
[00:57:41.995570] [222] ATTITUDE_TARGET
[00:57:42.026570] [223] VFR_HUD
[00:57:42.429665] [150] RADIO
[00:57:42.432567] [150] RADIO_STATUS
[00:57:42.654762] [224] VFR_HUD
[00:57:42.880671] [225] HEARTBEAT
[00:57:43.453723] [151] RADIO
[00:57:43.456679] [151] RADIO_STATUS
[00:57:43.574740] [226] VFR_HUD
[00:57:43.804933] [227] HEARTBEAT
[00:57:43.827986] [228] ATTITUDE_TARGET
[00:57:44.263903] [229] VFR_HUD
[00:57:44.373929] [152] RADIO
[00:57:44.376914] [152] RADIO_STATUS
[00:57:44.840005] [230] HEARTBEAT
[00:57:45.073944] [231] VFR_HUD
[00:57:45.418009] [153] RADIO
[00:57:45.421022] [153] RADIO_STATUS
[00:57:45.881089] [232] HEARTBEAT
[00:57:45.888145] [233] SYS_STATUS
[00:57:46.002079] [234] BATTERY_STATUS
[00:57:46.120068] [235] ATTITUDE_TARGET
[00:57:46.128208] [236] VFR_HUD
[00:57:46.442119] [154] RADIO
[00:57:46.445126] [154] RADIO_STATUS
[00:57:46.688111] [237] VFR_HUD
[00:57:46.800253] [238] HEARTBEAT
[00:57:47.482230] [239] VFR_HUD
[00:57:47.515175] [155] RADIO
[00:57:47.518161] [155] RADIO_STATUS
[00:57:47.847217] [240] HEARTBEAT
[00:57:47.855398] [241] ATTITUDE_TARGET
[00:57:48.297275] [242] VFR_HUD
[00:57:48.418312] [156] RADIO
[00:57:48.421283] [156] RADIO_STATUS
[00:57:48.857425] [243] HEARTBEAT
[00:57:49.092373] [244] VFR_HUD
[00:57:49.431436] [157] RADIO
[00:57:49.434417] [157] RADIO_STATUS
[00:57:49.914510] [245] HEARTBEAT
[00:57:49.920503] [246] SYS_STATUS
[00:57:49.955532] [247] BATTERY_STATUS
[00:57:49.957644] [248] EXTENDED_SYS_STATE
[00:57:49.964573] [249] ATTITUDE_TARGET
[00:57:49.969537] [250] VFR_HUD
[00:57:49.973447] [251] SYSTEM_TIME
[00:57:50.475741] [158] RADIO
[00:57:50.478582] [158] RADIO_STATUS
[00:57:50.701597] [252] VFR_HUD
[00:57:50.821809] [253] HEARTBEAT
[00:57:51.499868] [159] RADIO
[00:57:51.502753] [159] RADIO_STATUS
[00:57:51.620839] [254] VFR_HUD
[00:57:51.859808] [255] HEARTBEAT
[00:57:51.867787] [0] ATTITUDE_TARGET
[00:57:52.309853] [1] VFR_HUD
[00:57:52.419755] [160] RADIO
[00:57:52.422782] [160] RADIO_STATUS
[00:57:52.890925] [2] HEARTBEAT
[00:57:53.119887] [3] VFR_HUD
[00:57:53.459912] [161] RADIO
[00:57:53.461927] [161] RADIO_STATUS
[00:57:53.810077] [4] HEARTBEAT
[00:57:53.940052] [5] SYS_STATUS
[00:57:53.947028] [6] BATTERY_STATUS
[00:57:54.056114] [7] ATTITUDE_TARGET
[00:57:54.061085] [8] VFR_HUD
[00:57:54.489052] [162] RADIO
[00:57:54.492091] [162] RADIO_STATUS
[00:57:54.614134] [9] VFR_HUD
[00:57:54.835158] [10] HEARTBEAT
[00:57:55.424198] [11] VFR_HUD
[00:57:55.540150] [163] RADIO
[00:57:55.543189] [163] RADIO_STATUS
[00:57:55.893357] [12] HEARTBEAT
[00:57:55.901207] [13] ATTITUDE_TARGET
[00:57:56.218256] [14] VFR_HUD
[00:57:56.448229] [164] RADIO
[00:57:56.451176] [164] RADIO_STATUS
[00:57:56.904287] [15] HEARTBEAT
[00:57:57.033428] [16] VFR_HUD
[00:57:57.477380] [165] RADIO
[00:57:57.480311] [165] RADIO_STATUS
[00:57:57.835456] [17] HEARTBEAT
[00:57:57.842520] [18] SYS_STATUS
[00:57:57.962537] [19] BATTERY_STATUS
[00:57:58.074457] [20] ATTITUDE_TARGET
[00:57:58.079722] [21] VFR_HUD
[00:57:58.516537] [166] RADIO
[00:57:58.519603] [166] RADIO_STATUS
[00:57:58.637537] [22] VFR_HUD
[00:57:58.862681] [23] HEARTBEAT
[00:57:59.437650] [24] VFR_HUD
[00:57:59.464661] [167] RADIO
[00:57:59.467610] [167] RADIO_STATUS
[00:57:59.906723] [25] HEARTBEAT
[00:57:59.913763] [26] ATTITUDE_TARGET
[00:58:00.246721] [27] VFR_HUD
[00:58:00.465819] [168] RADIO
[00:58:00.468847] [168] RADIO_STATUS
[00:58:00.811937] [28] HEARTBEAT
[00:58:01.046821] [29] VFR_HUD
[00:58:01.505930] [169] RADIO
[00:58:01.507943] [169] RADIO_STATUS
[00:58:01.863945] [30] HEARTBEAT
[00:58:01.869937] [31] SYS_STATUS
[00:58:01.988966] [32] BATTERY_STATUS
[00:58:01.996963] [33] ATTITUDE_TARGET
[00:58:02.026992] [34] VFR_HUD
[00:58:02.535038] [170] RADIO
[00:58:02.538106] [170] RADIO_STATUS
[00:58:02.656067] [35] VFR_HUD
[00:58:02.881094] [36] HEARTBEAT
[00:58:03.465128] [37] VFR_HUD
[00:58:03.574151] [171] RADIO
[00:58:03.577146] [171] RADIO_STATUS
[00:58:03.806213] [38] HEARTBEAT
[00:58:03.828223] [39] ATTITUDE_TARGET
[00:58:04.265218] [40] VFR_HUD
[00:58:04.494364] [172] RADIO
[00:58:04.497224] [172] RADIO_STATUS
[00:58:04.840319] [41] HEARTBEAT
[00:58:05.080288] [42] VFR_HUD
[00:58:05.523430] [173] RADIO
[00:58:05.526349] [173] RADIO_STATUS
[00:58:05.881443] [43] HEARTBEAT
[00:58:05.888419] [44] SYS_STATUS
[00:58:06.003466] [45] BATTERY_STATUS
[00:58:06.120474] [46] ATTITUDE_TARGET
[00:58:06.125457] [47] VFR_HUD
[00:58:06.563566] [174] RADIO
[00:58:06.566517] [174] RADIO_STATUS
[00:58:06.689583] [48] VFR_HUD
[00:58:06.800558] [49] HEARTBEAT
[00:58:07.483717] [50] VFR_HUD
[00:58:07.515671] [175] RADIO
[00:58:07.518596] [175] RADIO_STATUS
[00:58:07.847662] [51] HEARTBEAT
[00:58:07.855684] [52] ATTITUDE_TARGET
[00:58:08.299858] [53] VFR_HUD
[00:58:08.512863] [176] RADIO
[00:58:08.515815] [176] RADIO_STATUS
[00:58:08.858819] [54] HEARTBEAT
[00:58:09.092872] [55] VFR_HUD
[00:58:09.556875] [177] RADIO
[00:58:09.560917] [177] RADIO_STATUS
[00:58:09.909936] [56] HEARTBEAT
[00:58:09.916899] [57] SYS_STATUS
[00:58:10.038011] [58] BATTERY_STATUS
[00:58:10.040022] [59] EXTENDED_SYS_STATE
[00:58:10.048079] [60] ATTITUDE_TARGET
[00:58:10.052944] [61] VFR_HUD
[00:58:10.056027] [62] SYSTEM_TIME
[00:58:10.582026] [178] RADIO
[00:58:10.584085] [178] RADIO_STATUS
[00:58:10.702158] [63] VFR_HUD
[00:58:10.823091] [64] HEARTBEAT
[00:58:11.512119] [65] VFR_HUD
[00:58:11.626245] [179] RADIO
[00:58:11.629104] [179] RADIO_STATUS
[00:58:11.861229] [66] HEARTBEAT
[00:58:11.868166] [67] ATTITUDE_TARGET
[00:58:12.311263] [68] VFR_HUD
[00:58:12.545353] [180] RADIO
[00:58:12.548212] [180] RADIO_STATUS
[00:58:12.892285] [69] HEARTBEAT
[00:58:13.121414] [70] VFR_HUD
[00:58:13.570346] [181] RADIO
[00:58:13.573307] [181] RADIO_STATUS
[00:58:13.823404] [71] HEARTBEAT
[00:58:13.830394] [72] SYS_STATUS
[00:58:13.869418] [73] BATTERY_STATUS
[00:58:13.877382] [74] ATTITUDE_TARGET
[00:58:13.882359] [75] VFR_HUD
[00:58:14.614583] [182] RADIO
[00:58:14.617388] [182] RADIO_STATUS
[00:58:14.845510] [76] VFR_HUD
[00:58:14.848462] [77] HEARTBEAT
[00:58:15.424682] [78] VFR_HUD
[00:58:15.540772] [183] RADIO
[00:58:15.544229] [183] RADIO_STATUS
[00:58:15.893969] [79] HEARTBEAT
[00:58:15.901647] [80] ATTITUDE_TARGET
[00:58:16.219815] [81] VFR_HUD
[00:58:16.558721] [184] RADIO
[00:58:16.561666] [184] RADIO_STATUS
[00:58:16.904761] [82] HEARTBEAT
[00:58:17.033731] [83] VFR_HUD
[00:58:17.602829] [185] RADIO
[00:58:17.605798] [185] RADIO_STATUS
[00:58:17.835955] [84] HEARTBEAT
[00:58:17.842974] [85] SYS_STATUS
[00:58:17.962886] [86] BATTERY_STATUS
[00:58:18.074935] [87] ATTITUDE_TARGET
[00:58:18.079958] [88] VFR_HUD
[00:58:18.626985] [186] RADIO
[00:58:18.629932] [186] RADIO_STATUS
[00:58:18.748012] [89] VFR_HUD
[00:58:18.869082] [90] HEARTBEAT
[00:58:19.437384] [91] VFR_HUD
[00:58:19.547125] [187] RADIO
[00:58:19.550097] [187] RADIO_STATUS
[00:58:19.907215] [92] HEARTBEAT
[00:58:19.914170] [93] ATTITUDE_TARGET
[00:58:20.247189] [94] VFR_HUD
[00:58:20.586234] [188] RADIO
[00:58:20.589191] [188] RADIO_STATUS
[00:58:20.812327] [95] HEARTBEAT
[00:58:21.046345] [96] VFR_HUD
[00:58:21.615345] [189] RADIO
[00:58:21.618278] [189] RADIO_STATUS
[00:58:21.863508] [97] HEARTBEAT
[00:58:21.870396] [98] SYS_STATUS
[00:58:21.989372] [99] BATTERY_STATUS
[00:58:21.997402] [100] ATTITUDE_TARGET
[00:58:22.027382] [101] VFR_HUD
[00:58:22.655431] [102] VFR_HUD
[00:58:22.682423] [190] RADIO
[00:58:22.685376] [190] RADIO_STATUS
[00:58:22.881619] [103] HEARTBEAT
[00:58:23.470534] [104] VFR_HUD
[00:58:23.585613] [191] RADIO
[00:58:23.588570] [191] RADIO_STATUS
[00:58:23.805666] [105] HEARTBEAT
[00:58:23.828557] [106] ATTITUDE_TARGET
[00:58:24.264661] [107] VFR_HUD
[00:58:24.603776] [192] RADIO
[00:58:24.606687] [192] RADIO_STATUS
[00:58:24.839836] [108] HEARTBEAT
[00:58:25.079727] [109] VFR_HUD
[00:58:25.643027] [193] RADIO
[00:58:25.645876] [193] RADIO_STATUS
[00:58:25.880815] [110] HEARTBEAT
[00:58:25.887855] [111] SYS_STATUS
[00:58:26.002899] [112] BATTERY_STATUS
[00:58:26.119821] [113] ATTITUDE_TARGET
[00:58:26.124869] [114] VFR_HUD
[00:58:26.672898] [194] RADIO
[00:58:26.675992] [194] RADIO_STATUS
[00:58:26.710898] [115] VFR_HUD
[00:58:26.908937] [116] HEARTBEAT
[00:58:27.483132] [117] VFR_HUD
[00:58:27.592109] [195] RADIO
[00:58:27.594980] [195] RADIO_STATUS
[00:58:27.842103] [118] HEARTBEAT
[00:58:27.850037] [119] ATTITUDE_TARGET
[00:58:28.293063] [120] VFR_HUD
[00:58:28.632075] [196] RADIO
[00:58:28.635054] [196] RADIO_STATUS
[00:58:28.858272] [121] HEARTBEAT
[00:58:29.092189] [122] VFR_HUD
[00:58:29.662148] [197] RADIO
[00:58:29.664246] [197] RADIO_STATUS
[00:58:29.911635] [123] HEARTBEAT
[00:58:29.916378] [124] SYS_STATUS
[00:58:30.038337] [125] BATTERY_STATUS
[00:58:30.039259] [126] EXTENDED_SYS_STATE
[00:58:30.047306] [127] ATTITUDE_TARGET
[00:58:30.052239] [128] VFR_HUD
[00:58:30.055376] [129] SYSTEM_TIME
[00:58:30.701400] [130] VFR_HUD
[00:58:30.728385] [198] RADIO
[00:58:30.731373] [198] RADIO_STATUS
[00:58:30.822412] [131] HEARTBEAT
[00:58:31.511487] [132] VFR_HUD
[00:58:31.620486] [199] RADIO
[00:58:31.623390] [199] RADIO_STATUS
[00:58:31.860777] [133] HEARTBEAT
[00:58:31.868448] [134] ATTITUDE_TARGET
[00:58:32.310533] [135] VFR_HUD
[00:58:32.649573] [200] RADIO
[00:58:32.652562] [200] RADIO_STATUS
[00:58:32.885709] [136] HEARTBEAT
[00:58:33.005664] [137] VFR_HUD
[00:58:33.689714] [201] RADIO
[00:58:33.694486] [201] RADIO_STATUS
[00:58:33.822734] [138] HEARTBEAT
[00:58:33.829896] [139] SYS_STATUS
[00:58:33.869764] [140] BATTERY_STATUS
[00:58:33.876818] [141] ATTITUDE_TARGET
[00:58:33.881762] [142] VFR_HUD
[00:58:34.614880] [202] RADIO
[00:58:34.617756] [202] RADIO_STATUS
[00:58:34.845936] [143] VFR_HUD
[00:58:34.848848] [144] HEARTBEAT
[00:58:35.424887] [145] VFR_HUD
[00:58:35.638920] [203] RADIO
[00:58:35.641943] [203] RADIO_STATUS
[00:58:35.894011] [146] HEARTBEAT
[00:58:35.901971] [147] ATTITUDE_TARGET
[00:58:36.219005] [148] VFR_HUD
[00:58:36.683032] [204] RADIO
[00:58:36.686054] [204] RADIO_STATUS
[00:58:36.904102] [149] HEARTBEAT
[00:58:37.029137] [150] VFR_HUD
[00:58:37.707195] [205] RADIO
[00:58:37.710179] [205] RADIO_STATUS
[00:58:37.836248] [151] HEARTBEAT
[00:58:37.842218] [152] SYS_STATUS
[00:58:37.962220] [153] BATTERY_STATUS
[00:58:38.074271] [154] ATTITUDE_TARGET
[00:58:38.079361] [155] VFR_HUD
[00:58:38.638364] [156] VFR_HUD
[00:58:38.752373] [206] RADIO
[00:58:38.755280] [206] RADIO_STATUS
[00:58:38.868367] [157] HEARTBEAT
[00:58:39.437507] [158] VFR_HUD
[00:58:39.671498] [207] RADIO
[00:58:39.674430] [207] RADIO_STATUS
[00:58:39.906605] [159] HEARTBEAT
[00:58:39.914445] [160] ATTITUDE_TARGET
[00:58:40.246430] [161] VFR_HUD
[00:58:40.695485] [208] RADIO
[00:58:40.698459] [208] RADIO_STATUS
[00:58:40.812552] [162] HEARTBEAT
[00:58:41.046555] [163] VFR_HUD
[00:58:41.740610] [209] RADIO
[00:58:41.743587] [209] RADIO_STATUS
[00:58:41.868695] [164] HEARTBEAT
[00:58:41.878748] [165] SYS_STATUS
[00:58:41.914694] [166] BATTERY_STATUS
[00:58:41.922656] [167] ATTITUDE_TARGET
[00:58:41.927673] [168] VFR_HUD
[00:58:42.660692] [210] RADIO
[00:58:42.662641] [210] RADIO_STATUS
[00:58:42.891763] [169] VFR_HUD
[00:58:42.894736] [170] HEARTBEAT
[00:58:43.470887] [171] VFR_HUD
[00:58:43.684787] [211] RADIO
[00:58:43.687732] [211] RADIO_STATUS
[00:58:43.800809] [172] HEARTBEAT
[00:58:43.823930] [173] ATTITUDE_TARGET
[00:58:44.264832] [174] VFR_HUD
[00:58:44.728912] [212] RADIO
[00:58:44.731880] [212] RADIO_STATUS
[00:58:44.839978] [175] HEARTBEAT
[00:58:45.080010] [176] VFR_HUD
[00:58:45.754078] [213] RADIO
[00:58:45.757078] [213] RADIO_STATUS
[00:58:45.882038] [177] HEARTBEAT
[00:58:45.889095] [178] SYS_STATUS
[00:58:46.009108] [179] BATTERY_STATUS
[00:58:46.121103] [180] ATTITUDE_TARGET
[00:58:46.126085] [181] VFR_HUD
[00:58:46.673097] [214] RADIO
[00:58:46.676126] [214] RADIO_STATUS
[00:58:46.794244] [182] VFR_HUD
[00:58:46.822159] [183] HEARTBEAT
[00:58:47.483294] [184] VFR_HUD
[00:58:47.712308] [215] RADIO
[00:58:47.715327] [215] RADIO_STATUS
[00:58:47.842377] [185] HEARTBEAT
[00:58:47.850476] [186] ATTITUDE_TARGET
[00:58:48.293375] [187] VFR_HUD
[00:58:48.745490] [216] RADIO
[00:58:48.748407] [216] RADIO_STATUS
[00:58:48.858557] [188] HEARTBEAT
[00:58:49.092567] [189] VFR_HUD
[00:58:49.781673] [217] RADIO
[00:58:49.784508] [217] RADIO_STATUS
[00:58:49.909628] [190] HEARTBEAT
[00:58:49.916586] [191] SYS_STATUS
[00:58:50.038714] [192] BATTERY_STATUS
[00:58:50.039521] [193] EXTENDED_SYS_STATE
[00:58:50.047644] [194] ATTITUDE_TARGET
[00:58:50.052507] [195] VFR_HUD
[00:58:50.056554] [196] SYSTEM_TIME
[00:58:50.701748] [197] VFR_HUD
[00:58:50.728673] [218] RADIO
[00:58:50.731601] [218] RADIO_STATUS
[00:58:50.817708] [198] HEARTBEAT
[00:58:51.511769] [199] VFR_HUD
[00:58:51.730881] [219] RADIO
[00:58:51.733733] [219] RADIO_STATUS
[00:58:51.860822] [200] HEARTBEAT
[00:58:51.868889] [201] ATTITUDE_TARGET
[00:58:52.310851] [202] VFR_HUD
[00:58:52.769911] [220] RADIO
[00:58:52.772852] [220] RADIO_STATUS
[00:58:52.886967] [203] HEARTBEAT
[00:58:53.125995] [204] VFR_HUD
[00:58:53.800181] [221] RADIO
[00:58:53.803050] [221] RADIO_STATUS
[00:58:53.860088] [205] HEARTBEAT
[00:58:53.866022] [206] SYS_STATUS
[00:58:53.874083] [207] BATTERY_STATUS
[00:58:53.886161] [208] ATTITUDE_TARGET
[00:58:53.891057] [209] VFR_HUD
[00:58:54.610237] [210] VFR_HUD
[00:58:54.720226] [222] RADIO
[00:58:54.722052] [222] RADIO_STATUS
[00:58:54.836286] [211] HEARTBEAT
[00:58:55.420236] [212] VFR_HUD
[00:58:55.759264] [223] RADIO
[00:58:55.762235] [223] RADIO_STATUS
[00:58:55.889261] [213] HEARTBEAT
[00:58:55.896254] [214] ATTITUDE_TARGET
[00:58:56.219232] [215] VFR_HUD
[00:58:56.788321] [224] RADIO
[00:58:56.791290] [224] RADIO_STATUS
[00:58:56.822371] [216] HEARTBEAT
[00:58:57.029335] [217] VFR_HUD
[00:58:57.836502] [218] HEARTBEAT
[00:58:57.843526] [219] SYS_STATUS
[00:58:57.938533] [225] RADIO
[00:58:57.940403] [225] RADIO_STATUS
[00:58:57.978444] [220] BATTERY_STATUS
[00:58:58.005603] [221] ATTITUDE_TARGET
[00:58:58.010494] [222] VFR_HUD
[00:58:58.638510] [223] VFR_HUD
[00:58:58.747570] [226] RADIO
[00:58:58.750622] [226] RADIO_STATUS
[00:58:58.868600] [224] HEARTBEAT
[00:58:59.437700] [225] VFR_HUD
[00:58:59.776666] [227] RADIO
[00:58:59.779662] [227] RADIO_STATUS
[00:58:59.824690] [226] HEARTBEAT
[00:58:59.832739] [227] ATTITUDE_TARGET
[00:59:00.252752] [228] VFR_HUD
[00:59:00.812918] [229] HEARTBEAT
[00:59:00.926846] [228] RADIO
[00:59:00.929804] [228] RADIO_STATUS
[00:59:01.046964] [230] VFR_HUD
[00:59:01.845909] [229] RADIO
[00:59:01.848903] [229] RADIO_STATUS
[00:59:01.905920] [231] HEARTBEAT
[00:59:01.911931] [232] SYS_STATUS
[00:59:01.919921] [233] BATTERY_STATUS
[00:59:01.932049] [234] ATTITUDE_TARGET
[00:59:01.936934] [235] VFR_HUD
[00:59:02.655957] [236] VFR_HUD
[00:59:02.765020] [230] RADIO
[00:59:02.767987] [230] RADIO_STATUS
[00:59:02.799076] [237] HEARTBEAT
[00:59:03.471155] [238] VFR_HUD
[00:59:03.801111] [239] HEARTBEAT
[00:59:03.824238] [240] ATTITUDE_TARGET
[00:59:03.857097] [231] RADIO
[00:59:03.860103] [231] RADIO_STATUS
[00:59:04.266274] [241] VFR_HUD
[00:59:04.834201] [232] RADIO
[00:59:04.837252] [232] RADIO_STATUS
[00:59:04.868212] [242] HEARTBEAT
[00:59:05.075225] [243] VFR_HUD
[00:59:05.882349] [244] HEARTBEAT
[00:59:05.889332] [245] SYS_STATUS
[00:59:05.902397] [233] RADIO
[00:59:05.905214] [233] RADIO_STATUS
[00:59:06.009352] [246] BATTERY_STATUS
[00:59:06.121399] [247] ATTITUDE_TARGET
[00:59:06.126296] [248] VFR_HUD
[00:59:06.684419] [249] VFR_HUD
[00:59:06.798518] [234] RADIO
[00:59:06.801397] [234] RADIO_STATUS
[00:59:06.915476] [250] HEARTBEAT
[00:59:07.484598] [251] VFR_HUD
[00:59:07.822549] [235] RADIO
[00:59:07.825636] [235] RADIO_STATUS
[00:59:07.952621] [252] HEARTBEAT
[00:59:07.960617] [253] ATTITUDE_TARGET
[00:59:08.293589] [254] VFR_HUD
[00:59:08.858762] [255] HEARTBEAT
[00:59:08.890684] [236] RADIO
[00:59:08.893682] [236] RADIO_STATUS
[00:59:09.093829] [0] VFR_HUD
[00:59:09.891902] [237] RADIO
[00:59:09.898077] [237] RADIO_STATUS
[00:59:10.019973] [1] HEARTBEAT
[00:59:10.026871] [2] SYS_STATUS
[00:59:10.149975] [3] BATTERY_STATUS
[00:59:10.151848] [4] EXTENDED_SYS_STATE
[00:59:10.183982] [5] ATTITUDE_TARGET
[00:59:10.188866] [6] VFR_HUD
[00:59:10.191904] [7] SYSTEM_TIME
[00:59:10.702976] [8] VFR_HUD
[00:59:10.812024] [238] RADIO
[00:59:10.815140] [238] RADIO_STATUS
[00:59:10.928168] [9] HEARTBEAT
[00:59:11.517039] [10] VFR_HUD
[00:59:11.861143] [11] HEARTBEAT
[00:59:11.869085] [12] ATTITUDE_TARGET
[00:59:11.879117] [239] RADIO
[00:59:11.882039] [239] RADIO_STATUS
[00:59:12.207146] [13] VFR_HUD
[00:59:12.880245] [240] RADIO
[00:59:12.883226] [240] RADIO_STATUS
[00:59:12.996275] [14] HEARTBEAT
[00:59:13.020276] [15] VFR_HUD
[00:59:13.818363] [16] HEARTBEAT
[00:59:13.825389] [17] SYS_STATUS
[00:59:13.943963] [18] BATTERY_STATUS
[00:59:13.951365] [19] ATTITUDE_TARGET
[00:59:13.981362] [20] VFR_HUD
[00:59:14.009312] [241] RADIO
[00:59:14.012323] [241] RADIO_STATUS
[00:59:14.611538] [21] VFR_HUD
[00:59:14.835482] [22] HEARTBEAT
[00:59:14.867441] [242] RADIO
[00:59:14.870419] [242] RADIO_STATUS
[00:59:15.420548] [23] VFR_HUD
[00:59:15.869591] [243] RADIO
[00:59:15.872546] [243] RADIO_STATUS
[00:59:15.998903] [24] HEARTBEAT
[00:59:16.006677] [25] ATTITUDE_TARGET
[00:59:16.219686] [26] VFR_HUD
[00:59:16.799812] [27] HEARTBEAT
[00:59:16.913766] [244] RADIO
[00:59:16.916677] [244] RADIO_STATUS
[00:59:17.029764] [28] VFR_HUD
[00:59:17.836862] [29] HEARTBEAT
[00:59:17.843875] [30] SYS_STATUS
[00:59:17.937928] [245] RADIO
[00:59:17.940845] [245] RADIO_STATUS
[00:59:17.978986] [31] BATTERY_STATUS
[00:59:18.005887] [32] ATTITUDE_TARGET
[00:59:18.010852] [33] VFR_HUD
[00:59:18.643925] [34] VFR_HUD
[00:59:18.865957] [246] RADIO
[00:59:18.868918] [246] RADIO_STATUS
[00:59:18.892027] [35] HEARTBEAT
[00:59:19.438017] [36] VFR_HUD
[00:59:19.907108] [37] HEARTBEAT
[00:59:19.915106] [38] ATTITUDE_TARGET
[00:59:20.007221] [247] RADIO
[00:59:20.010103] [247] RADIO_STATUS
[00:59:20.253156] [39] VFR_HUD
[00:59:20.813310] [40] HEARTBEAT
[00:59:20.927307] [248] RADIO
[00:59:20.929128] [248] RADIO_STATUS
[00:59:21.047246] [41] VFR_HUD
[00:59:21.869378] [42] HEARTBEAT
[00:59:21.876345] [43] SYS_STATUS
[00:59:21.916344] [44] BATTERY_STATUS
[00:59:21.924393] [45] ATTITUDE_TARGET
[00:59:21.929287] [46] VFR_HUD
[00:59:21.966302] [249] RADIO
[00:59:21.969313] [249] RADIO_STATUS
[00:59:22.892475] [47] VFR_HUD
[00:59:22.895462] [48] HEARTBEAT
[00:59:22.902413] [250] RADIO
[00:59:22.905409] [250] RADIO_STATUS
[00:59:23.466508] [49] VFR_HUD
[00:59:23.815567] [50] HEARTBEAT
[00:59:23.823644] [51] ATTITUDE_TARGET
[00:59:23.915556] [251] RADIO
[00:59:23.918596] [251] RADIO_STATUS
[00:59:24.265584] [52] VFR_HUD
[00:59:24.846724] [53] HEARTBEAT
[00:59:24.954697] [252] RADIO
[00:59:24.960172] [252] RADIO_STATUS
[00:59:25.075709] [54] VFR_HUD
[00:59:25.882797] [55] HEARTBEAT
[00:59:25.889810] [56] SYS_STATUS
[00:59:25.984780] [253] RADIO
[00:59:25.987776] [253] RADIO_STATUS
[00:59:26.053870] [57] BATTERY_STATUS
[00:59:26.061778] [58] ATTITUDE_TARGET
[00:59:26.066753] [59] VFR_HUD
[00:59:26.800015] [60] VFR_HUD
[00:59:26.823878] [61] HEARTBEAT
[00:59:26.904010] [254] RADIO
[00:59:26.906852] [254] RADIO_STATUS
[00:59:27.485057] [62] VFR_HUD
[00:59:27.849039] [63] HEARTBEAT
[00:59:27.857003] [64] ATTITUDE_TARGET
[00:59:27.942987] [255] RADIO
[00:59:27.945956] [255] RADIO_STATUS
[00:59:28.295764] [65] VFR_HUD
[00:59:28.859152] [66] HEARTBEAT
[00:59:28.973076] [0] RADIO
[00:59:28.976148] [0] RADIO_STATUS
[00:59:29.012106] [67] VFR_HUD
[00:59:29.916204] [68] HEARTBEAT
[00:59:29.923290] [69] SYS_STATUS
[00:59:29.957231] [70] BATTERY_STATUS
[00:59:29.959221] [71] EXTENDED_SYS_STATE
[00:59:29.967236] [72] ATTITUDE_TARGET
[00:59:29.972289] [73] VFR_HUD
[00:59:29.975181] [74] SYSTEM_TIME
[00:59:30.013211] [1] RADIO
[00:59:30.016144] [1] RADIO_STATUS
[00:59:30.703325] [75] VFR_HUD
[00:59:30.818371] [76] HEARTBEAT
[00:59:30.932526] [2] RADIO
[00:59:30.935370] [2] RADIO_STATUS
[00:59:31.518410] [77] VFR_HUD
[00:59:31.862423] [78] HEARTBEAT
[00:59:31.870401] [79] ATTITUDE_TARGET
[00:59:31.962448] [3] RADIO
[00:59:31.965387] [3] RADIO_STATUS
[00:59:32.312495] [80] VFR_HUD
[00:59:32.888715] [81] HEARTBEAT
[00:59:33.001597] [4] RADIO
[00:59:33.004580] [4] RADIO_STATUS
[00:59:33.127957] [82] VFR_HUD
[00:59:33.824801] [83] HEARTBEAT
[00:59:33.859736] [84] SYS_STATUS
[00:59:33.867668] [85] BATTERY_STATUS
[00:59:33.883683] [86] ATTITUDE_TARGET
[00:59:33.887666] [87] VFR_HUD
[00:59:33.954713] [5] RADIO
[00:59:33.957711] [5] RADIO_STATUS
[00:59:34.611754] [88] VFR_HUD
[00:59:34.836896] [89] HEARTBEAT
[00:59:34.950870] [6] RADIO
[00:59:34.953692] [6] RADIO_STATUS
[00:59:35.421794] [90] VFR_HUD
[00:59:35.890862] [91] HEARTBEAT
[00:59:35.897967] [92] ATTITUDE_TARGET
[00:59:36.017884] [7] RADIO
[00:59:36.021004] [7] RADIO_STATUS
[00:59:36.221017] [93] VFR_HUD
[00:59:36.796046] [94] HEARTBEAT
[00:59:37.020053] [8] RADIO
[00:59:37.023094] [8] RADIO_STATUS
[00:59:37.057975] [95] VFR_HUD
[00:59:37.838185] [96] HEARTBEAT
[00:59:37.844123] [97] SYS_STATUS
[00:59:37.959179] [98] BATTERY_STATUS
[00:59:38.077194] [99] ATTITUDE_TARGET
[00:59:38.082124] [100] VFR_HUD
[00:59:38.116134] [9] RADIO
[00:59:38.118132] [9] RADIO_STATUS
[00:59:38.645270] [101] VFR_HUD
[00:59:38.865256] [102] HEARTBEAT
[00:59:38.984211] [10] RADIO
[00:59:38.987196] [10] RADIO_STATUS
[00:59:39.439383] [103] VFR_HUD
[00:59:39.908457] [104] HEARTBEAT
[00:59:39.916408] [105] ATTITUDE_TARGET
[00:59:40.008354] [11] RADIO
[00:59:40.011330] [11] RADIO_STATUS
[00:59:40.254395] [106] VFR_HUD
[00:59:40.814414] [107] HEARTBEAT
[00:59:41.049459] [108] VFR_HUD
[00:59:41.081511] [12] RADIO
[00:59:41.084377] [12] RADIO_STATUS
[00:59:41.866544] [109] HEARTBEAT
[00:59:41.872612] [110] SYS_STATUS
[00:59:41.991579] [111] BATTERY_STATUS
[00:59:41.999559] [112] ATTITUDE_TARGET
[00:59:42.029648] [113] VFR_HUD
[00:59:42.056572] [13] RADIO
[00:59:42.059591] [13] RADIO_STATUS
[00:59:42.658694] [114] VFR_HUD
[00:59:42.883693] [115] HEARTBEAT
[00:59:42.997783] [14] RADIO
[00:59:43.000730] [14] RADIO_STATUS
[00:59:43.467770] [116] VFR_HUD
[00:59:43.803900] [117] HEARTBEAT
[00:59:43.825901] [118] ATTITUDE_TARGET
[00:59:44.041846] [15] RADIO
[00:59:44.044825] [15] RADIO_STATUS
[00:59:44.267963] [119] VFR_HUD
[00:59:44.847983] [120] HEARTBEAT
[00:59:45.066904] [16] RADIO
[00:59:45.069892] [16] RADIO_STATUS
[00:59:45.186944] [121] VFR_HUD
[00:59:45.884168] [122] HEARTBEAT
[00:59:45.891028] [123] SYS_STATUS
[00:59:45.985985] [17] RADIO
[00:59:45.989018] [17] RADIO_STATUS
[00:59:46.027056] [124] BATTERY_STATUS
[00:59:46.054082] [125] ATTITUDE_TARGET
[00:59:46.059053] [126] VFR_HUD
[00:59:46.686124] [127] VFR_HUD
[00:59:46.797147] [128] HEARTBEAT
[00:59:47.025203] [18] RADIO
[00:59:47.028236] [18] RADIO_STATUS
[00:59:47.486204] [129] VFR_HUD
[00:59:47.850296] [130] HEARTBEAT
[00:59:47.858313] [131] ATTITUDE_TARGET
[00:59:48.055308] [19] RADIO
[00:59:48.058285] [19] RADIO_STATUS
[00:59:48.300330] [132] VFR_HUD
[00:59:48.861454] [133] HEARTBEAT
